,time,.header.seq,.header.stamp.secs,.header.stamp.nsecs,.header.frame_id,.identifier.data,.size.data,.TimeStamp.data,PosLocalX,PosLocalY,Height,GPS_Speed,AccelX,AccelY,AccelZ,PedalPosAcc,PedalPosBrk,AngleSteer,carPositionNormalized,TimeStamp
28370,2020/07/21/19:38:07.062259,28371,1595327887,61970233,,,0,1595327872,-1355.653809,2312.668701,97.47402191,94.04811096,-0.0470127761,0.743660867,-0.651223481,0.0,0.0,55.56719971,0.0498984084,1595327887.06197
28371,2020/07/21/19:38:07.162263,28372,1595327887,161969900,,,0,1595327872,-1358.074341,2312.655518,97.45387268,93.21652985,-0.293182522,0.14156465199999999,-0.6560805439999999,0.0,0.0,56.07419586,0.0500163138,1595327887.16197
28372,2020/07/21/19:38:07.262264,28373,1595327887,261960983,,,0,1595327872,-1360.076782,2312.587158,97.4506073,91.93904877,-0.0985501409,0.380708605,-1.0981098409999999,0.0,0.0,54.04619598,0.050113033499999994,1595327887.26196
28373,2020/07/21/19:38:07.362255,28374,1595327887,361969947,,,0,1595327872,-1363.330322,2312.345459,97.49452972,90.38227081,-0.0340137035,-0.17810848399999998,-0.7308044429999999,0.0,0.0,56.88539886,0.0502696745,1595327887.36197
28374,2020/07/21/19:38:07.462086,28375,1595327887,461966753,,,0,1595327872,-1365.9338380000002,2312.063965,97.52142334,89.33426666,-0.0552735925,-0.458627999,-0.7434794309999999,0.0,0.0,61.24559784,0.0503933802,1595327887.4619699
28375,2020/07/21/19:38:07.562305,28376,1595327887,561969041,,,0,1595327872,-1368.199707,2311.750732,97.51821899,87.78593445,-0.207749575,0.321554214,-1.134759903,0.0,0.0,62.36099625,0.0504998304,1595327887.56197
28376,2020/07/21/19:38:07.662250,28377,1595327887,661968231,,,0,1595327872,-1370.687134,2311.288818,97.53812408,85.91921997,-0.144048542,0.24856022,-1.295301676,0.0,0.0,63.93270111,0.050618030099999996,1595327887.66197
28377,2020/07/21/19:38:07.762239,28378,1595327887,761958837,,,0,1595327872,-1372.82666,2310.783203,97.57983398,84.51831818,-0.160543084,0.031295869500000004,-1.076127291,0.0,0.0,69.50969696,0.0507204495,1595327887.76196
28378,2020/07/21/19:38:07.862286,28379,1595327887,861952543,,,0,1595327872,-1375.1757810000001,2310.121338,97.63425446,82.97947693,-0.276628673,0.011056683999999999,-1.058146358,0.0,0.0,69.61109924,0.050834994800000005,1595327887.86195
28379,2020/07/21/19:38:07.962222,28380,1595327887,962077140,,,0,1595327872,-1377.195557,2309.459229,97.67884827,81.81501007,-0.0106888115,-0.107847229,-1.033133268,0.387950003,0.0,70.62509918,0.0509332642,1595327887.96208
28380,2020/07/21/19:38:08.062155,28381,1595327888,62020778,,,0,1595327872,-1378.975952,2308.8017579999996,97.7099762,81.02275848,-0.0243461728,-0.11110881,-1.007864237,0.65595001,0.0,73.05870056,0.0510210879,1595327888.0620198
28381,2020/07/21/19:38:08.161980,28382,1595327888,161876201,,,0,1595327872,-1381.572388,2307.704102,97.7437973,80.29248047,0.24132013300000002,0.10544980300000001,-1.1108455659999998,1.0,0.0,75.49230194,0.051151208600000005,1595327888.16188
28382,2020/07/21/19:38:08.262240,28383,1595327888,261947870,,,0,1595327872,-1383.436035,2306.80249,97.76993561,80.13980103,0.0732362568,0.08300822969999999,-1.0712889429999999,1.0,0.0,76.30349731,0.051247451500000006,1595327888.26195
28383,2020/07/21/19:38:08.362229,28384,1595327888,361951589,,,0,1595327872,-1385.682007,2305.605957,97.78941345,80.66173553,0.159981072,-0.106138632,-0.887559772,1.0,0.0,75.79650116,0.051365923099999995,1595327888.36195
28384,2020/07/21/19:38:08.462069,28385,1595327888,461950778,,,0,1595327872,-1387.430664,2304.587158,97.80519867,81.14061737,0.238017946,0.377978861,-1.057085991,1.0,0.0,77.52029419,0.0514588133,1595327888.46195
28385,2020/07/21/19:38:08.562054,28386,1595327888,561960220,,,0,1595327872,-1389.204102,2303.460205,97.85151672,81.61641693,0.22230245199999998,0.21475178,-0.782051563,1.0,0.0,79.85250092,0.0515545309,1595327888.56196
28386,2020/07/21/19:38:08.662238,28387,1595327888,661960601,,,0,1595327872,-1391.182251,2302.119141,97.91500092,82.2374115,0.172433361,-0.456508607,-0.287997782,1.0,0.0,81.77909088,0.051664948499999995,1595327888.66196
28387,2020/07/21/19:38:08.762238,28388,1595327888,761962890,,,0,1595327872,-1393.1525880000002,2300.729004,97.93608856,82.51415253,-1.283616066,0.482692361,-5.124694824,1.0,0.0,80.56229401,0.051778182400000004,1595327888.76196
28388,2020/07/21/19:38:08.862281,28389,1595327888,861948251,,,0,1595327872,-1394.932739,2299.165771,97.95475769,80.48257446,0.230335072,-0.0298605151,-0.547592402,1.0,0.0,85.22669983,0.051886089100000005,1595327888.86195
28389,2020/07/21/19:38:08.962310,28390,1595327888,961981773,,,0,1595327872,-1396.411743,2297.705566,97.9799881,80.22955322,0.0467624515,-0.36882519700000005,-0.37280890299999997,1.0,0.0,89.89109802,0.0519829318,1595327888.96198
28390,2020/07/21/19:38:09.062064,28391,1595327889,61965465,,,0,1595327872,-1397.834595,2296.185059,97.97852325,80.96817779999999,0.30076494800000003,-0.42568355799999996,-0.327704102,1.0,0.0,88.26869965,0.0520795472,1595327889.06197
28391,2020/07/21/19:38:09.162388,28392,1595327889,161980867,,,0,1595327872,-1399.481812,2294.3701170000004,97.93430328,82.40879059,0.426637411,0.122901104,-0.625261486,1.0,0.0,75.18809509,0.052194315899999996,1595327889.1619802
28392,2020/07/21/19:38:09.262098,28393,1595327889,261981964,,,0,1595327872,-1400.700806,2292.955811,97.90431976,83.4666748,0.227827638,0.8254196640000001,-1.117827654,1.0,0.0,44.61600113,0.0522810183,1595327889.26198
28393,2020/07/21/19:38:09.362083,28394,1595327889,361951589,,,0,1595327872,-1402.407227,2290.832275,97.90527344,84.30375671,0.140622661,-0.00039857591,-0.5664994720000001,1.0,0.0,-2.534999847,0.0524080098,1595327889.36195
28394,2020/07/21/19:38:09.462042,28395,1595327889,461950540,,,0,1595327872,-1403.604248,2289.263184,97.91103363,84.72637177,0.13693602400000002,-0.6948611140000001,-0.15431167199999998,1.0,0.0,2.687099934,0.0525015593,1595327889.46195
28395,2020/07/21/19:38:09.562226,28396,1595327889,561943531,,,0,1595327872,-1405.221558,2287.095947,97.86025238,86.17195892,0.44967806299999996,-0.312710375,-0.356314927,1.0,0.0,22.71359825,0.052628792800000004,1595327889.56194
28396,2020/07/21/19:38:09.662050,28397,1595327889,661957025,,,0,1595327872,-1406.538208,2285.276611,97.78935242,87.56002045,0.448543966,0.21838644100000001,-0.49618914700000005,1.0,0.0,26.36399841,0.0527334698,1595327889.66196
28397,2020/07/21/19:38:09.762293,28398,1595327889,761986255,,,0,1595327872,-1408.1723630000001,2282.918213,97.71820068,88.96743011,0.277938813,-0.0065131411,-0.302185059,1.0,0.0,25.75559998,0.0528686233,1595327889.76199
28398,2020/07/21/19:38:09.862239,28399,1595327889,861949443,,,0,1595327872,-1409.288696,2281.242432,97.68047333,89.90679932,0.539652765,-0.182864547,-0.39851704200000004,1.0,0.0,22.61219978,0.0529641844,1595327889.86195
28399,2020/07/21/19:38:09.962152,28400,1595327889,962021350,,,0,1595327872,-1410.5584720000002,2279.277832,97.63816834,90.98409271,0.147710949,-0.321002334,-0.19564214300000002,1.0,0.0,15.51419926,0.053074073,1595327889.96202
28400,2020/07/21/19:38:10.062298,28401,1595327890,61988353,,,0,1595327872,-1411.699341,2277.470703,97.59094238,92.09873962,0.390367389,-0.00137538277,-0.391894907,1.0,0.0,13.48619938,0.0531758443,1595327890.06199
28401,2020/07/21/19:38:10.162124,28402,1595327890,162019491,,,0,1595327872,-1413.434448,2274.630371,97.51386261,93.61449432,0.272379041,0.022269465,-0.401290745,1.0,0.0,18.55619812,0.0533341542,1595327890.16202
28402,2020/07/21/19:38:10.262316,28403,1595327890,261975526,,,0,1595327872,-1414.783447,2272.326172,97.45520782,94.80516815,0.35932838899999997,0.0575086996,-0.5361315010000001,1.0,0.0,17.33939934,0.0534605347,1595327890.26198
28403,2020/07/21/19:38:10.362255,28404,1595327890,361959218,,,0,1595327872,-1416.109985,2269.970703,97.40361786,95.95252228,0.40012633799999997,0.0689905807,-0.401849866,1.0,0.0,17.23799896,0.0535886995,1595327890.36196
28404,2020/07/21/19:38:10.462281,28405,1595327890,461981534,,,0,1595327872,-1417.147583,2268.064941,97.36854553,96.84474945,0.342526615,0.123946205,-0.42088180799999997,1.0,0.0,17.13659859,0.0536923669,1595327890.46198
28405,2020/07/21/19:38:10.562078,28406,1595327890,561978101,,,0,1595327872,-1418.5839839999999,2265.331055,97.33105469,98.09695435,0.43083226700000005,0.161292136,-0.43179756399999997,1.0,0.0,15.51419926,0.053840134299999995,1595327890.56198
28406,2020/07/21/19:38:10.662276,28407,1595327890,661969900,,,0,1595327872,-1419.844971,2262.835693,97.31065369,99.18141174,0.383034915,0.155404732,-0.318590969,1.0,0.0,17.23799896,0.053973611399999996,1595327890.66197
28407,2020/07/21/19:38:10.762289,28408,1595327890,761972904,,,0,1595327872,-1421.1170650000001,2260.21875,97.30267334,100.2438889,0.19868038600000001,0.289395213,-0.405839533,1.0,0.0,15.51419926,0.054112739900000005,1595327890.7619698
28408,2020/07/21/19:38:10.862272,28409,1595327890,861980199,,,0,1595327872,-1422.432495,2257.401611,97.31270599,101.38041690000001,0.288642228,0.07023645190000001,-0.381976098,1.0,0.0,14.09459972,0.0542611368,1595327890.86198
28409,2020/07/21/19:38:10.962309,28410,1595327890,961973667,,,0,1595327872,-1423.4804689999999,2255.080811,97.31739807,102.2752457,0.323044717,0.0694093704,-0.365146756,1.0,0.0,13.08059978,0.0543832555,1595327890.9619699
28410,2020/07/21/19:38:11.062299,28411,1595327891,61989784,,,0,1595327872,-1424.409058,2252.964111,97.31919098,103.10345459999999,0.309726954,0.058507055,-0.226062343,1.0,0.0,7.706399441,0.054494809400000004,1595327891.06199
28411,2020/07/21/19:38:11.162292,28412,1595327891,161976337,,,0,1595327872,-1425.664307,2250.0239260000003,97.3278656,104.1685104,0.16963844,0.0734406933,-0.17313057199999998,1.0,0.0,1.622399926,0.0546492971,1595327891.1619802
28412,2020/07/21/19:38:11.262303,28413,1595327891,261995315,,,0,1595327872,-1426.705933,2247.528564,97.34098053,105.08197779999999,0.299495578,0.0226110592,-0.16456636800000002,1.0,0.0,-1.216799974,0.0547792912,1595327891.262
28413,2020/07/21/19:38:11.362287,28414,1595327891,361977577,,,0,1595327872,-1427.946411,2244.515625,97.35851288,106.144989,0.249634832,0.031466376000000004,-0.0496325716,1.0,0.0,-5.678399562999999,0.05493626,1595327891.36198
28414,2020/07/21/19:38:11.462311,28415,1595327891,461967945,,,0,1595327872,-1429.094849,2241.7192379999997,97.37483215,107.1109543,0.289825559,-0.0640007406,0.08591789009999999,1.0,0.0,-8.51760006,0.055082038,1595327891.4619699
28415,2020/07/21/19:38:11.562310,28416,1595327891,561969518,,,0,1595327872,-1430.122437,2239.233154,97.38398743,107.9793243,0.241232663,-0.150350958,0.114947967,1.0,0.0,-12.57359982,0.0552122854,1595327891.56197
28416,2020/07/21/19:38:11.662061,28417,1595327891,661953687,,,0,1595327872,-1431.169556,2236.731934,97.38186646,108.83650970000001,0.379152,-0.145831779,0.160732135,1.0,0.0,-19.16460037,0.0553427637,1595327891.66195
28417,2020/07/21/19:38:11.762303,28418,1595327891,761965036,,,0,1595327872,-1432.7932130000002,2232.958984,97.35760498,110.05870060000001,0.210190848,-0.08501724150000001,0.358016878,1.0,0.0,-25.45140076,0.0555411689,1595327891.7619698
28418,2020/07/21/19:38:11.862246,28419,1595327891,861961841,,,0,1595327872,-1433.922607,2230.438965,97.3335495,110.90850829999998,0.272945225,-0.0226443894,0.559698582,1.0,0.0,-32.49869919,0.05567508559999999,1595327891.86196
28419,2020/07/21/19:38:11.962238,28420,1595327891,962083101,,,0,1595327872,-1435.100464,2227.919434,97.30809021,111.6247406,0.18855050199999998,0.0621524788,0.6713471409999999,1.0,0.0,-38.32920074,0.0558100678,1595327891.96208
28420,2020/07/21/19:38:12.062373,28421,1595327892,62025070,,,0,1595327872,-1436.632568,2224.822754,97.28164673,112.47801969999999,0.14321672900000001,0.0367911197,0.858676195,1.0,0.0,-38.53199768,0.0559776984,1595327892.06203
28421,2020/07/21/19:38:12.162308,28422,1595327892,161982774,,,0,1595327872,-1437.988892,2222.243408,97.26288605,113.1309967,0.166716248,-0.033022943900000004,0.789561689,1.0,0.0,-40.00229645,0.056119784699999994,1595327892.1619802
28422,2020/07/21/19:38:12.262084,28423,1595327892,261971712,,,0,1595327872,-1439.5545650000001,2219.435303,97.23867035,113.832077,0.10909119199999999,-0.11370895800000001,0.811053276,1.0,0.0,-39.29249954,0.0562759154,1595327892.2619698
28423,2020/07/21/19:38:12.362251,28424,1595327892,361963510,,,0,1595327872,-1440.8573,2217.22168,97.2140274,114.4508743,0.217054665,-0.08030446620000001,0.948199391,1.0,0.0,-39.29249954,0.0564009584,1595327892.36196
28424,2020/07/21/19:38:12.462270,28425,1595327892,461966276,,,0,1595327872,-1442.831421,2214.054932,97.16981506,115.13979340000002,0.21881979699999998,-0.144629985,0.941110969,1.0,0.0,-39.6473999,0.056582685599999995,1595327892.4619699
28425,2020/07/21/19:38:12.562269,28426,1595327892,561953544,,,0,1595327872,-1444.643677,2211.326416,97.1235733,116.02845,0.26555401100000003,0.135846511,1.116712093,1.0,0.0,-36.30119705,0.056741938,1595327892.56195
28426,2020/07/21/19:38:12.662086,28427,1595327892,661961793,,,0,1595327872,-1446.3227539999998,2208.951172,97.09319305,116.66281129999999,0.23488706399999998,0.374418825,0.9825631979999999,1.0,0.0,-31.73820114,0.0568830073,1595327892.66196
28427,2020/07/21/19:38:12.762254,28428,1595327892,761961221,,,0,1595327872,-1447.898193,2206.8442379999997,97.087677,117.14674380000001,0.0742081106,0.20112499600000003,0.9042876959999999,1.0,0.0,-30.92699814,0.0570104942,1595327892.76196
28428,2020/07/21/19:38:12.862282,28429,1595327892,861958742,,,0,1595327872,-1450.393555,2203.693848,97.09906769,118.054245,0.32844463,0.036396198,0.906608582,1.0,0.0,-40.55999756,0.0572049394,1595327892.86196
28429,2020/07/21/19:38:12.962333,28430,1595327892,961990833,,,0,1595327872,-1452.494507,2201.207031,97.117836,118.63751979999999,0.123788476,0.316089004,1.000282884,1.0,0.0,-42.58800125,0.057362560199999996,1595327892.96199
28430,2020/07/21/19:38:13.062273,28431,1595327893,61958551,,,0,1595327872,-1454.751099,2198.704346,97.16719818,119.2460022,0.317589015,0.241277203,1.066714048,0.922799945,0.0,-39.29249954,0.0575254671,1595327893.06196
28431,2020/07/21/19:38:13.162343,28432,1595327893,161955595,,,0,1595327872,-1457.024048,2196.334229,97.23691559,119.55475619999999,0.0698056817,0.17992509899999998,1.109487295,0.583850026,0.0,-35.59139633,0.05768417940000001,1595327893.16196
28432,2020/07/21/19:38:13.262172,28433,1595327893,262029170,,,0,1595327872,-1459.1499019999999,2194.234375,97.30844116,119.57547759999999,0.000799804926,-0.0627055019,0.925163507,0.49314999600000003,0.0,-34.67879868,0.0578279085,1595327893.2620301
28433,2020/07/21/19:38:13.362101,28434,1595327893,361977100,,,0,1595327872,-1462.13147,2191.447266,97.39567566,119.4002075,-0.031415104900000004,-0.152507484,0.69902277,0.102800012,0.0,-28.08779907,0.0580246374,1595327893.36198
28434,2020/07/21/19:38:13.462278,28435,1595327893,461971521,,,0,1595327872,-1464.583374,2189.272217,97.44483185,118.94051359999999,-0.398451447,-0.249196649,0.8740615840000001,0.0,0.0,-20.88840103,0.0581826493,1595327893.4619699
28435,2020/07/21/19:38:13.562108,28436,1595327893,561987876,,,0,1595327872,-1466.844849,2187.354004,97.47190857,118.3561325,-0.17111307399999998,-0.0976319164,0.744974136,0.0,0.0,-14.80439949,0.058324825,1595327893.56199
28436,2020/07/21/19:38:13.662128,28437,1595327893,661990642,,,0,1595327872,-1469.4454349999999,2185.254639,97.49453735,117.6499634,-0.18430748600000002,-0.0071491152,0.846413553,0.0,0.0,-4.055999756,0.058484770400000004,1595327893.66199
28437,2020/07/21/19:38:13.762271,28438,1595327893,761963605,,,0,1595327872,-1472.00293,2183.28833,97.50863647,117.0531693,-0.22658059,-0.145768374,0.8177124859999999,0.0,0.0,2.484300137,0.0586410239,1595327893.76196
28438,2020/07/21/19:38:13.862278,28439,1595327893,861961841,,,0,1595327872,-1474.586548,2181.381836,97.50676727,116.49330900000001,-0.27086877800000003,-0.10493627900000001,0.542912066,0.0,0.0,20.07719994,0.0587965399,1595327893.86196
28439,2020/07/21/19:38:13.962362,28440,1595327893,961998939,,,0,1595327872,-1476.949341,2179.690674,97.49720001,116.01655579999999,-0.12192036199999999,-0.013852388600000001,0.202390105,0.0,0.0,32.85359955,0.0589366183,1595327893.962
28440,2020/07/21/19:38:14.062382,28441,1595327894,62000036,,,0,1595327872,-1479.865601,2177.635254,97.48148346,115.5113068,-0.24018003,-0.100770548,-0.104685098,0.0,0.0,33.25920105,0.0591109768,1595327894.062
28441,2020/07/21/19:38:14.162298,28442,1595327894,161980628,,,0,1595327872,-1482.5258789999998,2175.741943,97.46518707,115.0432892,-0.062306910800000004,-0.113767669,-0.569603682,0.0,0.0,33.36059952,0.0592689775,1595327894.1619802
28442,2020/07/21/19:38:14.262360,28443,1595327894,262028455,,,0,1595327872,-1485.06897,2173.872803,97.44818115,114.5326386,-0.148025393,-0.10650143,-0.822351336,0.0,0.0,33.0564003,0.0594248809,1595327894.2620301
28443,2020/07/21/19:38:14.362324,28444,1595327894,361983776,,,0,1595327872,-1487.635376,2171.900146,97.4227829,113.98651890000001,-0.025605678599999997,-0.15916270000000002,-0.8805700540000001,0.0,0.0,32.75219727,0.059583347300000006,1595327894.36198
28444,2020/07/21/19:38:14.462286,28445,1595327894,461962223,,,0,1595327872,-1490.063232,2169.933594,97.38689423,113.32001499999998,-0.190387547,-0.036771457599999995,-0.9555227159999999,0.0,0.0,29.81159782,0.059737414100000004,1595327894.46196
28445,2020/07/21/19:38:14.562258,28446,1595327894,561968088,,,0,1595327872,-1492.698364,2167.659668,97.3453064,112.5307693,-0.10357934199999999,0.0268174056,-0.9346187109999999,0.0,0.0,25.55279922,0.059908747699999994,1595327894.56197
28446,2020/07/21/19:38:14.662316,28447,1595327894,661976575,,,0,1595327872,-1494.492554,2166.018311,97.31762695,112.01614380000001,-0.127017468,-0.09826509650000001,-0.8078928590000001,0.0,0.0,25.95839882,0.0600308552,1595327894.6619802
28447,2020/07/21/19:38:14.762297,28448,1595327894,761970996,,,0,1595327872,-1496.966919,2163.626221,97.2677002,111.26784520000001,-0.225660324,-0.126368254,-0.9033110740000001,0.0,0.0,27.27659988,0.06020052730000001,1595327894.7619698
28448,2020/07/21/19:38:14.862301,28449,1595327894,861966848,,,0,1595327872,-1498.901855,2161.6408690000003,97.213974,110.5985336,-0.250231117,0.103370078,-1.114560604,0.0,0.0,27.78359985,0.060336586100000006,1595327894.86197
28449,2020/07/21/19:38:14.962305,28450,1595327894,961966037,,,0,1595327872,-1500.769043,2159.615723,97.16332245,109.88699340000001,-0.164501369,0.0409071483,-0.9413170809999999,0.0,0.0045993751799999994,29.81159782,0.0604713745,1595327894.9619699
28450,2020/07/21/19:38:15.062299,28451,1595327895,61978101,,,0,1595327872,-1503.387207,2156.5783690000003,97.1029129,109.0436325,0.0177237391,-0.109112561,-0.8206251859999999,0.0,0.000747051381,27.27659988,0.0606687889,1595327895.06198
28451,2020/07/21/19:38:15.162276,28452,1595327895,161962032,,,0,1595327872,-1505.26355,2154.251465,97.05422974,108.290802,-0.39791739,-0.030308727200000003,-0.852233589,0.0,0.0,25.75559998,0.060814496100000004,1595327895.16196
28452,2020/07/21/19:38:15.262250,28453,1595327895,261960268,,,0,1595327872,-1506.899292,2152.108398,97.00802612,107.55515290000001,-0.0505448282,-0.084877871,-0.867104471,0.0,0.0,25.14719963,0.0609452426,1595327895.26196
28453,2020/07/21/19:38:15.362273,28454,1595327895,361975669,,,0,1595327872,-1508.627075,2149.71875,96.94759369,106.98783870000001,-0.016369193799999997,-0.105598599,-1.0475101470000001,0.0,0.0,27.17519951,0.0610893555,1595327895.36198
28454,2020/07/21/19:38:15.462083,28455,1595327895,461951255,,,0,1595327872,-1510.315552,2147.2189940000003,96.87730408,105.9879608,-0.0249027014,0.448965192,-1.399653196,0.0,0.0,25.95839882,0.061235576900000005,1595327895.46195
28455,2020/07/21/19:38:15.562071,28456,1595327895,561948776,,,0,1595327872,-1511.6616210000002,2145.051025,96.83686066,105.3494797,-0.17911323899999998,0.263349622,-1.17981863,0.0,0.0,21.90239906,0.0613585375,1595327895.56195
28456,2020/07/21/19:38:15.662283,28457,1595327895,661966323,,,0,1595327872,-1512.9332279999999,2142.853027,96.81347656,104.8304367,-0.014168679699999999,0.0364509821,-0.811229825,0.0,0.0,21.29400063,0.061481025099999996,1595327895.66197
28457,2020/07/21/19:38:15.762071,28458,1595327895,761960029,,,0,1595327872,-1514.6207279999999,2139.706787,96.78856659,104.2552567,-0.0184657872,0.07076852019999999,-0.94254601,0.0,0.0,22.20660019,0.0616523437,1595327895.76196
28458,2020/07/21/19:38:15.862267,28459,1595327895,861976385,,,0,1595327872,-1515.7384029999998,2137.455322,96.77663422,103.76177220000001,-0.179356903,0.113020152,-0.863935828,0.0,0.0,22.30800056,0.06177252900000001,1595327895.86198
28459,2020/07/21/19:38:15.962418,28460,1595327895,962051391,,,0,1595327872,-1517.1755369999998,2134.322021,96.77635956,103.0891647,-0.19479699399999997,0.160973981,-0.879928112,0.0,0.0,18.96179962,0.0619368404,1595327895.96205
28460,2020/07/21/19:38:16.062278,28461,1595327896,61968564,,,0,1595327872,-1518.147705,2132.033203,96.78852081,102.6719208,-0.0443197489,-0.12068180699999999,-0.666350007,0.0,0.00475153234,17.44079781,0.0620556362,1595327896.06197
28461,2020/07/21/19:38:16.162258,28462,1595327896,161958694,,,0,1595327872,-1519.0742189999999,2129.737793,96.79103088,102.21662140000001,-0.29357028,-0.47694808200000005,-0.39977651799999997,0.0,0.284338772,16.73099899,0.0621743686,1595327896.16196
28462,2020/07/21/19:38:16.262407,28463,1595327896,262036561,,,0,1595327872,-1520.081909,2127.135498,96.7544632,100.7724533,-0.363652825,-0.455469131,-0.468244195,0.0,0.478564084,7.65569973,0.0623100847,1595327896.2620401
28463,2020/07/21/19:38:16.362391,28464,1595327896,361992359,,,0,1595327872,-1521.26355,2123.943604,96.65710449,99.16701508,-0.18037857100000002,-0.14681650699999998,-0.467448175,0.0,0.005480937660000001,-11.35679913,0.0624756217,1595327896.36199
28464,2020/07/21/19:38:16.462265,28465,1595327896,461965084,,,0,1595327872,-1522.16748,2121.381592,96.5640564,98.79033661,-0.0844082832,-0.0452025458,-0.20238368199999998,0.0,0.0,-31.02839851,0.0626093745,1595327896.4619699
28465,2020/07/21/19:38:16.562262,28466,1595327896,561957597,,,0,1595327872,-1523.0780029999999,2118.743408,96.46531677,98.43276978,-0.129632413,-0.0151906526,0.09064649050000001,0.0,0.0,-46.28909683,0.0627465695,1595327896.56196
28466,2020/07/21/19:38:16.662292,28467,1595327896,661966085,,,0,1595327872,-1523.862305,2116.503662,96.38063049,98.1521759,0.134782806,0.0763214827,0.5009329920000001,0.0,0.0,-53.38709641,0.06286350639999999,1595327896.66197
28467,2020/07/21/19:38:16.762274,28468,1595327896,761955261,,,0,1595327872,-1524.710205,2114.207764,96.29695129,97.81261444,-0.16539773300000002,0.113371789,0.831918955,0.0,0.0,-57.03749847,0.0629840344,1595327896.76196
28468,2020/07/21/19:38:16.862253,28469,1595327896,861965894,,,0,1595327872,-1525.586792,2112.020264,96.22574615,97.35823822,-0.278132141,0.132182091,1.0868149999999999,0.0,0.0,-60.28229523,0.0630995408,1595327896.86197
28469,2020/07/21/19:38:16.962326,28470,1595327896,961974859,,,0,1595327872,-1527.082886,2108.709473,96.13909149,96.52490234,-0.227856874,0.144002274,1.308775306,0.0,0.0,-64.33830261,0.0632784292,1595327896.9619699
28470,2020/07/21/19:38:17.062114,28471,1595327897,61974763,,,0,1595327872,-1528.177856,2106.5698239999997,96.09714508,95.88872528,-0.183776319,0.17430988,1.2663216590000002,0.226550013,0.0,-65.0480957,0.06339491900000001,1595327897.06197
28471,2020/07/21/19:38:17.162315,28472,1595327897,161966323,,,0,1595327872,-1529.681885,2103.945068,96.06446075,95.26796722,-0.136240959,0.150299177,1.340221643,0.169699997,0.0,-69.81389618,0.0635423884,1595327897.16197
28472,2020/07/21/19:38:17.262132,28473,1595327897,261989116,,,0,1595327872,-1531.1369630000002,2101.682861,96.05316162,94.66420746,-0.10598284,0.11257441300000001,1.23108983,0.14550000400000002,0.0,-74.27549744,0.06367201360000001,1595327897.26199
28473,2020/07/21/19:38:17.362303,28474,1595327897,361962795,,,0,1595327872,-1532.314575,2100.011475,96.05279541,94.15682983,0.0160424113,0.11332123,1.252227783,0.266350001,0.0,-75.18809509,0.0637702346,1595327897.36196
28474,2020/07/21/19:38:17.462252,28475,1595327897,461961507,,,0,1595327872,-1534.331665,2097.422607,96.06452179,93.47904205,-0.102527916,0.0876848996,1.398795843,0.396499991,0.0,-75.59369659,0.0639270619,1595327897.46196
28475,2020/07/21/19:38:17.562258,28476,1595327897,561959981,,,0,1595327872,-1535.64917,2095.889648,96.07869720000001,93.08776855,-0.00220412016,0.063084729,1.281314611,0.1162,0.0,-75.89790344,0.0640235096,1595327897.56196
28476,2020/07/21/19:38:17.662268,28477,1595327897,661958456,,,0,1595327872,-1537.6602779999998,2093.755615,96.10865021,92.15602875,-0.194025815,0.138440266,1.3852373359999999,0.0,0.0,-75.18809509,0.0641626716,1595327897.66196
28477,2020/07/21/19:38:17.762266,28478,1595327897,761978149,,,0,1595327872,-1539.3122560000002,2092.169189,96.14344025,91.23687744,-0.29366216100000003,0.145229623,1.3213702440000001,0.0,0.0,-74.88389587,0.0642721951,1595327897.76198
28478,2020/07/21/19:38:17.862221,28479,1595327897,861949920,,,0,1595327872,-1541.247192,2090.478271,96.19468689,90.3112793,-0.24627703399999998,0.10333064900000001,1.207537293,0.22510001100000002,0.0,-75.08670044,0.0643930286,1595327897.86195
28479,2020/07/21/19:38:17.962190,28480,1595327897,962016105,,,0,1595327872,-1543.008911,2089.077393,96.24768066,89.94391632,0.013317704199999999,0.0994594768,1.318437934,0.950899959,0.0,-75.59369659,0.06450027230000001,1595327897.96202
28480,2020/07/21/19:38:18.062321,28481,1595327898,61994314,,,0,1595327872,-1545.074951,2087.584473,96.31555176,90.12010193,0.163513362,0.09449647369999999,1.1728469129999999,1.0,0.0,-75.49230194,0.064620994,1595327898.06199
28481,2020/07/21/19:38:18.162258,28482,1595327898,161957740,,,0,1595327872,-1547.408447,2086.067139,96.39777374,90.50167084,0.045075297400000006,0.0490462445,1.10807395,1.0,0.0,-74.17410278,0.0647514388,1595327898.16196
28482,2020/07/21/19:38:18.262278,28483,1595327898,261976242,,,0,1595327872,-1549.362183,2084.916504,96.46779633,90.96172333,0.15911799699999998,0.0403970368,1.035670996,1.0,0.0,-72.55169678,0.0648611411,1595327898.26198
28483,2020/07/21/19:38:18.362065,28484,1595327898,361965656,,,0,1595327872,-1551.912842,2083.556152,96.5581131,91.6881485,0.174906969,0.0283732712,1.089782715,1.0,0.0,-72.34889984,0.0649972633,1595327898.36197
28484,2020/07/21/19:38:18.462050,28485,1595327898,461954832,,,0,1595327872,-1553.983521,2082.553955,96.62989044,92.39909363,0.0839068592,-0.007418489079999999,0.9496932029999999,1.0,0.0,-72.34889984,0.0651062652,1595327898.46195
28485,2020/07/21/19:38:18.562047,28486,1595327898,561955213,,,0,1595327872,-1556.673096,2081.3701170000004,96.71916199,93.21568298,0.118955672,-0.0760347396,0.768108845,1.0,0.0,-72.65309906,0.0652468801,1595327898.56196
28486,2020/07/21/19:38:18.662055,28487,1595327898,661951303,,,0,1595327872,-1559.06189,2080.4145510000003,96.78746033,93.92478179999999,0.28357979699999997,-0.114980191,0.722131014,1.0,0.0,-72.65309906,0.0653680339,1595327898.66195
28487,2020/07/21/19:38:18.762012,28488,1595327898,761912107,,,0,1595327872,-1561.57373,2079.4997559999997,96.84480286,94.75379181,0.33777079,0.0573815033,0.930098414,1.0,0.0,-70.82789612,0.0654951558,1595327898.76191
28488,2020/07/21/19:38:18.862051,28489,1595327898,861955881,,,0,1595327872,-1564.059937,2078.688965,96.89644623,95.41473389,0.21246984600000002,-0.0244080834,1.009706974,1.0,0.0,-69.91529846,0.0656197369,1595327898.86196
28489,2020/07/21/19:38:18.962049,28490,1595327898,961946964,,,0,1595327872,-1566.588989,2077.9526370000003,96.94169617,96.10710144,0.185131386,-0.188301653,0.8690664770000001,1.0,0.0,-71.03070068,0.065744333,1595327898.96195
28490,2020/07/21/19:38:19.062232,28491,1595327899,61945199,,,0,1595327872,-1569.15979,2077.287842,96.9744873,96.91031647,0.231748581,-0.0185963027,0.967383146,1.0,0.0,-67.38030243,0.0658713207,1595327899.06195
28491,2020/07/21/19:38:19.162265,28492,1595327899,161950111,,,0,1595327872,-1571.452759,2076.7651370000003,97.00371552,97.67739105,0.400735468,0.00832946599,0.758685768,1.0,0.0,-64.13549805,0.0659836605,1595327899.16195
28492,2020/07/21/19:38:19.262256,28493,1595327899,261955499,,,0,1595327872,-1573.7772220000002,2076.300537,97.03520966,98.42304229999999,0.36068311299999994,-0.105151236,0.76456821,1.0,0.0,-58.76129913,0.0660972297,1595327899.26196
28493,2020/07/21/19:38:19.362125,28494,1595327899,361985683,,,0,1595327872,-1576.3751220000001,2075.852295,97.06455994,99.19815063,0.307366163,-0.176718682,0.8219632509999999,1.0,0.0,-49.83809662,0.0662230551,1595327899.36199
28494,2020/07/21/19:38:19.462300,28495,1595327899,461980819,,,0,1595327872,-1579.9165039999998,2075.358154,97.09221649,100.27888490000001,0.51118499,0.131839201,0.922831118,1.0,0.0,-31.83959961,0.0663954541,1595327899.46198
28495,2020/07/21/19:38:19.562281,28496,1595327899,561973333,,,0,1595327872,-1582.251465,2075.111816,97.11476898,100.9289093,0.308604121,0.154730424,0.8171910640000001,1.0,0.0,-10.74839973,0.0665078312,1595327899.56197
28496,2020/07/21/19:38:19.662362,28497,1595327899,662031412,,,0,1595327872,-1585.284058,2074.881104,97.15510559,101.82695770000001,0.372256488,0.0588113144,0.815746069,1.0,0.0,0.0,0.066653952,1595327899.66203
28497,2020/07/21/19:38:19.762350,28498,1595327899,761968851,,,0,1595327872,-1588.0939939999998,2074.73999,97.19541931,102.7559814,0.290255517,0.012671846899999999,0.633423507,1.0,0.0,4.055999756,0.06678950040000001,1595327899.7619698
28498,2020/07/21/19:38:19.862118,28499,1595327899,861990928,,,0,1595327872,-1590.9316410000001,2074.644531,97.23723602,103.6821747,0.105429471,0.0871191397,0.07661854480000001,1.0,0.0,10.24139977,0.0669261664,1595327899.86199
28499,2020/07/21/19:38:19.962223,28500,1595327899,962072372,,,0,1595327872,-1594.057007,2074.556641,97.29665375,104.67581940000001,0.0794530511,0.134752259,-0.143591017,1.0,0.0,16.12259865,0.0670771152,1595327899.96207
28500,2020/07/21/19:38:20.062282,28501,1595327900,61967134,,,0,1595327872,-1596.8591310000002,2074.466064,97.3658371,105.55180359999999,0.21743924899999997,0.14509396300000002,-0.323280007,1.0,0.0,13.18199921,0.067212224,1595327900.06197
28501,2020/07/21/19:38:20.162092,28502,1595327900,161975145,,,0,1595327872,-1599.770752,2074.344727,97.4532547,106.3906479,0.186266392,0.173895374,-0.167019248,1.0,0.0,4.562999725,0.0673540011,1595327900.1619802
28502,2020/07/21/19:38:20.262100,28503,1595327900,261989116,,,0,1595327872,-1602.079834,2074.228516,97.53211975,107.0701294,0.403214335,0.079214558,-0.378832877,1.0,0.0,1.216799974,0.0674666315,1595327900.26199
28503,2020/07/21/19:38:20.362102,28504,1595327900,361989736,,,0,1595327872,-1605.658569,2074.022705,97.65452576,108.05793759999999,0.20600210100000002,-0.274894774,-0.241979152,1.0,0.0,7.503600121,0.0676392913,1595327900.36199
28504,2020/07/21/19:38:20.462065,28505,1595327900,461952924,,,0,1595327872,-1608.908081,2073.816895,97.74401855,109.0034256,0.266451687,-0.22037184199999998,-0.263090551,1.0,0.0,13.38479996,0.0677981302,1595327900.46195
28505,2020/07/21/19:38:20.562057,28506,1595327900,561947822,,,0,1595327872,-1611.545288,2073.634033,97.79847717,109.74424740000002,0.30981650899999996,-0.143144548,-0.13536039,1.0,0.0,11.66100025,0.0679244697,1595327900.56195
28506,2020/07/21/19:38:20.662066,28507,1595327900,661954164,,,0,1595327872,-1614.56665,2073.401855,97.850914,110.58404540000001,0.17341108600000002,-0.014007208899999998,-0.34838259200000005,1.0,0.0,8.568299294,0.0680716634,1595327900.66195
28507,2020/07/21/19:38:20.762079,28508,1595327900,761964797,,,0,1595327872,-1617.23877,2073.172607,97.89855957,111.32163999999999,0.138760641,0.0658741742,-0.296471119,1.0,0.0,9.531599997999999,0.0682022199,1595327900.76196
28508,2020/07/21/19:38:20.862100,28509,1595327900,861979722,,,0,1595327872,-1621.228882,2072.787109,97.97457886,112.3726807,0.15466432300000002,-0.087673068,-0.254230529,1.0,0.0,10.95119953,0.0683965459,1595327900.86198
28509,2020/07/21/19:38:20.962072,28510,1595327900,961959123,,,0,1595327872,-1624.313599,2072.454834,98.03013611,113.2024994,0.217854142,-0.0949719176,-0.249541819,1.0,0.0,11.55959892,0.06854760650000001,1595327900.96196
28510,2020/07/21/19:38:21.062077,28511,1595327901,61962842,,,0,1595327872,-1627.040405,2072.136719,98.0737915,113.9299011,0.196776271,-0.0845114142,-0.421059936,1.0,0.0,11.4581995,0.0686797276,1595327901.06196
28511,2020/07/21/19:38:21.162066,28512,1595327901,161954641,,,0,1595327872,-1629.876343,2071.779785,98.11464691,114.6571274,0.13591215,-0.0363222323,-0.34552776799999996,1.0,0.0,12.16800022,0.06881781669999999,1595327901.16195
28512,2020/07/21/19:38:21.262094,28513,1595327901,261975288,,,0,1595327872,-1632.631714,2071.405518,98.1517334,115.37409209999998,0.188946143,-0.0306672435,-0.262067437,1.0,0.0,13.89179993,0.0689530671,1595327901.26198
28513,2020/07/21/19:38:21.361978,28514,1595327901,361899375,,,0,1595327872,-1637.219971,2070.7182620000003,98.21068573,116.52573390000002,0.0457231253,-0.0572047792,-0.415293962,1.0,0.0,12.77639961,0.0691772327,1595327901.3619
28514,2020/07/21/19:38:21.462063,28515,1595327901,461955070,,,0,1595327872,-1640.393677,2070.194092,98.24965668,117.3382416,0.34849697399999996,0.0162856095,-0.354959935,1.0,0.0,10.44420052,0.0693331584,1595327901.46196
28515,2020/07/21/19:38:21.562078,28516,1595327901,561969518,,,0,1595327872,-1643.194946,2069.698486,98.28486633,118.01826480000001,0.183028057,0.0020350837100000002,-0.38235378299999995,1.0,0.0,9.328800201,0.06946998830000001,1595327901.56197
28516,2020/07/21/19:38:21.662066,28517,1595327901,661964178,,,0,1595327872,-1646.493164,2069.078125,98.32917786,118.83502959999998,0.34067317799999997,0.0621461272,-0.344555825,1.0,0.0,8.010599136,0.069632709,1595327901.66196
28517,2020/07/21/19:38:21.762087,28518,1595327901,761967658,,,0,1595327872,-1649.4165039999998,2068.498047,98.36923981,119.5387726,0.19183224399999999,-0.0967359692,-0.26108497399999997,1.0,0.0,6.388199806,0.0697763041,1595327901.7619698
28518,2020/07/21/19:38:21.862280,28519,1595327901,861974954,,,0,1595327872,-1652.352783,2067.892334,98.39916229,120.219101,0.18899396100000002,-0.30886000399999997,-0.255145222,0.866349995,0.0,6.388199806,0.0699212775,1595327901.86198
28519,2020/07/21/19:38:21.962181,28520,1595327901,962038516,,,0,1595327872,-1656.477417,2067.007568,98.41359711,120.50922390000001,-0.0775019601,-0.049602895999999994,-0.315830022,0.0,0.0,6.388199806,0.0701250508,1595327901.96204
28520,2020/07/21/19:38:22.062338,28521,1595327902,61971664,,,0,1595327872,-1659.020508,2066.438721,98.41992188,120.0840378,-0.272026718,0.14691548,-0.295935571,0.0,0.0,9.531599997999999,0.0702513084,1595327902.06197
28521,2020/07/21/19:38:22.162266,28522,1595327902,161965608,,,0,1595327872,-1662.0351560000001,2065.736572,98.43827057,119.6163483,-0.056631393700000004,0.0874652043,-0.33584407,0.0,0.000151988424,15.51419926,0.0704013258,1595327902.16197
28522,2020/07/21/19:38:22.262271,28523,1595327902,261971235,,,0,1595327872,-1665.030273,2065.005127,98.46012878,119.10975649999999,-0.26765793600000004,0.00220536534,-0.581656516,0.0,0.0045993751799999994,22.61219978,0.0705506802,1595327902.2619698
28523,2020/07/21/19:38:22.362359,28524,1595327902,362001419,,,0,1595327872,-1669.4296880000002,2063.848145,98.4942627,118.312973,-0.21244691300000001,0.0166773926,-0.670236945,0.0,0.0,28.18919945,0.0707716495,1595327902.362
28524,2020/07/21/19:38:22.462263,28525,1595327902,461968898,,,0,1595327872,-1672.360229,2063.007568,98.51768494,117.7803268,-0.221069679,-0.13603498,-0.7157059309999999,0.0,0.0,31.1298008,0.0709193274,1595327902.4619699
28525,2020/07/21/19:38:22.562117,28526,1595327902,562001943,,,0,1595327872,-1675.630493,2061.990723,98.53540802,117.08960719999999,-0.33997631100000003,-0.0628702193,-0.8633301259999999,0.0,0.0260540526,33.15779877,0.071085602,1595327902.562
28526,2020/07/21/19:38:22.662296,28527,1595327902,661962270,,,0,1595327872,-1678.758301,2060.92627,98.54754639,116.13009640000001,-0.357701421,-0.0475623347,-0.9282969240000001,0.0,0.16595763,32.2451973,0.07124602049999999,1595327902.66196
28527,2020/07/21/19:38:22.762266,28528,1595327902,761971473,,,0,1595327872,-1681.5565190000002,2059.891602,98.55446625,114.9234009,-0.42345368899999997,-0.156166002,-0.8542718890000001,0.0,0.23526138100000002,32.44799805,0.0713915303,1595327902.7619698
28528,2020/07/21/19:38:22.862275,28529,1595327902,861968994,,,0,1595327872,-1684.644897,2058.654541,98.55118561,113.4299011,-0.283171177,-0.170219377,-1.056649685,0.0,0.101972811,33.25920105,0.0715532601,1595327902.86197
28529,2020/07/21/19:38:22.962317,28530,1595327902,961979150,,,0,1595327872,-1687.3182370000002,2057.4921879999997,98.53884888,112.4269791,-0.063182056,-0.115588114,-1.091990709,0.0,0.0110214064,34.07040024,0.0716957524,1595327902.96198
28530,2020/07/21/19:38:23.062307,28531,1595327903,61992168,,,0,1595327872,-1690.017334,2056.218018,98.52153778,111.56511689999999,0.05880749230000001,0.0130197657,-1.173484564,0.0,0.0,36.909599299999996,0.071841456,1595327903.06199
28531,2020/07/21/19:38:23.162067,28532,1595327903,161965608,,,0,1595327872,-1692.8955079999998,2054.7346190000003,98.5005188,110.5518646,-0.181449234,0.0295256898,-1.153414607,0.0,0.0,41.5739975,0.0719995871,1595327903.16197
28532,2020/07/21/19:38:23.262071,28533,1595327903,261969566,,,0,1595327872,-1695.4509280000002,2053.295166,98.48551178,109.51821899999999,-0.129241407,0.0665273666,-1.157097936,0.0,0.012152436200000002,45.32580185,0.0721422136,1595327903.2619698
28533,2020/07/21/19:38:23.362268,28534,1595327903,361966609,,,0,1595327872,-1698.157104,2051.633789,98.47511291,108.3167419,-0.278757572,-0.0279430244,-1.1350510120000001,0.0,0.0539048836,47.4552002,0.07229726019999999,1595327903.36197
28534,2020/07/21/19:38:23.462243,28535,1595327903,461945295,,,0,1595327872,-1700.5450440000002,2050.041016,98.46878052,107.0990067,-0.174873203,0.0496736318,-1.102171421,0.0,0.00107035541,47.25239944,0.07243696599999999,1595327903.46195
28535,2020/07/21/19:38:23.562088,28536,1595327903,561968803,,,0,1595327872,-1702.492798,2048.643066,98.46705627,106.1358719,-0.14415597900000002,0.0337652564,-1.282199621,0.0,0.0,48.16500092,0.0725535825,1595327903.56197
28536,2020/07/21/19:38:23.662261,28537,1595327903,661961317,,,0,1595327872,-1705.4665530000002,2046.319336,98.4708252,104.6451569,-0.0437324047,-0.0388316959,-1.132529736,0.0,0.0,48.97619629,0.0727367625,1595327903.66196
28537,2020/07/21/19:38:23.762313,28538,1595327903,761979103,,,0,1595327872,-1707.317017,2044.746216,98.4757843,103.67963409999999,-0.207075924,-0.123696044,-1.1451513770000001,0.0,0.0,49.28039932,0.0728542581,1595327903.76198
28538,2020/07/21/19:38:23.862280,28539,1595327903,861970663,,,0,1595327872,-1709.597778,2042.6614989999998,98.47891235,102.4483032,-0.21016562,-0.0619159192,-1.123809099,0.0,0.0,49.48320007,0.073003225,1595327903.86197
28539,2020/07/21/19:38:23.962445,28540,1595327903,962065696,,,0,1595327872,-1711.708252,2040.5725100000002,98.47576141,101.29522709999999,-0.1647816,-0.0848693252,-1.098325014,0.0,0.0,49.78739929,0.07314580679999999,1595327903.96207
28540,2020/07/21/19:38:24.062276,28541,1595327904,61960935,,,0,1595327872,-1713.321045,2038.8608399999998,98.46606445,100.4000473,-0.157755762,-0.122088745,-1.018946409,0.0,0.0,49.99020004,0.0732594952,1595327904.06196
28541,2020/07/21/19:38:24.162273,28542,1595327904,161974430,,,0,1595327872,-1714.863403,2037.114502,98.45148468,99.44551849,-0.18452417899999998,-0.0475559831,-1.117717147,0.0,0.0,50.19300079,0.073371008,1595327904.16197
28542,2020/07/21/19:38:24.262288,28543,1595327904,261968851,,,0,1595327872,-1717.091064,2034.366821,98.42469025,98.16455841,-0.0909355283,-0.009699704129999999,-1.17504096,0.436749995,0.0,51.20699692,0.0735403001,1595327904.2619698
28543,2020/07/21/19:38:24.362304,28544,1595327904,361993074,,,0,1595327872,-1718.5919190000002,2032.334595,98.40184021,97.52780914,-0.0399314761,-0.0108183194,-1.147262931,0.497299999,0.0,52.52519608,0.0736599937,1595327904.36199
28544,2020/07/21/19:38:24.462073,28545,1595327904,461965799,,,0,1595327872,-1720.315552,2029.78418,98.36771393,96.98848724,-0.106945544,-0.11030682900000001,-1.01584506,0.467999995,0.0,54.65459824,0.0738067254,1595327904.4619699
28545,2020/07/21/19:38:24.562044,28546,1595327904,561947107,,,0,1595327872,-1721.632446,2027.6585690000002,98.32855225,96.7013855,0.0013075768899999999,-0.149317905,-0.9843744040000001,0.47900000200000004,0.0,56.32769775,0.0739260092,1595327904.56195
28546,2020/07/21/19:38:24.662051,28547,1595327904,661949396,,,0,1595327872,-1722.832153,2025.563477,98.27841949,96.54238129,0.0526943803,-0.0349362306,-1.0782823559999999,0.502499998,0.0,57.64589691,0.0740398914,1595327904.66195
28547,2020/07/21/19:38:24.762045,28548,1595327904,761945247,,,0,1595327872,-1723.990845,2023.357666,98.21987152,96.44000244,0.0038858354100000003,0.0213405453,-1.105953336,0.354250014,0.0,58.30499649,0.07415886969999999,1595327904.76195
28548,2020/07/21/19:38:24.862052,28549,1595327904,861948728,,,0,1595327872,-1725.033325,2021.185791,98.16120911,96.38459778,-0.0309632421,-0.078988634,-1.023418546,0.260500014,0.0,57.39239883,0.0742720664,1595327904.86195
28549,2020/07/21/19:38:24.962244,28550,1595327904,961955070,,,0,1595327872,-1726.469604,2017.869995,98.05922699,96.38457489,0.046285271600000004,-0.155939654,-0.821818233,0.106700003,0.0,56.98679733,0.0744423345,1595327904.96196
28550,2020/07/21/19:38:25.062270,28551,1595327905,61958312,,,0,1595327872,-1727.3498539999998,2015.629395,97.97731781,96.31756592,-0.0508333147,-0.20771442399999998,-0.765980124,0.06545001269999999,0.0,56.32769775,0.0745551288,1595327905.06196
28551,2020/07/21/19:38:25.162274,28552,1595327905,161963939,,,0,1595327872,-1728.251343,2013.1428219999998,97.86890411,96.22501373,-0.0388544947,-0.219009578,-0.721978307,0.134050012,0.0,54.85739899,0.0746780187,1595327905.16196
28552,2020/07/21/19:38:25.262057,28553,1595327905,261953353,,,0,1595327872,-1729.01062,2010.863525,97.75003052,96.23541259999999,-0.0030800998200000004,-0.24947106800000002,-0.7403732540000001,0.398950011,0.0,47.4552002,0.0747897699,1595327905.26195
28553,2020/07/21/19:38:25.362059,28554,1595327905,361948251,,,0,1595327872,-1729.783813,2008.335449,97.59204865,96.42079926,0.0638662577,-0.448059291,-0.770265758,0.441399992,0.0,35.388599400000004,0.074913457,1595327905.36195
28554,2020/07/21/19:38:25.462083,28555,1595327905,461967945,,,0,1595327872,-1730.369995,2006.249512,97.43566895,96.62509918,0.0758202374,-0.412787169,-0.59306109,0.35719999700000005,0.0,22.61219978,0.0750143528,1595327905.4619699
28555,2020/07/21/19:38:25.562326,28556,1595327905,561971426,,,0,1595327872,-1731.2246089999999,2002.81543,97.14163971,97.00019073,0.126245141,-0.155836314,-0.831687689,0.313250005,0.0,6.7937998770000005,0.0751794577,1595327905.56197
28556,2020/07/21/19:38:25.662046,28557,1595327905,661950349,,,0,1595327872,-1731.8190920000002,1999.973145,96.89529419,97.2468338,0.059696078300000004,0.08959773929999999,-0.8884747620000001,0.45335000799999997,0.0,-1.216799974,0.0753157884,1595327905.66195
28557,2020/07/21/19:38:25.762070,28558,1595327905,761972427,,,0,1595327872,-1732.226807,1997.6624760000002,96.70950317,97.56056976,0.178595573,-0.00202490576,-0.735001445,0.47409999399999997,0.0,-0.912599981,0.0754267052,1595327905.7619698
28558,2020/07/21/19:38:25.862097,28559,1595327905,861970901,,,0,1595327872,-1732.658325,1994.7675780000002,96.47916412,98.12748718,0.207318068,-0.29021892,-0.44654527299999996,0.434799999,0.0,-1.5210000280000002,0.0755677074,1595327905.86197
28559,2020/07/21/19:38:25.962392,28560,1595327905,962040424,,,0,1595327872,-1732.998291,1992.174805,96.25136566,98.67446899,0.175180823,-0.35069450700000004,-0.203287125,0.24485001,0.0,-13.28340054,0.0756966397,1595327905.96204
28560,2020/07/21/19:38:26.062294,28561,1595327906,61987161,,,0,1595327872,-1733.2861329999998,1989.8963620000002,96.02334595,99.07685852,0.1120781,-0.447327882,0.09524556990000001,0.121850014,0.0,-22.81499863,0.0758090764,1595327906.06199
28561,2020/07/21/19:38:26.162093,28562,1595327906,161963701,,,0,1595327872,-1733.709839,1986.7169190000002,95.6648941,99.38285065,0.17198269100000002,0.062156908200000006,0.49196445899999997,0.0639500022,0.0,-23.42339897,0.0759703666,1595327906.16196
28562,2020/07/21/19:38:26.262272,28563,1595327906,261963605,,,0,1595327872,-1734.0986329999998,1984.11145,95.38007355,99.44207001,0.0284968782,0.24469348800000001,0.470770389,0.0688500106,0.0,-25.75559998,0.0761031806,1595327906.26196
28563,2020/07/21/19:38:26.362262,28564,1595327906,361953735,,,0,1595327872,-1734.526489,1981.5059809999998,95.10975647,99.68753052,0.0102757514,-0.532409251,0.125846088,0.211899996,0.0,-32.49869919,0.0762389079,1595327906.36195
28564,2020/07/21/19:38:26.462271,28565,1595327906,461965084,,,0,1595327872,-1735.085693,1978.331787,94.72502136,100.09848790000001,0.155343592,-0.584546328,0.320327133,0.53549999,0.0,-38.12639999,0.0764042959,1595327906.4619699
28565,2020/07/21/19:38:26.562251,28566,1595327906,561959981,,,0,1595327872,-1735.518799,1976.05127,94.41072083,100.58861540000001,0.198481217,0.186261863,0.57989639,0.6948000190000001,0.0,-31.83959961,0.0765202865,1595327906.56196
28566,2020/07/21/19:38:26.662257,28567,1595327906,661948919,,,0,1595327872,-1736.123779,1973.191895,94.03307343,101.4047546,0.18529191600000003,0.256080598,0.609950721,0.845550001,0.0,-24.43740082,0.0766693205,1595327906.66195
28567,2020/07/21/19:38:26.762255,28568,1595327906,761952161,,,0,1595327872,-1736.797119,1970.319946,93.67357635,102.2492905,0.245545343,-0.35031592799999994,0.36358472700000005,0.964550018,0.0,-35.43930054,0.0768190846,1595327906.76195
28568,2020/07/21/19:38:26.862265,28569,1595327906,861969232,,,0,1595327872,-1737.446655,1967.766968,93.34140778,103.18948359999999,0.16348125,0.0121062882,0.810842574,0.670099974,0.0,-42.84149933,0.0769516602,1595327906.86197
28569,2020/07/21/19:38:26.962288,28570,1595327906,961952686,,,0,1595327872,-1738.25,1964.876221,92.96183777,104.0060196,0.217904598,-0.250682324,0.5257979629999999,0.44435000399999997,0.0,-42.43590164,0.0771005526,1595327906.96195
28570,2020/07/21/19:38:27.062285,28571,1595327907,61967611,,,0,1595327872,-1739.0092769999999,1962.3148190000002,92.61009216,104.52793879999999,0.17746213100000002,0.10580626900000001,0.8418599370000001,0.438250005,0.0,-46.28909683,0.0772331506,1595327907.06197
28571,2020/07/21/19:38:27.162435,28572,1595327907,162059545,,,0,1595327872,-1739.751343,1960.0096440000002,92.30019379,104.720108,0.203786075,0.33850511899999997,1.0319635870000001,0.499749988,0.0,-42.18239975,0.0773540512,1595327907.16206
28572,2020/07/21/19:38:27.262357,28573,1595327907,261984586,,,0,1595327872,-1740.9865719999998,1956.575073,91.87181854,105.31198119999999,0.0572493076,0.326354027,0.994048893,0.554549992,0.0,-42.84149933,0.077531822,1595327907.26198
28573,2020/07/21/19:38:27.362428,28574,1595327907,362054586,,,0,1595327872,-1742.1346440000002,1953.736816,91.54296112,105.81956480000001,0.133020818,0.32595190399999996,1.060360074,0.571650028,0.0,-46.44120026,0.0776824877,1595327907.36205
28574,2020/07/21/19:38:27.462327,28575,1595327907,462000131,,,0,1595327872,-1743.1265870000002,1951.485596,91.29250336,106.1272507,0.168332338,0.138497755,0.7974238990000001,0.624650002,0.0,-51.46049881,0.07780247929999999,1595327907.462
28575,2020/07/21/19:38:27.562118,28576,1595327907,561981439,,,0,1595327872,-1744.491577,1948.622925,90.96479797,106.52205659999998,0.10230782599999999,0.0330936089,1.210904837,0.6715999840000001,0.0,-55.61789703,0.07795709370000001,1595327907.56198
28576,2020/07/21/19:38:27.662078,28577,1595327907,661963462,,,0,1595327872,-1745.645142,1946.425781,90.70635986,107.21862790000002,0.255981684,0.5882836579999999,1.3456815480000002,0.990700006,0.0,-47.91149902,0.0780778229,1595327907.66196
28577,2020/07/21/19:38:27.762350,28578,1595327907,761954545,,,0,1595327872,-1747.40625,1943.414673,90.38540649,108.31320190000001,0.16624683099999998,0.42162022,1.211625814,1.0,0.0,-42.3852005,0.07824718950000001,1595327907.76195
28578,2020/07/21/19:38:27.862128,28579,1595327907,861977577,,,0,1595327872,-1748.823486,1941.210815,90.16976166,109.1781082,0.17541250600000002,0.296337008,1.1318836209999998,1.0,0.0,-43.04430008,0.0783743635,1595327907.86198
28579,2020/07/21/19:38:27.962411,28580,1595327907,962056636,,,0,1595327872,-1750.6467289999998,1938.591675,89.92205811,110.2273483,0.190248847,0.284416884,1.0594133140000002,1.0,0.0,-37.26449966,0.0785291716,1595327907.96206
28580,2020/07/21/19:38:28.062351,28581,1595327908,62021970,,,0,1595327872,-1752.414307,1936.2359620000002,89.70549011,111.176239,0.253804952,0.305865705,1.009263515,1.0,0.0,-31.63679886,0.07867179070000001,1595327908.0620198
28581,2020/07/21/19:38:28.162098,28582,1595327908,161974430,,,0,1595327872,-1754.691772,1933.4157710000002,89.45805359,112.3494034,0.336735219,0.305857927,0.969684124,1.0,0.0,-27.37799835,0.078847453,1595327908.16197
28582,2020/07/21/19:38:28.262295,28583,1595327908,261981725,,,0,1595327872,-1756.656494,1931.143555,89.27069092,113.29747009999998,0.250882864,0.31056636600000004,0.882564366,1.0,0.0,-24.13319778,0.0789930522,1595327908.26198
28583,2020/07/21/19:38:28.362259,28584,1595327908,361969947,,,0,1595327872,-1758.700562,1928.906616,89.09761047,114.2584686,0.308194488,0.24808564800000002,0.754667103,1.0,0.0,-19.0632,0.079139702,1595327908.36197
28584,2020/07/21/19:38:28.462095,28585,1595327908,461975812,,,0,1595327872,-1761.0167239999998,1926.4938960000002,88.91855621,115.3223572,0.158867419,0.12635681,0.6878511909999999,1.0,0.0,-18.251998899999997,0.0793013871,1595327908.46198
28585,2020/07/21/19:38:28.562056,28586,1595327908,561958074,,,0,1595327872,-1762.99231,1924.516846,88.77092743,116.2150955,0.290328413,0.0308300108,0.57290864,1.0,0.0,-19.87440109,0.0794365853,1595327908.56196
28586,2020/07/21/19:38:28.662243,28587,1595327908,661945104,,,0,1595327872,-1764.944214,1922.624634,88.62354279,117.06724550000001,0.27348083300000003,-0.019205587,0.644496799,1.0,0.0,-19.77300072,0.07956781980000001,1595327908.66195
28587,2020/07/21/19:38:28.762259,28588,1595327908,761969089,,,0,1595327872,-1768.240845,1919.5490719999998,88.36426544,118.4717789,0.283552766,-0.021856244700000003,0.523615122,1.0,0.0,-19.77300072,0.0797863975,1595327908.7619698
28588,2020/07/21/19:38:28.862286,28589,1595327908,861954927,,,0,1595327872,-1770.5989989999998,1917.43457,88.16963959,119.4375229,0.288162887,-0.047415562,0.625765204,1.0,0.0,-17.54220009,0.0799393356,1595327908.86195
28589,2020/07/21/19:38:28.962272,28590,1595327908,961955547,,,0,1595327872,-1772.7053219999998,1915.602051,87.98983765,120.2834015,0.327036709,-0.07664208110000001,0.508073211,0.921800017,0.0,-16.22399902,0.0800745413,1595327908.96196
28590,2020/07/21/19:38:29.062100,28591,1595327909,61963796,,,0,1595327872,-1774.847534,1913.78772,87.79896545,120.7165756,0.0360860974,-0.153837875,0.544614196,0.203850001,0.0,-14.90579891,0.0802105442,1595327909.06196
28591,2020/07/21/19:38:29.162075,28592,1595327909,161961555,,,0,1595327872,-1777.3258059999998,1911.745728,87.56384277,120.77150729999998,0.10510467,-0.164581224,0.468688786,0.517149985,0.0,-11.86380005,0.08036547150000001,1595327909.16196
28592,2020/07/21/19:38:29.262264,28593,1595327909,261959075,,,0,1595327872,-1781.0225829999997,1908.797241,87.17693329,122.0455399,0.545811892,-0.145310417,0.40325874100000003,1.0,0.0,-10.03859997,0.08059448,1595327909.26196
28593,2020/07/21/19:38:29.362263,28594,1595327909,361945152,,,0,1595327872,-1783.277588,1907.053711,86.92683411,123.04176329999999,0.34904322,0.02149266,0.537454963,1.0,0.0,-9.024600029,0.0807324871,1595327909.36195
28594,2020/07/21/19:38:29.462301,28595,1595327909,461981773,,,0,1595327872,-1785.570923,1905.326782,86.67469788,123.90475459999999,0.421155661,0.0676496029,0.435506314,1.0,0.0,-4.562999725,0.080871217,1595327909.46198
28595,2020/07/21/19:38:29.562251,28596,1595327909,561964750,,,0,1595327872,-1788.823608,1902.941528,86.3243866,125.14051059999998,0.294577241,0.0673773214,0.29098036899999996,1.0,0.0,-3.650399923,0.0810676217,1595327909.56196
28596,2020/07/21/19:38:29.662047,28597,1595327909,661953687,,,0,1595327872,-1791.5366210000002,1900.994507,86.03739929,126.15964509999999,0.422663689,0.0005985368039999999,0.250833273,1.0,0.0,-3.3461999889999996,0.0812293068,1595327909.66195
28597,2020/07/21/19:38:29.762068,28598,1595327909,761951923,,,0,1595327872,-1794.024536,1899.230713,85.77537537,127.0720825,0.292788714,-0.00570875034,0.20480918899999997,1.0,0.0,-4.055999756,0.08137607570000001,1595327909.76195
28598,2020/07/21/19:38:29.862231,28599,1595327909,861947298,,,0,1595327872,-1796.798584,1897.28064,85.48446655,128.0567169,0.245371908,0.090726994,0.130582556,1.0,0.0,-4.157400131,0.0815406293,1595327909.86195
28599,2020/07/21/19:38:29.962258,28600,1595327909,962075471,,,0,1595327872,-1799.602295,1895.3259280000002,85.20214844,129.0229645,0.24944058100000002,0.214712828,0.113629311,1.0,0.0,-3.3461999889999996,0.0817065835,1595327909.96208
28600,2020/07/21/19:38:30.062301,28601,1595327910,61975479,,,0,1595327872,-1803.682861,1892.5065920000002,84.82054138,130.41511540000002,0.274541706,0.122595601,0.0654143021,1.0,0.0,-2.636399984,0.0819476247,1595327910.06198
28601,2020/07/21/19:38:30.162281,28602,1595327910,161970853,,,0,1595327872,-1806.2835690000002,1890.7209469999998,84.5896759,131.2598267,0.303670496,0.0160441287,0.0825774148,1.0,0.0,-2.636399984,0.0821009725,1595327910.16197
28602,2020/07/21/19:38:30.262318,28603,1595327910,261975288,,,0,1595327872,-1809.1771239999998,1888.742676,84.33592987,132.2074738,0.323454976,-0.0446625203,0.0630403757,1.0,0.0,-2.839199781,0.08227086809999999,1595327910.26198
28603,2020/07/21/19:38:30.362257,28604,1595327910,361958980,,,0,1595327872,-1812.3697510000002,1886.5694579999997,84.05435181,133.2275696,0.24440237899999998,-0.0126646385,0.161248699,1.0,0.0,-2.027999878,0.0824585184,1595327910.36196
28604,2020/07/21/19:38:30.462147,28605,1595327910,462013006,,,0,1595327872,-1815.0371089999999,1884.761719,83.81707001,134.0663605,0.259818703,-0.0012994688,0.0463651717,1.0,0.0,-1.622399926,0.0826145262,1595327910.46201
28605,2020/07/21/19:38:30.562263,28606,1595327910,561964750,,,0,1595327872,-1817.6311039999998,1883.0100100000002,83.58729553,134.8592834,0.312287986,0.055496960899999996,0.07465499639999999,1.0,0.0,-1.115399957,0.0827672258,1595327910.56196
28606,2020/07/21/19:38:30.662251,28607,1595327910,661960601,,,0,1595327872,-1821.64978,1880.3063960000002,83.24062347,136.04995730000002,0.267778099,0.12887109800000002,0.07355864349999999,1.0,0.0,-0.709799945,0.0830014199,1595327910.66196
28607,2020/07/21/19:38:30.762360,28608,1595327910,761997461,,,0,1595327872,-1824.2882079999997,1878.535889,83.02350616,136.8199768,0.24383711800000002,0.11567308800000001,-0.0110497177,1.0,0.0,0.152099997,0.0831557661,1595327910.762
28608,2020/07/21/19:38:30.862298,28609,1595327910,861956834,,,0,1595327872,-1827.3223879999998,1876.500366,82.78468323,137.69731140000002,0.26616782,0.0808750167,-0.012042038100000001,1.0,0.0,0.912599981,0.0833324641,1595327910.86196
28609,2020/07/21/19:38:30.962249,28610,1595327910,961965322,,,0,1595327872,-1831.332886,1873.8068850000002,82.47705078,138.81558230000002,0.09517034140000001,0.00256749336,0.00322682783,1.0,0.0,2.027999878,0.08356671780000001,1595327910.9619699
28610,2020/07/21/19:38:31.062265,28611,1595327911,61977386,,,0,1595327872,-1834.4077149999998,1871.7363280000002,82.24394989,139.65644840000002,0.21324247100000002,0.133675352,-0.128550023,1.0,0.0,4.055999756,0.0837463737,1595327911.06198
28611,2020/07/21/19:38:31.162233,28612,1595327911,161952972,,,0,1595327872,-1837.496338,1869.6459960000002,82.01855469,140.4724426,0.24232156600000002,0.141239643,-0.148554265,1.0,0.0,3.85319972,0.08392740789999999,1595327911.16195
28612,2020/07/21/19:38:31.262292,28613,1595327911,261964559,,,0,1595327872,-1840.597656,1867.534302,81.80560303,141.2807312,0.305652082,0.122969791,-0.107466489,1.0,0.0,2.281499863,0.0841091126,1595327911.26196
28613,2020/07/21/19:38:31.362236,28614,1595327911,361951589,,,0,1595327872,-1843.417725,1865.6007079999997,81.62181854,141.9984894,0.240636453,0.0684915483,-0.19332616,1.0,0.0,0.912599981,0.0842743292,1595327911.36195
28614,2020/07/21/19:38:31.462412,28615,1595327911,462051868,,,0,1595327872,-1846.539673,1863.4461670000003,81.42603302,142.78479,0.250011504,0.09148108210000001,-0.0705829114,1.0,0.0,0.304199994,0.08445835859999999,1595327911.46205
28615,2020/07/21/19:38:31.562281,28616,1595327911,561981678,,,0,1595327872,-1850.654907,1860.5883789999998,81.17524719,143.802475,0.347812891,0.0428600311,-0.082645759,1.0,0.0,1.571699977,0.0847009942,1595327911.56198
28616,2020/07/21/19:38:31.662233,28617,1595327911,661948680,,,0,1595327872,-1853.903076,1858.320679,80.98308563,144.56253049999998,0.16024439,0.11887544400000001,-0.10242939,1.0,0.0,2.281499863,0.08489280939999999,1595327911.66195
28617,2020/07/21/19:38:31.762299,28618,1595327911,761968612,,,0,1595327872,-1856.668579,1856.3808589999999,80.82685852,145.2071686,0.239931315,0.0815483853,-0.143392205,1.0,0.0,1.216799974,0.0850562975,1595327911.7619698
28618,2020/07/21/19:38:31.862242,28619,1595327911,861949920,,,0,1595327872,-1860.535034,1853.6551510000002,80.61758423,146.09385680000003,0.09805922210000001,0.0200863574,-0.10974901199999999,1.0,0.0,1.4195998909999998,0.085285686,1595327911.86195
28619,2020/07/21/19:38:31.962327,28620,1595327911,962005138,,,0,1595327872,-1863.4202879999998,1851.6104739999998,80.46512604,146.7553101,0.191532075,0.0805796832,-0.151837125,1.0,0.0,1.622399926,0.0854567587,1595327911.96201
28620,2020/07/21/19:38:32.062322,28621,1595327912,61986207,,,0,1595327872,-1866.614014,1849.336426,80.30329132,147.4550934,0.183301806,0.160648227,-0.100085095,1.0,0.0,0.506999969,0.08564696460000001,1595327912.06199
28621,2020/07/21/19:38:32.162310,28622,1595327912,161989927,,,0,1595327872,-1870.319946,1846.684814,80.13574219,148.22795109999998,0.152528852,0.253559798,-0.0807321891,1.0,0.0,0.253499985,0.08586732300000001,1595327912.16199
28622,2020/07/21/19:38:32.262348,28623,1595327912,261991262,,,0,1595327872,-1873.9398190000002,1844.0837399999998,79.99940491,148.97422790000002,0.210579127,0.283266008,-0.08474680779999999,1.0,0.0,1.166100025,0.08608305449999999,1595327912.26199
28623,2020/07/21/19:38:32.362291,28624,1595327912,361965894,,,0,1595327872,-1877.57373,1841.4638670000002,79.88554382,149.701004,0.217785686,0.0783526376,-0.0375569612,1.0,0.0,1.368899941,0.0862998068,1595327912.36197
28624,2020/07/21/19:38:32.462256,28625,1595327912,461931705,,,0,1595327872,-1880.40979,1839.413452,79.8055954,150.256546,0.248438388,0.0335759148,-0.059907034000000005,1.0,0.0,0.709799945,0.0864691734,1595327912.46193
28625,2020/07/21/19:38:32.562334,28626,1595327912,562028169,,,0,1595327872,-1884.0677489999998,1836.760864,79.70761871,150.9618988,0.171096057,0.0347770527,-0.158612236,1.0,0.0,0.659099996,0.0866876468,1595327912.56203
28626,2020/07/21/19:38:32.662080,28627,1595327912,661974191,,,0,1595327872,-1887.4317629999998,1834.312622,79.62469482,151.6054688,0.248399824,0.146063566,-0.0745659843,1.0,0.0,0.709799945,0.086888954,1595327912.66197
28627,2020/07/21/19:38:32.762185,28628,1595327912,762067317,,,0,1595327872,-1890.3959960000002,1832.147827,79.56243896,152.1340942,0.0589376204,0.185155183,-0.0825812519,1.0,0.0,0.861899972,0.0870661661,1595327912.76207
28628,2020/07/21/19:38:32.862256,28629,1595327912,861970424,,,0,1595327872,-1893.469971,1829.895264,79.51172638,152.6839142,0.157818496,0.173874453,-0.055974986399999996,1.0,0.0,1.166100025,0.0872505978,1595327912.86197
28629,2020/07/21/19:38:32.962292,28630,1595327912,961977958,,,0,1595327872,-1897.6826170000002,1826.7952879999998,79.46538544,153.40553280000003,0.136396736,0.19078806,-0.0717782378,1.0,0.0,0.861899972,0.0875037611,1595327912.96198
28630,2020/07/21/19:38:33.062271,28631,1595327913,61970472,,,0,1595327872,-1900.773438,1824.512451,79.4489975,153.9114685,0.0990115106,0.132637754,-0.0382734202,1.0,0.0,0.152099997,0.0876897648,1595327913.06197
