PosLocalX,PosLocalY,Distance,InverseRadius,RefinedPosLon,RefinedPosLat,iTOW,AngleRateXr,AngleRateYr,AngleRateZr,AccelXr,AccelYr,AccelZr,GPS_NumSat,PosLat,PosLon,GPS_Speed,AngleTrack,TimeStamp,year,month,day,min,sec,valid,tAcc,nano,fixType,flags,numSV,lon,lat,height,hMSL,hAcc,vAcc,velN,velE,velD,gSpeed,headMot,sAcc,headAcc,pDOP,headVeh,MAP_OBD,RPM,CR_Ems_BstPre,EngOilTemp,Gear,IAT,VsOdo,AFR,WhlSpdFL,WhlSpdFR,WhlSpdRL,WhlSpdRR,Steer_angle,EngCoolTemp,ThrPos,Pedal_throttle,PdlPosAcc,VehAccelY,VehAccelX,Pedal_brake,VehAngRateZ,LSD_TQC,timeTag,DeviceTemp,ThrPos_OBD,AFR_OBD,ThrPosRel_OBD,EngCoolTemp_OBD,FuelLevel_OBD,CatalystTemp,localX,localY,AccelX,AccelY,AccelZ,AngleRateX,AngleRateY,AngleRateZ,PositionIndex,LapNo,PositionHeight,AccelCombined,HP_est,Origin_Steer_angle,Origin_Pedal_brake,GripUsage,Origin_Gear,Origin_RPM
-0.9721032026874075,-2.5793216296452175,3501.265,-1.673505714522605e-05,126.41609987426743,34.73137052942592,260820170,0.009,-0.0,-0.001,4.446,0.43,-8.887,10,34.73137052251049,126.41609986535411,131.076,110.759,260820.1704956499,2019.0,7.0,17.0,26.0,42.0,55.0,2.0,170084109.147,3,33,9,126.41609986535411,34.73137052251049,26.195,7.241,0.486,0.765,-12.905,34.045,-0.017,36.41,5.075,0.358,0.009,2.257,1.933,1.03,3038,1342.762,92.75,6,33.0,129.0,0.952,129.573,129.414,128.542,128.588,1.561,93.75,21.127,47.638,47.263,-0.543,0.3,0.0,0.535,0.0,1765646.201,39.35,27.785,14.7,20.392,93.0,97.647,918.2,-0.973,-2.58,0.375,-0.554,10.011,-0.013,-0.006,0.005,0.0,1,2.02,0.67,64.385,-0.3,0.0,6.193,6.0,3038.525
-0.034075230246279946,-2.9343351990476423,3502.268,-1.673505714522605e-05,126.41611012753513,34.731367340266374,260820197,0.009,-0.003,-0.001,4.39,0.334,-8.816,10,34.73136733978186,126.41611012691023,131.133,110.748,260820.1979329657,2019.0,7.0,17.0,26.0,42.0,55.0,2.0,197521536.615,3,33,9,126.41611012691023,34.73136733978186,26.2,7.247,0.49,0.766,-12.904,34.063,-0.019,36.426,5.075,0.371,0.009,2.334,1.933,1.03,3039,1343.125,92.75,6,33.0,129.0,0.952,129.65,129.32,128.619,128.622,1.561,93.75,21.127,47.638,47.263,-0.568,0.3,0.0,0.521,0.0,1765673.912,39.35,27.839,14.7,20.392,93.0,97.647,918.2,-0.034,-2.934,0.39,-0.632,9.906,-0.013,-0.009,0.004,1.0,1,1.996,0.743,64.504,-0.3,0.0,6.22,6.0,3039.897
0.9002173660860072,-3.2914939382460826,3503.268,-1.673505714522605e-05,126.41612033997271,34.73136413183632,260820225,-0.004,-0.002,-0.007,4.384,0.453,-8.682,9,34.73136413094658,126.41612034006715,131.148,110.754,260820.2253765754,2019.0,7.0,17.0,26.0,42.0,55.0,2.0,224965258.02,3,33,8,126.41612034006715,34.73136413094658,26.203,7.25,0.494,0.767,-12.909,34.066,-0.019,36.43,5.075,0.38,0.009,2.502,1.933,1.033,3041,1343.152,92.75,6,33.0,129.0,0.952,129.751,129.352,128.625,128.641,1.612,93.75,21.127,47.638,47.263,-0.522,0.3,0.0,0.464,0.0,1765701.63,39.347,27.843,14.613,20.492,93.0,97.647,918.2,0.9,-3.292,0.332,-0.493,9.809,0.001,-0.007,0.004,2.0,1,1.993,0.595,64.523,-0.249,0.0,6.219,6.0,3041.523
1.8341994985577568,-3.648846306704466,3504.268,-1.673505714522605e-05,126.4161305490167,34.73136092166686,260820252,-0.018,0.0,-0.013,4.381,0.589,-8.543,9,34.731360920012705,126.41613054919036,131.16,110.761,260820.2528204549,2019.0,7.0,17.0,26.0,42.0,55.0,2.0,252409249.216,3,33,8,126.41613054919036,34.731360920012705,26.206,7.252,0.498,0.768,-12.915,34.067,-0.02,36.433,5.075,0.388,0.009,2.678,1.933,1.035,3043,1343.152,92.75,6,33.0,129.0,0.952,129.854,129.395,128.625,128.658,1.667,93.75,21.127,47.638,47.263,-0.47,0.3,0.0,0.404,0.0,1765729.349,39.345,27.843,14.519,20.599,93.0,97.647,918.2,1.834,-3.649,0.267,-0.338,9.713,0.017,-0.005,0.003,3.0,1,1.993,0.432,64.533,-0.194,0.0,6.213,6.0,3043.169
2.768128158439237,-4.006363247630301,3505.268,-1.673505714522605e-05,126.41614075747621,34.73135771001901,260820280,-0.032,0.002,-0.02,4.379,0.725,-8.405,9,34.73135770932699,126.41614075752443,131.172,110.768,260820.28026221305,2019.0,7.0,17.0,26.0,42.0,55.0,2.0,279851119.091,3,33,8,126.41614075752443,34.73135770932699,26.209,7.255,0.502,0.769,-12.92,34.069,-0.02,36.437,5.075,0.397,0.01,2.854,1.933,1.038,3044,1343.152,92.75,6,33.0,129.0,0.952,129.957,129.438,128.625,128.675,1.722,93.75,21.127,47.638,47.263,-0.418,0.3,0.0,0.343,0.0,1765757.065,39.342,27.843,14.425,20.707,93.0,97.647,918.2,2.768,-4.006,0.203,-0.182,9.616,0.032,-0.003,0.002,4.0,1,1.992,0.28,64.537,-0.139,0.0,6.199,6.0,3044.816
3.7023901654882274,-4.362983456574467,3506.268,-1.8879566186588993e-05,126.41615096957942,34.73135450642669,260820307,-0.041,0.003,-0.024,4.361,0.809,-8.335,8,34.73135450930329,126.41615097172928,131.182,110.775,260820.30767847094,2019.0,7.0,17.0,26.0,42.0,55.0,2.0,307267488.562,3,33,8,126.41615097172928,34.73135450930329,26.212,7.258,0.506,0.77,-12.925,34.07,-0.02,36.44,5.075,0.403,0.01,2.98,1.933,1.04,3045,1343.457,92.75,6,33.0,129.0,0.952,130.031,129.49,128.623,128.683,1.761,93.75,21.127,47.638,47.263,-0.38,0.3,0.0,0.29,0.0,1765784.832,39.341,27.843,14.357,20.784,93.0,97.647,918.2,3.703,-4.363,0.185,-0.087,9.563,0.042,-0.002,0.002,5.0,1,1.991,0.205,64.538,-0.1,0.0,6.183,6.0,3045.923
4.6375062171789745,-4.717306213436604,3507.268,-2.6518366568874453e-05,126.41616119101788,34.73135132347285,260820335,-0.037,0.002,-0.022,4.302,0.76,-8.444,8,34.73135133659591,126.41616120097534,131.189,110.78,260820.3350293964,2019.0,7.0,17.0,26.0,42.0,55.0,2.0,334618525.296,3,33,8,126.41616120097534,34.73135133659591,26.215,7.261,0.51,0.771,-12.929,34.071,-0.019,36.441,5.075,0.404,0.009,2.98,1.933,1.04,3045,1344.541,92.75,6,33.0,129.0,0.952,130.031,129.567,128.614,128.666,1.761,93.75,21.127,47.638,47.263,-0.38,0.3,0.0,0.254,0.0,1765812.73,39.344,27.843,14.358,20.784,93.0,97.647,918.2,4.638,-4.716,0.289,-0.147,9.621,0.037,-0.004,0.002,6.0,1,1.99,0.324,64.535,-0.1,0.0,6.161,6.0,3045.65
5.57304972577104,-5.070513623472277,3508.268,-7.083155086367805e-05,126.41617141712877,34.7313481505384,260820362,-0.032,0.0,-0.02,4.244,0.711,-8.553,8,34.73134816463426,126.41617142781709,131.196,110.786,260820.36237389312,2019.0,7.0,17.0,26.0,42.0,55.0,2.0,361963133.354,3,33,8,126.41617142781709,34.73134816463426,26.218,7.264,0.513,0.772,-12.933,34.071,-0.018,36.443,5.075,0.404,0.009,2.98,1.934,1.04,3045,1345.626,92.75,6,33.0,129.0,0.952,130.031,129.644,128.606,128.649,1.761,93.75,21.127,47.638,47.263,-0.38,0.3,0.0,0.219,0.0,1765840.621,39.346,27.843,14.358,20.784,93.0,97.647,918.2,5.574,-5.069,0.392,-0.207,9.679,0.032,-0.005,0.002,7.0,1,1.989,0.443,64.522,-0.1,0.0,6.146,6.0,3045.376
6.509110126245113,-5.422372327431515,3509.268,-0.00015949234368589171,126.4161816488896,34.73134498971965,260820389,-0.028,-0.001,-0.018,4.186,0.662,-8.662,8,34.73134499357439,126.4161816517515,131.203,110.792,260820.38971061623,2019.0,7.0,17.0,26.0,42.0,55.0,2.0,389299967.693,3,33,8,126.4161816517515,34.73134499357439,26.222,7.268,0.517,0.774,-12.937,34.072,-0.017,36.445,5.075,0.405,0.009,2.98,1.934,1.04,3045,1346.71,92.75,6,33.0,129.0,0.952,130.031,129.721,128.597,128.631,1.761,93.75,21.127,47.638,47.263,-0.38,0.3,0.0,0.183,0.0,1765868.505,39.349,27.843,14.359,20.784,93.0,97.647,918.2,6.509,-5.422,0.495,-0.267,9.736,0.027,-0.006,0.002,8.0,1,1.988,0.563,64.498,-0.1,0.0,6.138,6.0,3045.103
7.445365779178447,-5.773706095168453,3510.268,-0.00021830121334483405,126.41619188278467,34.73134183361651,260820417,-0.023,-0.002,-0.015,4.221,0.599,-8.711,8,34.73134183424117,126.41619187589608,131.196,110.788,260820.41709360594,2019.0,7.0,17.0,26.0,42.0,55.0,2.0,416683068.675,3,33,8,126.41619187589608,34.73134183424117,26.227,7.273,0.52,0.775,-12.934,34.071,-0.018,36.443,5.075,0.405,0.009,2.98,1.934,1.04,3045,1347.796,92.75,6,33.0,129.0,0.952,130.09,129.75,128.653,128.678,1.778,93.75,21.127,47.638,47.263,-0.397,0.3,0.0,0.163,0.0,1765896.264,39.352,27.843,14.399,20.784,93.0,97.647,918.2,7.445,-5.774,0.488,-0.34,9.784,0.022,-0.007,0.001,9.0,1,1.987,0.602,64.46,-0.083,0.0,6.139,6.0,3045.684
8.381739282026404,-6.124723023418641,3511.268,-0.00025909214556330885,126.41620211796796,34.731338680359606,260820444,-0.018,-0.002,-0.011,4.312,0.529,-8.724,8,34.731338681985896,126.41620210016748,131.18,110.779,260820.44450452115,2019.0,7.0,17.0,26.0,42.0,55.0,2.0,444094095.144,3,33,8,126.41620210016748,34.731338681985896,26.233,7.279,0.524,0.776,-12.927,34.069,-0.018,36.439,5.075,0.405,0.009,2.98,1.933,1.04,3046,1348.883,92.75,6,33.0,129.0,0.952,130.184,129.75,128.747,128.764,1.806,93.75,21.127,47.638,47.263,-0.425,0.3,0.0,0.152,0.0,1765923.95,39.354,27.843,14.462,20.784,93.0,97.647,918.2,8.38,-6.125,0.414,-0.419,9.825,0.015,-0.007,0.0,10.0,1,1.986,0.592,64.415,-0.055,0.0,6.144,6.0,3046.78
9.31798506497032,-6.476112368286333,3512.268,-0.0002804165495732853,126.41621235175514,34.73133552375721,260820471,-0.013,-0.002,-0.007,4.404,0.458,-8.736,8,34.731335524781905,126.41621234048999,131.164,110.77,260820.4719584689,2019.0,7.0,17.0,26.0,42.0,55.0,2.0,471548154.367,3,33,8,126.41621234048999,34.731335524781905,26.24,7.286,0.527,0.777,-12.92,34.067,-0.019,36.434,5.075,0.404,0.009,2.98,1.933,1.04,3047,1349.972,92.75,6,33.0,129.0,0.952,130.279,129.75,128.841,128.85,1.833,93.75,21.127,47.638,47.263,-0.452,0.3,0.0,0.141,0.0,1765951.678,39.357,27.843,14.526,20.784,93.0,97.647,918.2,9.317,-6.476,0.34,-0.499,9.866,0.009,-0.007,-0.0,11.0,1,1.985,0.611,64.411,-0.028,0.0,6.144,6.0,3047.878
10.254198821080617,-6.827595099734099,3513.268,-0.00029685955890365053,126.41622258519226,34.7313323663159,260820499,-0.008,-0.002,-0.003,4.495,0.387,-8.749,8,34.73133236633697,126.41622258483746,131.148,110.761,260820.49942320742,2019.0,7.0,17.0,26.0,42.0,55.0,2.0,499013004.414,3,33,8,126.41622258483746,34.73133236633697,26.246,7.292,0.531,0.778,-12.913,34.065,-0.02,36.43,5.075,0.404,0.009,2.98,1.933,1.04,3048,1351.061,92.75,6,33.0,129.0,0.952,130.373,129.75,128.936,128.936,1.861,93.75,21.127,47.638,47.263,-0.479,0.3,0.0,0.13,0.0,1765979.417,39.36,27.843,14.59,20.784,93.0,97.647,918.2,10.254,-6.828,0.266,-0.578,9.907,0.003,-0.007,-0.001,12.0,1,1.985,0.637,64.417,-0.001,0.0,6.143,6.0,3048.977
11.189751224120839,-7.180749925483862,3514.268,-0.00029720488187825875,126.41623281140033,34.731329193853824,260820526,-0.011,-0.002,-0.004,4.427,0.378,-8.732,8,34.731329179845446,126.41623280601276,131.131,110.766,260820.5268979346,2019.0,7.0,17.0,26.0,42.0,55.0,2.0,526487843.346,3,33,7,126.41623280601276,34.731329179845446,26.247,7.293,0.533,0.779,-12.915,34.059,-0.02,36.425,5.075,0.395,0.009,3.238,1.933,1.04,3048,1351.44,92.75,6,33.0,129.0,0.952,130.241,129.8,128.912,128.921,1.888,93.75,21.127,47.638,47.263,-0.531,0.3,0.0,0.138,0.0,1766007.167,39.355,27.843,14.591,20.784,93.0,97.647,918.2,11.189,-7.182,0.317,-0.579,9.859,0.006,-0.006,-0.002,13.0,1,1.984,0.661,64.469,0.027,0.0,6.138,6.0,3049.0
12.125103662465124,-7.534436368812233,3515.268,-0.00029720488187825875,126.41624303542268,34.731326016616116,260820554,-0.014,-0.001,-0.005,4.356,0.37,-8.715,8,34.73132599285317,126.41624302636741,131.113,110.772,260820.5543720061,2019.0,7.0,17.0,26.0,42.0,55.0,2.0,553962026.702,3,33,7,126.41624302636741,34.73132599285317,26.249,7.295,0.536,0.781,-12.916,34.053,-0.021,36.42,5.075,0.387,0.009,3.502,1.933,1.04,3049,1351.803,92.75,6,33.0,129.0,0.952,130.103,129.852,128.887,128.904,1.916,93.75,21.127,47.638,47.263,-0.583,0.3,0.0,0.146,0.0,1766034.916,39.349,27.843,14.591,20.784,93.0,97.647,918.2,12.124,-7.537,0.372,-0.577,9.81,0.009,-0.005,-0.002,14.0,1,1.983,0.687,64.505,0.054,0.0,6.136,6.0,3049.0
13.059474631205527,-7.89074186867612,3516.268,-0.0002972048818782587,126.4162532487169,34.731322815850895,260820581,-0.018,0.0,-0.006,4.284,0.363,-8.698,8,34.73132280639395,126.4162532450125,131.095,110.777,260820.58184148223,2019.0,7.0,17.0,26.0,42.0,55.0,2.0,581431614.584,3,33,7,126.4162532450125,34.73132280639395,26.25,7.296,0.538,0.782,-12.918,34.047,-0.021,36.415,5.075,0.378,0.009,3.766,1.933,1.04,3049,1352.166,92.75,6,33.0,129.0,0.952,129.966,129.903,128.861,128.886,1.943,93.75,21.127,47.638,47.263,-0.635,0.3,0.0,0.155,0.0,1766062.66,39.344,27.843,14.591,20.784,93.0,97.647,918.2,13.059,-7.892,0.426,-0.576,9.76,0.013,-0.004,-0.003,15.0,1,1.983,0.718,64.448,0.082,0.0,6.154,6.0,3049.0
13.993388817750953,-8.248270224492643,3517.268,-0.0002777904052261367,126.41626345701823,34.731319604100506,260820609,-0.023,0.002,-0.008,4.248,0.41,-8.654,7,34.73131960220859,126.41626346083363,131.085,110.786,260820.609303367,2019.0,7.0,17.0,26.0,42.0,55.0,2.0,608893611.127,3,33,7,126.41626346083363,34.73131960220859,26.252,7.298,0.541,0.783,-12.922,34.042,-0.021,36.412,5.075,0.37,0.008,3.851,1.934,1.039,3049,1352.529,92.75,6,33.0,129.093,0.952,129.913,129.969,128.847,128.907,1.961,93.75,21.127,47.638,47.263,-0.643,0.3,0.0,0.146,0.0,1766090.396,39.342,27.807,14.591,20.748,93.0,97.647,918.2,13.994,-8.248,0.437,-0.52,9.713,0.018,-0.002,-0.003,16.0,1,1.983,0.68,64.357,0.1,0.0,6.179,6.0,3049.279
14.926412173584346,-8.60818343166936,3518.268,-0.0002205132179650464,126.41627365558215,34.73131637092651,260820636,-0.032,0.005,-0.013,4.281,0.564,-8.557,7,34.73131636345322,126.4162736711474,131.09,110.801,260820.63675044695,2019.0,7.0,17.0,26.0,42.0,55.0,2.0,636340802.808,3,33,7,126.4162736711474,34.73131636345322,26.256,7.302,0.542,0.784,-12.931,34.04,-0.022,36.414,5.075,0.362,0.008,3.587,1.934,1.036,3050,1352.892,92.75,6,33.0,129.368,0.952,130.024,130.064,128.855,129.001,1.961,93.75,21.127,47.638,47.263,-0.563,0.3,0.0,0.105,0.0,1766118.118,39.347,27.699,14.591,20.64,93.0,97.647,918.2,14.928,-8.609,0.362,-0.356,9.673,0.028,0.001,-0.003,17.0,1,1.982,0.509,64.199,0.1,0.0,6.219,6.0,3050.103
15.859368851452798,-8.968283778912427,3519.268,-0.00016833379238386407,126.41628385341724,34.731313136071385,260820664,-0.041,0.008,-0.017,4.314,0.718,-8.461,7,34.73131312878385,126.41628386857971,131.095,110.815,260820.6641628995,2019.0,7.0,17.0,26.0,42.0,55.0,2.0,663753366.9,3,33,7,126.41628386857971,34.73131312878385,26.259,7.305,0.544,0.786,-12.94,34.039,-0.022,36.415,5.076,0.355,0.008,3.324,1.934,1.034,3050,1353.254,92.75,6,33.0,129.642,0.952,130.136,130.158,128.864,129.096,1.961,93.75,21.127,47.638,47.263,-0.484,0.3,0.0,0.064,0.0,1766145.804,39.353,27.592,14.591,20.533,93.0,97.647,918.2,15.861,-8.969,0.287,-0.192,9.633,0.039,0.003,-0.003,18.0,1,1.982,0.36,63.927,0.1,0.0,6.244,6.0,3050.925
16.79226330346774,-9.328558770813062,3520.268,-0.00012091174912233695,126.41629405057218,34.73130989964741,260820691,-0.05,0.01,-0.022,4.346,0.871,-8.365,7,34.731309897927666,126.41629405399074,131.1,110.83,260820.6915430367,2019.0,7.0,17.0,26.0,42.0,55.0,2.0,691133615.501,3,33,7,126.41629405399074,34.731309897927666,26.263,7.309,0.545,0.787,-12.949,34.037,-0.023,36.417,5.076,0.348,0.007,3.061,1.934,1.031,3051,1353.616,92.75,6,33.0,129.915,0.952,130.247,130.252,128.872,129.19,1.961,93.75,21.127,47.638,47.263,-0.405,0.3,0.0,0.023,0.0,1766173.458,39.358,27.484,14.591,20.425,93.0,97.647,918.2,16.793,-9.329,0.212,-0.028,9.593,0.049,0.006,-0.003,19.0,1,1.982,0.23,63.548,0.1,0.0,6.255,6.0,3051.746
17.72575647926134,-9.687230259918676,3521.268,-0.0001483443188382659,126.41630425427155,34.73130667762801,260820718,-0.046,0.012,-0.02,4.422,0.894,-8.5,7,34.73130667450107,126.41630425370005,131.141,110.825,260820.7188602112,2019.0,7.0,17.0,26.0,42.0,55.0,2.0,718450901.386,3,33,7,126.41630425370005,34.73130667450107,26.266,7.312,0.547,0.788,-12.951,34.048,-0.023,36.428,5.076,0.343,0.007,2.98,1.934,1.03,3052,1353.229,92.75,6,33.0,130.0,0.952,130.328,130.216,128.934,129.236,1.98,93.75,21.127,47.712,47.336,-0.38,0.281,0.0,-0.007,0.0,1766201.049,39.358,27.451,14.548,20.392,93.0,98.091,918.2,17.726,-9.688,0.21,-0.034,9.75,0.044,0.008,-0.003,20.0,1,1.981,0.222,63.029,0.119,0.0,6.249,6.0,3052.189
18.659517230942456,-10.045185126937719,3522.268,-0.0002092301940974415,126.41631446089569,34.731303462046185,260820746,-0.037,0.012,-0.014,4.518,0.859,-8.74,7,34.73130345439483,126.41631445979941,131.198,110.813,260820.74614924705,2019.0,7.0,17.0,26.0,42.0,55.0,2.0,745740048.578,3,33,7,126.41631445979941,34.73130345439483,26.268,7.314,0.548,0.789,-12.949,34.066,-0.022,36.444,5.076,0.338,0.007,2.98,1.934,1.03,3052,1352.508,92.75,6,33.0,130.0,0.952,130.397,130.123,129.019,129.262,2.008,93.75,21.127,47.819,47.443,-0.38,0.254,0.0,-0.032,0.0,1766228.611,39.355,27.451,14.485,20.392,93.0,98.733,918.2,18.659,-10.046,0.241,-0.115,9.995,0.034,0.008,-0.003,21.0,1,1.98,0.27,62.448,0.146,0.0,6.235,6.0,3052.461
19.592980996261595,-10.403921988498142,3523.268,-0.00016554162394887773,126.4163246642736,34.73130023943954,260820773,-0.028,0.013,-0.008,4.613,0.823,-8.979,8,34.73130023503465,126.41632466353421,131.255,110.8,260820.77343196044,2019.0,7.0,17.0,26.0,42.0,55.0,2.0,773022873.297,3,33,8,126.41632466353421,34.73130023503465,26.271,7.316,0.55,0.791,-12.947,34.084,-0.022,36.46,5.075,0.334,0.007,2.98,1.934,1.03,3052,1351.786,92.75,6,33.0,130.0,0.952,130.465,130.029,129.104,129.288,2.035,93.75,21.127,47.927,47.549,-0.38,0.227,0.0,-0.056,0.0,1766256.166,39.353,27.451,14.422,20.392,93.0,99.375,918.2,19.593,-10.404,0.272,-0.196,10.24,0.023,0.009,-0.004,22.0,1,1.98,0.339,61.692,0.173,0.0,6.22,6.0,3052.734
20.526358068618954,-10.762889472678456,3524.269,-0.00010517172654219667,126.41633486670386,34.73129701476116,260820800,-0.019,0.013,-0.003,4.705,0.786,-9.211,8,34.73129701484453,126.41633486620005,131.31,110.787,260820.80071564254,2019.0,7.0,17.0,26.0,42.0,55.0,2.0,800306666.712,3,33,8,126.41633486620005,34.73129701484453,26.273,7.318,0.551,0.792,-12.945,34.101,-0.021,36.475,5.075,0.329,0.007,2.98,1.934,1.03,3053,1351.046,92.75,6,33.0,129.993,0.952,130.532,129.938,129.188,129.312,2.061,93.75,21.127,48.031,47.653,-0.381,0.201,0.0,-0.08,0.0,1766283.723,39.35,27.451,14.361,20.392,93.0,100.0,918.2,20.526,-10.763,0.303,-0.277,10.478,0.012,0.009,-0.004,23.0,1,1.979,0.411,60.902,0.2,0.0,6.205,6.0,3053.021
21.458324152245307,-11.125659772803111,3525.269,-6.33998060463207e-05,126.41634505371111,34.731293755921314,260820828,-0.009,0.006,0.002,4.648,0.718,-9.193,8,34.7312937591929,126.41634504353131,131.309,110.804,260820.82807405983,2019.0,7.0,17.0,26.0,42.0,55.0,2.0,827665195.314,3,33,8,126.41634504353131,34.7312937591929,26.277,7.322,0.552,0.793,-12.955,34.097,-0.021,36.475,5.075,0.313,0.007,2.98,1.934,1.027,3053,1349.599,92.75,6,33.0,129.719,0.952,130.558,129.973,129.214,129.304,2.061,93.75,21.127,48.031,47.653,-0.433,0.228,0.0,-0.08,0.0,1766311.355,39.353,27.451,14.361,20.392,93.0,100.0,918.2,21.457,-11.125,0.344,-0.336,10.423,0.001,0.002,-0.005,24.0,1,1.979,0.481,59.926,0.2,0.0,6.188,6.0,3053.842
22.39029059254572,-11.488425939253755,3526.269,-2.0507178901246423e-05,126.41635524072225,34.7312904971186,260820855,0.001,-0.001,0.007,4.592,0.651,-9.174,8,34.731290502311055,126.41635522470827,131.308,110.821,260820.855442815,2019.0,7.0,17.0,26.0,42.0,55.0,2.0,855034061.847,3,33,8,126.41635522470827,34.731290502311055,26.281,7.326,0.552,0.795,-12.965,34.093,-0.022,36.474,5.076,0.298,0.006,2.98,1.934,1.024,3054,1348.152,92.75,6,33.0,129.446,0.952,130.583,130.007,129.239,129.295,2.061,93.75,21.127,48.031,47.653,-0.485,0.255,0.0,-0.08,0.0,1766338.997,39.356,27.451,14.361,20.392,93.0,100.0,918.2,22.389,-11.488,0.385,-0.395,10.368,-0.009,-0.005,-0.005,25.0,1,1.979,0.551,58.969,0.2,0.0,6.168,6.0,3054.663
23.32225847241305,-11.851175421844042,3527.269,2.6908715732134568e-05,126.41636542774913,34.73128723846576,260820882,0.01,-0.008,0.011,4.535,0.583,-9.155,8,34.73128724046397,126.41636542140672,131.307,110.838,260820.88285329472,2019.0,7.0,17.0,26.0,42.0,55.0,2.0,882444653.154,3,33,8,126.41636542140672,34.73128724046397,26.285,7.33,0.553,0.796,-12.975,34.089,-0.022,36.474,5.076,0.283,0.006,2.98,1.934,1.022,3055,1346.703,92.75,6,33.0,129.171,0.952,130.609,130.041,129.265,129.287,2.061,93.75,21.127,48.031,47.653,-0.537,0.283,0.0,-0.08,0.0,1766366.682,39.358,27.451,14.361,20.392,93.0,100.0,918.2,23.322,-11.851,0.425,-0.454,10.313,-0.02,-0.012,-0.006,26.0,1,1.978,0.622,58.086,0.2,0.0,6.132,6.0,3055.486
24.25484220946009,-12.212281102913337,3528.269,5.656986643308112e-05,126.41637562150775,34.73128399457952,260820910,0.015,-0.01,0.014,4.471,0.521,-9.052,8,34.73128399919453,126.41637562820918,131.306,110.846,260820.91026334607,2019.0,7.0,17.0,26.0,42.103,55.0,2.0,807221459.78,3,32,8,126.41637562820918,34.73128399919453,26.288,7.334,0.553,0.797,-12.98,34.087,-0.022,36.474,5.076,0.27,0.006,2.98,1.935,1.02,3056,1345.525,92.75,6,33.0,129.103,0.952,130.615,130.101,129.275,129.291,2.061,93.75,21.127,48.031,47.653,-0.57,0.3,0.0,-0.077,0.0,1766394.366,39.36,27.451,14.361,20.432,93.0,100.0,918.2,24.255,-12.212,0.432,-0.493,10.182,-0.026,-0.014,-0.007,27.0,1,1.977,0.656,57.237,0.2,0.0,6.086,6.0,3056.103
25.188454800129975,-12.570640642172751,3529.269,5.656986643308112e-05,126.4163858265124,34.731280775362436,260820937,0.012,-0.005,0.013,4.393,0.469,-8.807,8,34.73128079230221,126.41638585189135,131.306,110.841,260820.9376726817,2019.0,7.0,17.0,26.0,42.377,55.0,2.0,560537829.354,3,32,8,126.41638585189135,34.73128079230221,26.292,7.338,0.554,0.799,-12.976,34.088,-0.023,36.474,5.076,0.261,0.006,2.98,1.935,1.02,3056,1344.8,92.75,6,33.0,129.377,0.952,130.59,130.204,129.258,129.317,2.061,93.75,21.127,48.031,47.653,-0.57,0.3,0.0,-0.069,0.0,1766422.049,39.36,27.451,14.361,20.54,93.0,100.0,918.2,25.191,-12.569,0.383,-0.498,9.924,-0.022,-0.009,-0.007,28.0,1,1.976,0.629,56.442,0.2,0.0,6.026,6.0,3056.377
26.122792941461302,-12.927051574807258,3530.269,5.656986643308112e-05,126.4163960394478,34.73127757365009,260820965,0.008,0.0,0.013,4.316,0.417,-8.562,8,34.73127758936639,126.41639606296015,131.306,110.836,260820.9650482013,2019.0,7.0,17.0,26.0,42.65,55.0,2.0,314158390.143,3,33,8,126.41639606296015,34.73127758936639,26.296,7.342,0.554,0.8,-12.973,34.089,-0.023,36.474,5.076,0.252,0.006,2.98,1.934,1.02,3056,1344.076,92.75,6,33.0,129.65,0.952,130.564,130.306,129.241,129.342,2.061,93.75,21.127,48.031,47.653,-0.57,0.3,0.0,-0.06,0.0,1766449.699,39.36,27.451,14.361,20.647,93.0,100.0,918.2,26.125,-12.925,0.333,-0.504,9.667,-0.019,-0.003,-0.007,29.0,1,1.975,0.605,55.626,0.2,0.0,6.003,6.0,3056.65
27.057724113137624,-13.281869809756476,3531.269,5.656986643308112e-05,126.41640625886542,34.73127438624527,260820992,0.005,0.005,0.012,4.238,0.365,-8.317,8,34.73127438966444,126.41640626371934,131.306,110.83,260820.99239608127,2019.0,7.0,17.0,26.0,42.924,55.0,2.0,68027582.254,3,33,8,126.41640626371934,34.73127438966444,26.3,7.346,0.555,0.801,-12.97,34.091,-0.024,36.474,5.076,0.243,0.006,2.98,1.934,1.02,3056,1343.353,92.75,6,33.0,129.924,0.952,130.538,130.409,129.224,129.368,2.061,93.75,21.127,48.031,47.653,-0.57,0.3,0.0,-0.052,0.0,1766477.32,39.36,27.451,14.362,20.754,93.0,100.0,918.2,27.058,-13.281,0.284,-0.509,9.41,-0.016,0.002,-0.007,30.0,1,1.974,0.584,54.793,0.2,0.0,6.011,6.0,3056.924
27.992959909692033,-13.635893873254805,3532.269,2.2531824890226883e-05,126.4164164816128,34.73127120597465,260821019,0.002,0.008,0.011,4.239,0.381,-8.289,8,34.73127119780561,126.41641647882824,131.349,110.817,260821.01967692596,2019.0,7.0,17.0,26.0,43.0,55.0,2.0,19269150.214,3,33,8,126.41641647882824,34.73127119780561,26.298,7.344,0.555,0.802,-12.966,34.104,-0.023,36.486,5.076,0.237,0.006,2.98,1.934,1.022,3058,1342.892,92.75,6,33.0,130.0,0.952,130.525,130.499,129.237,129.424,2.042,93.75,21.219,47.954,47.576,-0.552,0.3,0.0,-0.015,0.0,1766505.07,39.362,27.528,14.362,20.784,93.0,100.0,918.495,27.993,-13.637,0.27,-0.489,9.389,-0.012,0.005,-0.007,31.0,1,1.973,0.559,53.935,0.18,0.0,6.065,6.0,3058.181
28.92831302529953,-13.989612080438336,3533.269,-2.461516175208294e-05,126.41642670564254,34.73126802845161,260821046,-0.002,0.01,0.009,4.27,0.423,-8.345,8,34.73126800896736,126.41642669946357,131.408,110.802,260821.0469319537,2019.0,7.0,17.0,26.0,43.0,55.0,2.0,46524011.591,3,33,8,126.41642669946357,34.73126800896736,26.293,7.339,0.556,0.803,-12.963,34.123,-0.023,36.502,5.075,0.233,0.006,2.98,1.934,1.025,3059,1342.532,92.75,6,33.0,130.0,0.952,130.517,130.584,129.263,129.492,2.014,93.75,21.347,47.847,47.47,-0.528,0.3,0.0,0.034,0.0,1766532.871,39.365,27.635,14.362,20.784,93.0,100.0,918.904,28.928,-13.992,0.27,-0.459,9.459,-0.009,0.006,-0.007,32.0,1,1.972,0.533,53.067,0.153,0.0,6.136,6.0,3059.816
29.862844675346096,-14.345462166795695,3534.269,-0.00012078696407074975,126.41643692069312,34.73126483177745,260821074,-0.005,0.012,0.007,4.3,0.466,-8.4,8,34.731264821057614,126.41643691712304,131.467,110.786,260821.0741790456,2019.0,7.0,17.0,26.0,43.0,55.0,2.0,73771182.923,3,33,8,126.41643691712304,34.731264821057614,26.289,7.334,0.556,0.805,-12.959,34.141,-0.022,36.519,5.075,0.229,0.006,2.98,1.934,1.027,3061,1342.171,92.75,6,33.0,130.0,0.952,130.508,130.669,129.288,129.56,1.987,93.75,21.475,47.739,47.363,-0.503,0.3,0.0,0.084,0.0,1766560.663,39.367,27.742,14.362,20.784,93.0,100.0,919.313,29.863,-14.347,0.27,-0.429,9.529,-0.005,0.008,-0.007,33.0,1,1.971,0.507,52.115,0.126,0.0,6.13,6.0,3061.451
30.797183686413916,-14.701826688829243,3535.269,-0.00021782179349565296,126.41644713363804,34.73126163048202,260821101,-0.008,0.013,0.006,4.334,0.508,-8.464,8,34.731261630069234,126.41644713406774,131.52,110.773,260821.10142803963,2019.0,7.0,17.0,26.0,43.0,55.0,2.0,101020287.611,3,33,8,126.41644713406774,34.731261630069234,26.285,7.33,0.557,0.806,-12.957,34.158,-0.021,36.533,5.075,0.225,0.006,2.98,1.933,1.03,3063,1341.887,92.75,6,33.0,130.0,0.952,130.504,130.753,129.317,129.623,1.96,93.75,21.596,47.638,47.263,-0.48,0.3,0.0,0.133,0.0,1766588.442,39.37,27.843,14.367,20.784,93.0,100.0,919.7,30.797,-14.702,0.271,-0.401,9.607,-0.002,0.01,-0.006,34.0,1,1.969,0.484,51.147,0.099,0.0,6.109,6.0,3063.057
31.72992034133307,-15.062612315802179,3536.269,-0.00021782179349565296,126.41645732906814,34.731258389470895,260821128,-0.006,0.01,0.005,4.424,0.541,-8.67,8,34.73125838116745,126.41645734490211,131.481,110.813,260821.12872973573,2019.0,7.0,17.0,26.0,43.0,55.0,2.0,128322095.116,3,33,8,126.41645734490211,34.73125838116745,26.281,7.326,0.557,0.807,-12.977,34.139,-0.021,36.523,5.076,0.224,0.006,2.98,1.934,1.033,3064,1342.969,92.75,6,33.0,130.0,0.952,130.581,130.804,129.402,129.58,1.933,93.75,21.596,47.638,47.263,-0.48,0.3,0.0,0.199,0.0,1766616.017,39.364,27.843,14.459,20.784,93.0,100.0,919.7,31.731,-15.064,0.29,-0.409,9.834,-0.003,0.006,-0.006,35.0,1,1.969,0.501,50.093,0.071,0.0,6.007,6.0,3064.149
32.66260037657143,-15.423522632277297,3537.269,-0.00018641732023616547,126.41646752387933,34.73125514733966,260821156,-0.004,0.007,0.005,4.515,0.574,-8.876,8,34.7312551346262,126.41646754831764,131.442,110.853,260821.15601159533,2019.0,7.0,17.0,26.0,43.0,55.0,2.0,155604066.012,3,33,8,126.41646754831764,34.7312551346262,26.277,7.322,0.558,0.809,-12.997,34.12,-0.02,36.512,5.076,0.223,0.006,2.98,1.935,1.036,3065,1344.051,92.75,6,33.0,130.0,0.952,130.658,130.855,129.488,129.537,1.905,93.75,21.596,47.638,47.263,-0.48,0.3,0.0,0.264,0.0,1766643.572,39.359,27.843,14.551,20.784,93.0,100.0,919.7,32.665,-15.425,0.309,-0.417,10.061,-0.005,0.003,-0.005,36.0,1,1.968,0.519,49.07,0.044,0.0,5.908,6.0,3065.24
33.59508073856512,-15.78487267495943,3538.269,-4.426278648061942e-05,126.416477716508,34.731251901258275,260821183,-0.002,0.004,0.004,4.605,0.607,-9.082,8,34.73125189640955,126.41647772556999,131.403,110.893,260821.18322350006,2019.0,7.0,17.0,26.0,43.0,55.0,2.0,182816081.729,3,33,8,126.41647772556999,34.73125189640955,26.273,7.318,0.558,0.81,-13.017,34.101,-0.02,36.501,5.077,0.223,0.006,2.98,1.935,1.038,3066,1345.131,92.75,6,33.0,130.0,0.952,130.734,130.906,129.573,129.495,1.878,93.75,21.596,47.638,47.263,-0.48,0.3,0.0,0.33,0.0,1766671.056,39.353,27.843,14.644,20.784,93.0,100.0,919.7,33.596,-15.785,0.329,-0.425,10.287,-0.006,0.0,-0.004,37.0,1,1.967,0.537,48.159,0.017,0.0,5.82,6.0,3066.329
34.528045946026154,-16.144940445957022,3539.269,4.337736790726809e-05,126.4164879144363,34.73124866669579,260821210,-0.0,0.002,0.004,4.672,0.647,-9.233,8,34.73124866743358,126.41648791521114,131.418,110.91,260821.21035775187,2019.0,7.0,17.0,26.0,43.0,55.0,2.0,209950444.147,3,33,8,126.41648791521114,34.73124866743358,26.266,7.311,0.558,0.811,-13.029,34.101,-0.019,36.505,5.077,0.222,0.006,2.98,1.936,1.039,3066,1346.07,92.75,6,33.0,130.0,0.952,130.778,130.928,129.619,129.514,1.851,93.75,21.548,47.638,47.263,-0.47,0.3,0.0,0.374,0.0,1766698.461,39.35,27.843,14.695,20.784,93.0,100.0,919.7,34.528,-16.145,0.342,-0.415,10.456,-0.008,-0.002,-0.003,38.0,1,1.966,0.538,47.301,-0.01,0.0,5.756,6.0,3066.689
35.461790616302395,-16.50294677023717,3540.269,4.337736790726809e-05,126.4164981208847,34.73124545065171,260821237,0.001,0.001,0.003,4.701,0.7,-9.296,8,34.731245453313434,126.41649812476913,131.52,110.892,260821.23736716487,2019.0,7.0,17.0,26.0,43.0,55.0,2.0,236959967.082,3,33,8,126.41649812476913,34.731245453313434,26.253,7.298,0.559,0.812,-13.028,34.131,-0.017,36.533,5.077,0.221,0.006,2.98,1.935,1.038,3065,1346.784,92.75,6,33.0,130.0,0.952,130.77,130.902,129.602,129.632,1.824,93.75,21.421,47.638,47.263,-0.443,0.3,0.0,0.385,0.0,1766725.741,39.35,27.843,14.68,20.784,93.0,100.0,919.7,35.462,-16.503,0.347,-0.375,10.533,-0.009,-0.003,-0.002,39.0,1,1.965,0.512,46.527,-0.037,0.0,5.728,6.0,3065.879
36.39565086149595,-16.86065299406205,3541.269,4.337736790726809e-05,126.41650832859638,34.7312422373035,260821264,0.003,0.0,0.003,4.73,0.752,-9.359,8,34.7312422398414,126.41650833226848,131.622,110.873,260821.26437113155,2019.0,7.0,17.0,26.0,43.0,55.0,2.0,263964043.648,3,33,8,126.41650833226848,34.7312422398414,26.239,7.284,0.559,0.814,-13.027,34.162,-0.014,36.562,5.077,0.219,0.005,2.98,1.935,1.037,3065,1347.498,92.75,6,33.0,130.0,0.952,130.761,130.877,129.585,129.75,1.797,93.75,21.294,47.638,47.263,-0.416,0.3,0.0,0.396,0.0,1766753.015,39.35,27.843,14.665,20.784,93.0,100.0,919.7,36.396,-16.86,0.352,-0.336,10.611,-0.01,-0.004,-0.001,40.0,1,1.965,0.487,45.748,-0.064,0.0,5.718,6.0,3065.069
37.329612663463855,-17.218095516774884,3542.269,4.337736790726809e-05,126.41651853741813,34.73123902632417,260821291,0.004,-0.0,0.002,4.759,0.805,-9.421,8,34.731239026938866,126.41651853795888,131.724,110.855,260821.29137031242,2019.0,7.0,17.0,26.0,43.0,55.0,2.0,290963334.44,3,33,8,126.41651853795888,34.731239026938866,26.226,7.271,0.56,0.815,-13.026,34.192,-0.012,36.59,5.076,0.218,0.005,2.98,1.935,1.035,3064,1348.212,92.75,6,33.0,130.0,0.952,130.753,130.852,129.568,129.868,1.77,93.75,21.167,47.638,47.263,-0.389,0.3,0.0,0.407,0.0,1766780.284,39.35,27.843,14.651,20.784,93.0,100.0,919.7,37.33,-17.218,0.356,-0.297,10.688,-0.011,-0.005,-0.0,41.0,1,1.965,0.464,44.966,-0.091,0.0,5.725,6.0,3064.259
38.262872466377324,-17.577425208715002,3543.269,4.3377367907268095e-05,126.41652873856658,34.731235798392,260821318,0.004,-0.002,0.002,4.662,0.757,-9.29,8,34.7312357984677,126.41652871910138,131.766,110.858,260821.3185003223,2019.0,7.0,17.0,26.0,43.0,55.0,2.0,318093454.702,3,33,8,126.41652871910138,34.7312357984677,26.223,7.268,0.56,0.816,-13.032,34.202,-0.012,36.602,5.076,0.218,0.005,2.98,1.935,1.034,3064,1348.685,92.75,6,33.0,130.185,0.952,130.796,130.803,129.609,129.9,1.761,93.75,21.127,47.638,47.263,-0.38,0.3,0.0,0.416,0.0,1766807.685,39.354,27.843,14.636,20.784,93.0,100.0,919.7,38.261,-17.577,0.379,-0.314,10.52,-0.01,-0.006,0.0,42.0,1,1.965,0.492,44.175,-0.1,0.0,5.756,6.0,3064.185
39.19580248161527,-17.93764146189595,3544.269,4.337736790726809e-05,126.41653893611024,34.73123256249568,260821345,0.003,-0.003,0.001,4.506,0.663,-9.068,8,34.731232562682635,126.4165388887117,131.779,110.871,260821.34569179342,2019.0,7.0,17.0,26.0,43.0,55.0,2.0,345285036.508,3,33,8,126.4165388887117,34.731232562682635,26.224,7.269,0.56,0.817,-13.042,34.203,-0.013,36.605,5.077,0.219,0.005,2.98,1.935,1.033,3064,1349.044,92.75,6,33.0,130.457,0.952,130.864,130.744,129.677,129.892,1.761,93.75,21.127,47.638,47.263,-0.38,0.3,0.0,0.424,0.0,1766835.149,39.359,27.843,14.621,20.784,93.0,100.0,919.7,39.192,-17.938,0.409,-0.358,10.238,-0.009,-0.008,0.001,43.0,1,1.964,0.544,43.38,-0.1,0.0,5.798,6.0,3064.457
40.12816623916991,-18.299286150411596,3545.269,6.803803654329309e-05,126.41654912746434,34.73122931376743,260821372,0.002,-0.004,-0.0,4.349,0.569,-8.845,8,34.73122931387794,126.41654909924078,131.793,110.885,260821.37299267328,2019.0,7.0,17.0,26.0,43.0,55.0,2.0,372586027.466,3,33,8,126.41654909924078,34.73122931387794,26.225,7.271,0.561,0.819,-13.051,34.203,-0.015,36.609,5.077,0.219,0.005,2.98,1.935,1.031,3064,1349.405,92.75,6,33.0,130.73,0.952,130.932,130.684,129.745,129.883,1.761,93.75,21.127,47.638,47.263,-0.38,0.3,0.0,0.432,0.0,1766862.723,39.365,27.843,14.606,20.784,93.0,100.0,919.7,40.126,-18.299,0.44,-0.402,9.954,-0.008,-0.009,0.001,44.0,1,1.964,0.596,42.382,-0.1,0.0,5.885,6.0,3064.73
41.06042390055982,-18.661199446449324,3546.269,9.726791030335622e-05,126.41655931765871,34.73122606262623,260821400,0.001,-0.005,-0.001,4.193,0.476,-8.623,8,34.731226062598694,126.41655931723264,131.807,110.899,260821.40031434761,2019.0,7.0,17.0,26.0,43.0,55.0,2.0,399907813.025,3,33,8,126.41655931723264,34.731226062598694,26.226,7.272,0.561,0.82,-13.06,34.204,-0.016,36.613,5.077,0.22,0.006,2.98,1.936,1.03,3065,1349.758,92.75,6,33.0,130.997,0.952,131.001,130.625,129.813,129.875,1.761,93.75,21.127,47.638,47.263,-0.38,0.3,0.0,0.44,0.0,1766890.317,39.37,27.843,14.591,20.784,93.0,100.0,919.7,41.06,-18.661,0.47,-0.445,9.672,-0.006,-0.01,0.001,45.0,1,1.963,0.647,41.345,-0.1,0.0,5.98,6.0,3065.019
41.99272562410886,-19.023085026277098,3547.269,0.0001201677625824588,126.41656950833472,34.731222811734,260821427,-0.001,-0.002,-0.002,4.168,0.505,-8.502,8,34.73122280931165,126.41656951451053,131.811,110.901,260821.4276528942,2019.0,7.0,17.0,26.0,43.0,55.0,2.0,427246471.134,3,33,8,126.41656951451053,34.73122280931165,26.227,7.273,0.561,0.821,-13.062,34.205,-0.016,36.614,5.077,0.22,0.006,2.98,1.936,1.03,3066,1349.396,92.75,6,33.0,130.723,0.952,131.086,130.625,129.83,129.901,1.761,93.75,21.127,47.638,47.263,-0.408,0.3,0.0,0.399,0.0,1766917.929,39.364,27.843,14.527,20.784,93.0,100.0,919.7,41.993,-19.023,0.435,-0.395,9.561,-0.004,-0.007,0.001,46.0,1,1.964,0.587,40.272,-0.1,0.0,6.119,6.0,3066.659
42.92502009082702,-19.384979364399825,3548.269,0.00013980554562240455,126.4165796989314,34.731219560763094,260821454,-0.002,0.001,-0.003,4.142,0.534,-8.381,8,34.73121955681982,126.41657970929585,131.815,110.904,260821.45498475828,2019.0,7.0,17.0,26.0,43.0,55.0,2.0,454578446.686,3,33,8,126.41657970929585,34.73121955681982,26.228,7.274,0.562,0.823,-13.064,34.205,-0.017,36.615,5.077,0.221,0.006,2.98,1.936,1.03,3068,1349.035,92.75,6,33.0,130.45,0.952,131.172,130.625,129.847,129.927,1.761,93.75,21.127,47.638,47.263,-0.435,0.3,0.0,0.358,0.0,1766945.535,39.359,27.843,14.464,20.784,93.0,100.0,919.7,42.926,-19.385,0.399,-0.345,9.45,-0.002,-0.004,0.002,47.0,1,1.964,0.527,39.223,-0.1,0.0,6.255,6.0,3068.299
43.8572820680949,-19.74691291415535,3549.27,0.00014483876671324587,126.41658988917297,34.73121630943994,260821482,-0.004,0.004,-0.004,4.117,0.563,-8.26,8,34.731216307888275,126.4165898929216,131.819,110.907,260821.48228670406,2019.0,7.0,17.0,26.0,43.0,55.0,2.0,481880503.859,3,33,8,126.4165898929216,34.731216307888275,26.229,7.274,0.562,0.824,-13.067,34.206,-0.017,36.616,5.077,0.221,0.006,2.98,1.936,1.03,3069,1348.674,92.75,6,33.0,130.177,0.952,131.257,130.625,129.864,129.952,1.761,93.75,21.127,47.638,47.263,-0.462,0.3,0.0,0.317,0.0,1766973.11,39.354,27.843,14.4,20.784,93.0,100.0,919.7,43.858,-19.747,0.363,-0.295,9.339,-0.0,-0.002,0.002,48.0,1,1.964,0.468,38.285,-0.1,0.0,6.377,6.0,3069.937
44.7895326564394,-20.10888010758841,3550.27,0.00015324201254150128,126.41660007929003,34.731213057814564,260821509,-0.006,0.006,-0.005,4.122,0.592,-8.218,8,34.731213061128805,126.4166000793095,131.841,110.904,260821.50957039712,2019.0,7.0,17.0,26.0,43.0,55.0,2.0,509164308.13,3,33,8,126.4166000793095,34.731213061128805,26.232,7.277,0.562,0.825,-13.067,34.212,-0.017,36.622,5.077,0.221,0.006,2.98,1.936,1.03,3071,1348.567,92.75,6,33.0,130.096,0.952,131.307,130.655,129.869,129.984,1.761,93.75,21.127,47.638,47.263,-0.47,0.3,0.0,0.293,0.0,1767000.666,39.352,27.843,14.359,20.784,93.0,100.0,919.7,44.79,-20.109,0.339,-0.261,9.31,0.002,0.0,0.003,49.0,1,1.964,0.427,37.394,-0.1,0.0,6.493,6.0,3071.574
45.721762205808275,-20.47090945162939,3551.27,0.00016787076941402983,126.41661026917713,34.731209805630876,260821536,-0.009,0.006,-0.006,4.183,0.619,-8.323,8,34.73120981838185,126.41661027079991,131.897,110.892,260821.53682037155,2019.0,7.0,17.0,26.0,43.0,55.0,2.0,536414393.465,3,33,8,126.41661027079991,34.73120981838185,26.237,7.282,0.563,0.826,-13.065,34.23,-0.017,36.638,5.077,0.221,0.005,2.98,1.935,1.03,3073,1348.927,92.75,6,33.0,130.368,0.952,131.289,130.74,129.852,130.026,1.761,93.75,21.127,47.638,47.263,-0.443,0.3,0.0,0.301,0.0,1767028.189,39.357,27.843,14.359,20.784,93.0,100.0,919.7,45.722,-20.469,0.335,-0.255,9.434,0.005,0.001,0.002,50.0,1,1.964,0.421,36.59,-0.1,0.0,6.599,6.0,3073.209
46.6543694098336,-20.83194085698664,3552.27,0.00017494606340169352,126.41662046319225,34.73120656241188,260821564,-0.012,0.006,-0.008,4.244,0.647,-8.427,8,34.73120657485213,126.41662046475047,131.953,110.88,260821.56407692382,2019.0,7.0,17.0,26.0,43.0,55.0,2.0,563671056.656,3,33,8,126.41662046475047,34.73120657485213,26.242,7.287,0.563,0.828,-13.064,34.247,-0.018,36.654,5.077,0.222,0.005,2.98,1.935,1.03,3074,1349.287,92.75,6,33.0,130.641,0.952,131.272,130.825,129.835,130.069,1.761,93.75,21.127,47.638,47.263,-0.416,0.3,0.0,0.309,0.0,1767055.718,39.363,27.843,14.359,20.784,93.0,100.0,919.7,46.655,-20.831,0.332,-0.25,9.558,0.009,0.001,0.002,51.0,1,1.965,0.415,35.72,-0.1,0.0,6.714,6.0,3074.845
47.58733036124087,-21.19203749776285,3553.27,0.00017494606340169352,126.41663066107407,34.73120332759006,260821591,-0.015,0.006,-0.009,4.305,0.675,-8.531,8,34.731203330589196,126.41663066100536,132.009,110.867,260821.59133963753,2019.0,7.0,17.0,26.0,43.0,55.0,2.0,590933881.294,3,33,8,126.41663066100536,34.731203330589196,26.246,7.291,0.564,0.829,-13.062,34.264,-0.018,36.669,5.077,0.222,0.005,2.98,1.935,1.03,3076,1349.648,92.75,6,33.0,130.913,0.952,131.255,130.91,129.818,130.111,1.761,93.75,21.127,47.638,47.263,-0.389,0.3,0.0,0.317,0.0,1767083.253,39.368,27.843,14.359,20.784,93.0,100.0,919.7,47.587,-21.192,0.328,-0.244,9.682,0.012,0.001,0.001,52.0,1,1.965,0.409,34.79,-0.1,0.0,6.837,6.0,3076.48
48.52120865874061,-21.549693346236655,3554.27,0.00016493642858950828,126.41664086898305,34.731200114694374,260821618,-0.015,0.007,-0.008,4.396,0.707,-8.684,8,34.731200118468074,126.41664087344411,132.026,110.868,260821.61864562353,2019.0,7.0,17.0,26.0,43.0,55.0,2.0,618239978.409,3,33,8,126.41664087344411,34.731200118468074,26.247,7.292,0.564,0.83,-13.064,34.269,-0.017,36.674,5.077,0.222,0.005,2.98,1.935,1.03,3077,1349.516,92.75,6,33.0,130.814,0.952,131.308,130.932,129.877,130.142,1.78,93.75,21.127,47.491,47.117,-0.38,0.3,0.0,0.296,0.0,1767110.832,39.37,27.843,14.401,20.784,93.0,100.0,919.7,48.522,-21.549,0.321,-0.244,9.862,0.011,0.002,0.001,53.0,1,1.966,0.403,33.771,-0.081,0.0,6.974,6.0,3077.373
49.45551402858288,-21.906212878880698,3555.27,0.00015026678789480352,126.41665108156025,34.73119691200644,260821645,-0.012,0.008,-0.006,4.502,0.742,-8.858,8,34.73119692131064,126.41665109341729,132.025,110.875,260821.64597175497,2019.0,7.0,17.0,26.0,43.0,55.0,2.0,645566221.114,3,33,8,126.41665109341729,34.73119692131064,26.247,7.292,0.564,0.831,-13.068,34.266,-0.015,36.674,5.077,0.221,0.005,2.98,1.935,1.03,3077,1349.154,92.75,6,33.0,130.54,0.952,131.394,130.923,129.971,130.168,1.807,93.75,21.127,47.276,46.903,-0.38,0.3,0.0,0.26,0.0,1767138.431,39.37,27.843,14.464,20.784,93.0,100.0,919.7,49.457,-21.905,0.312,-0.247,10.069,0.008,0.003,0.001,54.0,1,1.966,0.398,32.712,-0.054,0.0,7.116,6.0,3077.919
50.39031635010755,-22.261432536811327,3556.27,0.00014381277141917244,126.41666129956944,34.73119372099555,260821673,-0.01,0.009,-0.005,4.608,0.777,-9.032,8,34.731193726403674,126.4166613061968,132.024,110.882,260821.67327865207,2019.0,7.0,17.0,26.0,43.0,55.0,2.0,672873229.345,3,33,8,126.4166613061968,34.731193726403674,26.246,7.291,0.565,0.832,-13.072,34.264,-0.014,36.673,5.077,0.221,0.005,2.98,1.935,1.03,3078,1348.793,92.75,6,33.0,130.267,0.952,131.479,130.915,130.064,130.194,1.835,93.75,21.127,47.061,46.69,-0.38,0.3,0.0,0.225,0.0,1767166.011,39.37,27.843,14.526,20.784,93.0,100.0,919.7,50.391,-22.261,0.303,-0.249,10.276,0.005,0.004,0.001,55.0,1,1.966,0.392,31.675,-0.027,0.0,7.248,6.0,3078.466
51.325196500365124,-22.616448138991814,3557.27,0.00013888658582963197,126.41667151842937,34.731190531817745,260821700,-0.008,0.01,-0.003,4.708,0.81,-9.199,8,34.7311905315824,126.41667151800854,132.024,110.889,260821.70057986074,2019.0,7.0,17.0,26.0,43.0,55.0,2.0,700174549.09,3,33,8,126.41667151800854,34.7311905315824,26.245,7.29,0.565,0.833,-13.076,34.262,-0.012,36.673,5.077,0.22,0.005,2.98,1.935,1.03,3079,1348.471,92.75,6,33.0,130.006,0.952,131.56,130.909,130.157,130.217,1.861,93.75,21.116,46.739,46.37,-0.38,0.3,0.0,0.19,0.0,1767193.591,39.37,27.843,14.587,20.784,93.0,100.0,919.7,51.325,-22.616,0.294,-0.252,10.472,0.002,0.005,0.001,56.0,1,1.967,0.388,30.643,-0.0,0.0,7.379,6.0,3079.012
52.25970512435256,-22.972413538140476,3558.27,0.00013888658582963194,126.41668173322826,34.731187334107716,260821727,-0.004,0.006,-0.002,4.574,0.723,-8.993,8,34.73118732283595,126.41668174248878,132.063,110.892,260821.72777262743,2019.0,7.0,17.0,26.0,43.0,55.0,2.0,727367426.775,3,33,8,126.41668174248878,34.73118732283595,26.251,7.296,0.565,0.834,-13.082,34.272,-0.013,36.684,5.077,0.22,0.005,2.98,1.935,1.03,3079,1349.909,92.75,6,33.0,130.278,0.952,131.432,131.045,130.174,130.149,1.861,93.75,20.605,41.493,41.166,-0.38,0.3,0.0,0.179,0.0,1767221.328,39.37,27.843,14.587,20.784,93.0,100.0,919.7,52.261,-22.974,0.313,-0.294,10.216,-0.001,0.002,0.001,57.0,1,1.968,0.43,29.639,-0.0,0.0,7.496,6.0,3079.555
53.19410655116798,-23.328662599305442,3559.27,0.00013733854030017147,126.41669194685542,34.731184133849496,260821754,-0.001,0.003,-0.0,4.44,0.636,-8.788,8,34.73118411556672,126.41669196226194,132.102,110.894,260821.75495287534,2019.0,7.0,17.0,26.0,43.0,55.0,2.0,754547785.575,3,33,8,126.41669196226194,34.73118411556672,26.256,7.301,0.566,0.835,-13.087,34.282,-0.015,36.695,5.077,0.22,0.005,2.98,1.935,1.03,3080,1351.346,92.75,6,33.0,130.55,0.952,131.305,131.181,130.191,130.081,1.861,93.75,20.095,36.249,35.964,-0.38,0.3,0.0,0.168,0.0,1767249.052,39.37,27.843,14.587,20.784,93.0,100.0,919.7,53.196,-23.331,0.332,-0.335,9.96,-0.005,-0.002,0.0,58.0,1,1.969,0.472,28.642,0.0,0.0,7.617,6.0,3080.099
54.12802811447481,-23.686181461229566,3560.27,0.00012886073584815014,126.41670215523735,34.731180922184386,260821782,0.002,-0.0,0.001,4.307,0.549,-8.583,8,34.73118091491019,126.41670216096412,132.141,110.896,260821.78207708325,2019.0,7.0,17.0,26.0,43.0,55.0,2.0,781672104.126,3,33,8,126.41670216096412,34.73118091491019,26.261,7.306,0.566,0.836,-13.092,34.292,-0.016,36.706,5.077,0.22,0.005,2.98,1.936,1.03,3080,1352.78,92.75,6,33.0,130.821,0.952,131.178,131.317,130.208,130.014,1.861,93.75,19.585,31.017,30.772,-0.38,0.3,0.0,0.157,0.0,1767276.719,39.37,27.843,14.587,20.784,93.0,100.0,919.7,54.129,-23.687,0.351,-0.377,9.704,-0.008,-0.005,0.0,59.0,1,1.97,0.515,27.673,0.0,0.0,7.756,6.0,3080.642
55.06175717728134,-24.044205644528628,3561.27,9.200248535690918e-05,126.41671236151514,34.731177705979874,260821809,0.003,-0.001,0.002,4.242,0.523,-8.456,8,34.7311777052535,126.41671235903084,132.186,110.893,260821.8091996011,2019.0,7.0,17.0,26.0,43.0,55.0,2.0,808794732.543,3,33,8,126.41671235903084,34.7311777052535,26.265,7.31,0.566,0.837,-13.095,34.304,-0.017,36.718,5.077,0.22,0.005,2.98,1.935,1.03,3078,1347.89,92.75,6,33.0,131.0,0.952,131.099,131.401,130.242,130.015,1.861,93.75,17.478,25.024,24.827,-0.38,0.291,0.0,0.146,0.0,1767304.292,39.369,27.555,14.587,20.063,93.0,100.0,919.7,55.062,-24.044,0.347,-0.376,9.559,-0.01,-0.006,-0.0,60.0,1,1.971,0.512,26.714,0.0,0.0,7.903,6.0,3078.976
55.995111274184154,-24.40321412805412,3562.27,-1.3717781198739135e-07,126.4167225636943,34.73117448093319,260821836,0.001,0.004,0.003,4.31,0.618,-8.48,8,34.73117447806565,126.41672255585976,132.244,110.88,260821.83631882697,2019.0,7.0,17.0,26.0,43.0,55.0,2.0,835914068.799,3,33,8,126.41672255585976,34.73117447806565,26.266,7.311,0.566,0.839,-13.093,34.322,-0.017,36.734,5.077,0.22,0.005,2.98,1.935,1.03,3073,1330.682,92.75,6,33.0,131.0,0.952,131.116,131.384,130.31,130.15,1.861,93.75,12.258,17.55,17.412,-0.38,0.264,0.0,0.135,0.0,1767331.682,39.366,26.704,14.588,17.936,93.0,100.0,919.7,55.994,-24.404,0.3,-0.292,9.63,-0.008,-0.001,-0.001,61.0,1,1.971,0.419,25.777,0.0,0.0,8.064,6.0,3073.01
56.92832926814275,-24.76259298185821,3563.27,-5.1948451626067684e-05,126.41673276438573,34.7311712525594,260821863,-0.001,0.008,0.003,4.377,0.713,-8.505,8,34.731171249673466,126.41673275649393,132.302,110.867,260821.86344817316,2019.0,7.0,17.0,26.0,43.0,55.0,2.0,863043525.39,3,33,8,126.41673275649393,34.731171249673466,26.266,7.311,0.567,0.84,-13.09,34.34,-0.016,36.75,5.077,0.22,0.005,2.98,1.935,1.03,3067,1313.466,92.75,6,33.0,131.0,0.952,131.133,131.367,130.377,130.286,1.861,93.75,7.036,10.073,9.994,-0.38,0.237,0.0,0.125,0.0,1767359.083,39.364,25.853,14.59,15.808,93.0,100.0,919.7,56.928,-24.763,0.252,-0.209,9.7,-0.006,0.004,-0.002,62.0,1,1.972,0.329,24.845,0.0,0.0,8.22,6.0,3067.041
57.86140869679383,-25.122348906649545,3564.27,-6.270171817796363e-05,126.41674296356258,34.7311680207983,260821890,-0.004,0.013,0.003,4.445,0.808,-8.53,8,34.73116802005516,126.41674296100216,132.359,110.854,260821.8905878227,2019.0,7.0,17.0,26.0,43.0,55.0,2.0,890183285.414,3,33,8,126.41674296100216,34.73116802005516,26.267,7.312,0.567,0.842,-13.088,34.358,-0.016,36.766,5.076,0.22,0.005,2.98,1.935,1.03,3061,1296.245,92.75,6,33.0,131.0,0.952,131.15,131.35,130.445,130.422,1.861,93.75,1.812,2.594,2.573,-0.38,0.209,0.0,0.114,0.0,1767386.494,39.361,25.001,14.591,13.679,93.0,100.0,919.7,57.861,-25.122,0.204,-0.125,9.771,-0.004,0.009,-0.002,63.0,1,1.972,0.241,23.919,0.0,0.0,8.371,6.0,3061.071
58.79451682292623,-25.482050561953614,3565.27,-6.835910052948652e-05,126.4167531630531,34.73116478952472,260821917,-0.002,0.013,0.004,4.531,0.782,-8.504,8,34.73116478902229,126.41675316998,132.373,110.853,260821.91773935952,2019.0,7.0,17.0,26.0,43.177,55.0,2.0,739941518.542,3,33,8,126.41675316998,34.73116478902229,26.269,7.314,0.567,0.843,-13.089,34.362,-0.017,36.77,5.076,0.22,0.005,2.98,1.935,0.945,3057,1280.188,92.75,6,32.867,130.823,0.953,131.145,131.194,130.424,130.408,1.861,93.75,-0.0,0.0,0.0,-0.362,0.133,0.0,0.092,0.0,1767413.917,39.36,24.706,14.591,12.941,93.0,100.0,919.7,58.795,-25.482,0.116,-0.155,9.785,-0.006,0.009,-0.002,64.0,1,1.973,0.228,23.0,0.0,0.0,8.515,6.0,3057.936
59.72764018562346,-25.84172340355965,3566.27,-7.131088760192502e-05,126.41676336271016,34.73116155850997,260821944,0.001,0.011,0.006,4.627,0.692,-8.453,8,34.73116155723835,126.41676338133092,132.365,110.859,260821.94489720772,2019.0,7.0,17.0,26.0,43.449,55.0,2.0,495521272.941,3,33,8,126.41676338133092,34.73116155723835,26.273,7.317,0.568,0.844,-13.092,34.358,-0.02,36.768,5.076,0.22,0.005,2.98,1.935,0.814,3056,1264.75,92.75,6,32.663,130.551,0.955,131.128,130.965,130.357,130.314,1.861,93.75,-0.0,0.0,0.0,-0.335,0.029,0.0,0.065,0.0,1767441.346,39.36,24.706,14.591,12.941,93.0,100.0,919.7,59.729,-25.842,0.008,-0.243,9.769,-0.009,0.006,-0.002,65.0,1,1.974,0.255,22.084,0.0,0.0,8.655,6.0,3056.306
60.660929489864365,-26.20092996322736,3567.27,-7.186551019919886e-05,126.4167735641811,34.73115833168393,260821972,0.004,0.008,0.007,4.723,0.602,-8.401,8,34.731158330891155,126.41677357550358,132.356,110.865,260821.9720093691,2019.0,7.0,17.0,26.0,43.72,55.0,2.0,251511983.374,3,33,8,126.41677357550358,34.731158330891155,26.276,7.321,0.568,0.845,-13.095,34.355,-0.022,36.766,5.077,0.219,0.005,2.98,1.935,0.684,3054,1249.338,92.75,6,32.46,130.28,0.957,131.111,130.736,130.289,130.221,1.861,93.75,-0.0,0.0,0.0,-0.308,-0.074,0.0,0.038,0.0,1767468.729,39.36,24.706,14.591,12.941,93.0,100.0,919.7,60.662,-26.201,-0.101,-0.332,9.753,-0.013,0.004,-0.002,66.0,1,1.975,0.355,21.145,0.0,0.0,8.789,6.0,3054.679
61.59425718735317,-26.56002864106118,3568.27,-7.186551019919886e-05,126.41678376607167,34.731155105827014,260821999,0.008,0.006,0.008,4.818,0.512,-8.349,8,34.731155105801825,126.4167837657018,132.347,110.872,260821.99911096005,2019.0,7.0,17.0,26.0,43.991,55.0,2.0,7597775.101,3,33,8,126.4167837657018,34.731155105801825,26.28,7.324,0.569,0.846,-13.098,34.351,-0.024,36.763,5.077,0.219,0.005,2.98,1.935,0.554,3053,1233.931,92.75,6,32.257,130.009,0.959,131.094,130.508,130.221,130.128,1.861,93.75,-0.0,0.0,0.0,-0.281,-0.177,0.0,0.011,0.0,1767496.102,39.36,24.706,14.591,12.941,93.0,100.0,919.7,61.594,-26.56,-0.209,-0.421,9.737,-0.016,0.001,-0.002,67.0,1,1.975,0.47,20.201,0.0,0.0,8.922,6.0,3053.053
62.527911830379125,-26.918262554537,3569.27,-7.186551019919886e-05,126.41679397153598,34.73115188773845,260822026,0.012,0.007,0.011,4.929,0.469,-8.311,8,34.73115189275825,126.41679397006209,132.37,110.871,260822.0261113263,2019.0,7.0,17.0,26.0,44.0,55.0,2.0,25707585.424,3,33,8,126.41679397006209,34.73115189275825,26.274,7.318,0.569,0.847,-13.1,34.357,-0.023,36.77,5.077,0.219,0.005,2.98,1.935,0.55,3054,1219.618,92.75,6,32.25,130.0,0.959,130.971,130.508,130.194,130.084,1.861,93.75,-0.0,0.0,0.0,-0.332,-0.232,0.0,0.031,0.0,1767523.372,39.357,22.044,14.501,10.996,93.0,100.0,919.7,62.528,-26.918,-0.325,-0.467,9.749,-0.022,0.003,-0.003,68.0,1,1.976,0.572,19.231,0.0,0.0,9.046,6.0,3054.044
63.46162187019274,-27.276356957079006,3570.27,-7.186551019919886e-05,126.41680417760583,34.731148670903146,260822053,0.016,0.008,0.014,5.041,0.428,-8.273,8,34.73114867991756,126.41680417555597,132.395,110.87,260822.05310998752,2019.0,7.0,17.0,26.0,44.0,55.0,2.0,52706112.607,3,33,8,126.41680417555597,34.73114867991756,26.268,7.312,0.57,0.848,-13.102,34.363,-0.022,36.776,5.077,0.219,0.005,2.98,1.935,0.55,3055,1205.341,92.75,6,32.25,130.0,0.959,130.845,130.517,130.169,130.042,1.861,93.75,-0.0,0.0,0.0,-0.386,-0.286,0.0,0.052,0.0,1767550.641,39.355,19.291,14.407,8.984,93.0,100.0,919.7,63.462,-27.275,-0.441,-0.511,9.762,-0.027,0.004,-0.003,69.0,1,1.977,0.675,18.25,0.0,0.0,9.166,6.0,3055.124
64.39567244057648,-27.633604557665098,3571.27,-7.186551019919886e-05,126.41681438739789,34.73114546167484,260822080,0.02,0.01,0.018,5.152,0.387,-8.236,8,34.73114546549633,126.41681438607044,132.419,110.87,260822.08012193057,2019.0,7.0,17.0,26.0,44.0,55.0,2.0,79718165.612,3,33,8,126.41681438607044,34.73114546549633,26.262,7.306,0.57,0.849,-13.104,34.369,-0.022,36.783,5.077,0.219,0.005,2.98,1.935,0.55,3056,1191.058,92.75,6,32.25,130.0,0.959,130.718,130.525,130.144,130.0,1.861,93.75,-0.0,0.0,0.0,-0.44,-0.34,0.0,0.074,0.0,1767577.923,39.352,16.537,14.314,6.971,93.0,100.0,919.7,64.396,-27.633,-0.557,-0.555,9.774,-0.032,0.006,-0.004,70.0,1,1.978,0.788,17.189,0.0,0.0,9.257,6.0,3056.205
65.32979296099404,-27.99065582155598,3572.27,-7.108650778302414e-05,126.41682459795456,34.73114225421026,260822107,0.021,0.011,0.019,5.223,0.344,-8.201,8,34.73114225427722,126.41682459484548,132.428,110.87,260822.10716719358,2019.0,7.0,17.0,26.0,44.0,55.0,2.0,106763538.74,3,33,8,126.41682459484548,34.73114225427722,26.255,7.299,0.57,0.85,-13.104,34.372,-0.02,36.786,5.077,0.219,0.005,2.98,1.935,0.533,3055,1179.883,92.75,6,32.25,130.0,0.959,130.645,130.516,130.089,129.953,1.876,93.75,-0.0,0.0,0.0,-0.494,-0.387,0.0,0.099,0.0,1767605.239,39.351,14.51,14.245,5.49,93.0,100.0,919.7,65.33,-27.991,-0.636,-0.598,9.77,-0.033,0.007,-0.004,71.0,1,1.979,0.873,16.104,0.014,0.0,9.338,6.0,3055.782
66.26410839257677,-28.347160006168394,3573.27,-6.813686640756699e-05,126.41683481064172,34.731139051660215,260822134,0.012,0.012,0.015,5.181,0.296,-8.173,8,34.7311390519806,126.41683479877368,132.396,110.871,260822.13430530034,2019.0,7.0,17.0,26.0,44.0,55.0,2.0,133901756.197,3,33,8,126.41683479877368,34.7311390519806,26.244,7.288,0.57,0.851,-13.102,34.363,-0.017,36.777,5.077,0.219,0.005,2.98,1.935,0.468,3051,1177.371,92.75,6,32.25,130.0,0.959,130.721,130.456,129.953,129.894,1.93,93.75,-0.0,0.0,0.0,-0.545,-0.414,0.0,0.135,0.0,1767632.648,39.353,14.51,14.245,5.49,93.0,100.0,919.7,66.263,-28.347,-0.612,-0.637,9.717,-0.024,0.008,-0.005,72.0,1,1.98,0.884,14.948,0.069,0.0,9.395,6.0,3051.168
67.19833955575999,-28.70386611817038,3574.27,-6.022048190572518e-05,126.41684502240778,34.73113584729621,260822161,0.004,0.013,0.011,5.138,0.248,-8.146,8,34.73113584765613,126.41684500916354,132.364,110.872,260822.16146059238,2019.0,7.0,17.0,26.0,44.0,55.0,2.0,161057159.047,3,33,8,126.41684500916354,34.73113584765613,26.233,7.277,0.571,0.852,-13.099,34.355,-0.014,36.768,5.077,0.219,0.005,2.98,1.935,0.402,3046,1174.858,92.75,6,32.25,130.0,0.959,130.798,130.397,129.818,129.834,1.984,93.75,-0.0,0.0,0.0,-0.597,-0.441,0.0,0.17,0.0,1767660.075,39.356,14.51,14.245,5.49,93.0,100.0,919.7,67.197,-28.704,-0.588,-0.676,9.665,-0.014,0.009,-0.005,73.0,1,1.981,0.896,13.813,0.123,0.0,9.474,6.0,3046.552
68.13245514434062,-29.060849174767625,3575.27,-4.549218017072911e-05,126.41685523291054,34.73113264044435,260822188,-0.005,0.014,0.006,5.096,0.201,-8.118,8,34.731132640550435,126.41685522841557,132.331,110.873,260822.1886394542,2019.0,7.0,17.0,26.0,44.0,55.0,2.0,188236131.762,3,33,8,126.41685522841557,34.731132640550435,26.222,7.266,0.571,0.854,-13.097,34.347,-0.011,36.759,5.077,0.219,0.005,2.98,1.935,0.337,3041,1172.343,92.75,6,32.25,130.0,0.959,130.874,130.337,129.682,129.775,2.039,93.75,-0.0,0.0,0.0,-0.648,-0.469,0.0,0.205,0.0,1767687.526,39.359,14.51,14.245,5.49,93.0,100.0,919.7,68.132,-29.061,-0.564,-0.715,9.612,-0.005,0.01,-0.005,74.0,1,1.982,0.911,12.705,0.177,0.0,9.583,6.0,3041.931
69.06621300489027,-29.418786608966382,3576.27,-3.933586843102056e-05,126.4168654395031,34.73112942501912,260822215,-0.012,0.014,0.002,5.129,0.253,-8.15,8,34.73112942139446,126.41686543576193,132.294,110.879,260822.21578665197,2019.0,7.0,17.0,26.0,44.0,55.0,2.0,215383440.115,3,33,8,126.41686543576193,34.73112942139446,26.213,7.257,0.571,0.855,-13.097,34.335,-0.01,36.748,5.077,0.219,0.005,2.98,1.935,0.305,3033,1168.788,92.75,6,32.25,129.842,0.959,130.734,130.184,129.6,129.696,2.093,93.75,-0.0,0.0,0.0,-0.67,-0.48,0.0,0.203,0.0,1767714.944,39.36,14.51,14.118,5.49,93.0,100.0,919.7,69.066,-29.419,-0.577,-0.671,9.665,0.004,0.01,-0.005,75.0,1,1.983,0.889,11.626,0.232,0.0,9.721,6.0,3033.685
69.99971394898554,-29.77740946697402,3577.27,-3.933586843102055e-05,126.41687564328738,34.731126203436595,260822242,-0.018,0.013,-0.002,5.216,0.376,-8.226,8,34.73112619358411,126.41687563455774,132.253,110.89,260822.24291110894,2019.0,7.0,17.0,26.0,44.0,55.0,2.0,242508007.461,3,33,8,126.41687563455774,34.73112619358411,26.205,7.249,0.571,0.856,-13.099,34.322,-0.009,36.737,5.077,0.219,0.005,2.98,1.935,0.297,3022,1164.485,92.75,6,32.25,129.571,0.959,130.437,129.964,129.558,129.602,2.147,93.75,-0.0,0.0,0.0,-0.67,-0.48,0.0,0.173,0.0,1767742.34,39.36,14.51,13.901,5.49,93.0,100.0,919.7,69.999,-29.779,-0.618,-0.569,9.794,0.011,0.01,-0.005,76.0,1,1.984,0.842,10.57,0.286,0.0,9.881,6.0,3022.836
70.93279912126572,-30.137155672930504,3578.27,-3.933586843102056e-05,126.41688584252701,34.7311229717628,260822270,-0.025,0.013,-0.006,5.303,0.5,-8.301,8,34.73112296488462,126.41688583616289,132.212,110.9,260822.27004303748,2019.0,7.0,17.0,26.0,44.0,55.0,2.0,269640046.483,3,33,8,126.41688583616289,34.73112296488462,26.198,7.242,0.572,0.857,-13.102,34.309,-0.009,36.726,5.077,0.219,0.005,2.98,1.936,0.289,3011,1160.18,92.75,6,32.25,129.3,0.959,130.14,129.743,129.516,129.509,2.201,93.75,-0.0,0.0,0.0,-0.67,-0.48,0.0,0.143,0.0,1767769.743,39.36,14.51,13.683,5.49,93.0,100.0,919.7,70.932,-30.138,-0.658,-0.467,9.923,0.019,0.009,-0.004,77.0,1,1.985,0.813,9.603,0.34,0.0,10.017,6.0,3011.983
71.86573718708877,-30.4972993366532,3579.27,-3.9335868431020565e-05,126.41689604015866,34.731119736518565,260822297,-0.031,0.012,-0.01,5.39,0.624,-8.377,8,34.73111973587053,126.41689603876203,132.171,110.91,260822.29717760967,2019.0,7.0,17.0,26.0,44.0,55.0,2.0,296774729.1,3,33,8,126.41689603876203,34.73111973587053,26.191,7.235,0.572,0.858,-13.104,34.296,-0.008,36.714,5.077,0.219,0.005,2.98,1.936,0.281,3001,1155.876,92.75,6,32.25,129.028,0.959,129.843,129.523,129.473,129.416,2.256,93.75,-0.0,0.0,0.0,-0.67,-0.48,0.0,0.113,0.0,1767797.149,39.36,14.51,13.466,5.49,93.0,100.0,919.7,71.866,-30.497,-0.698,-0.365,10.051,0.026,0.009,-0.004,78.0,1,1.985,0.789,8.668,0.394,0.0,10.145,6.0,3001.129
72.79834714400157,-30.858307399831407,3580.27,-2.273030709989164e-05,126.41690623420386,34.73111649350925,260822324,-0.029,0.012,-0.009,5.453,0.562,-8.337,8,34.73111649738921,126.416906222491,132.063,110.938,260822.3243917384,2019.0,7.0,17.0,26.0,44.0,55.0,2.0,323988968.818,3,33,8,126.416906222491,34.73111649738921,26.185,7.229,0.572,0.859,-13.109,34.262,-0.009,36.684,5.078,0.219,0.005,2.98,1.936,0.28,3013,1139.95,92.75,6,32.25,129.244,0.959,129.843,129.637,129.423,129.315,2.31,93.75,-0.0,0.0,0.0,-0.624,-0.551,0.0,0.061,0.0,1767824.636,39.36,14.51,13.358,5.49,93.0,100.0,919.871,72.797,-30.858,-0.772,-0.425,10.035,0.024,0.008,-0.004,79.0,1,1.987,0.882,7.84,0.449,0.0,10.244,6.0,3013.415
73.7309226217546,-31.219410767979788,3581.27,-4.463455963635519e-06,126.41691642787218,34.73111324964379,260822351,-0.026,0.011,-0.007,5.512,0.479,-8.283,8,34.7311132573397,126.41691640550381,131.948,110.967,260822.35161904525,2019.0,7.0,17.0,26.0,44.0,55.0,2.0,351216386.753,3,33,8,126.41691640550381,34.7311132573397,26.179,7.223,0.573,0.861,-13.115,34.225,-0.01,36.652,5.078,0.219,0.005,2.98,1.937,0.28,3028,1122.673,92.75,6,32.25,129.516,0.959,129.877,129.79,129.372,129.213,2.365,93.75,-0.0,0.0,0.0,-0.572,-0.63,0.052,0.007,0.0,1767852.135,39.36,14.51,13.264,5.49,93.0,100.0,920.061,73.729,-31.219,-0.85,-0.503,10.002,0.02,0.007,-0.004,80.0,1,1.989,0.988,7.019,0.503,0.0,10.342,6.0,3028.39
74.66355535144348,-31.580434180404197,3582.27,9.578818300469764e-06,126.4169266221663,34.73111000649659,260822378,-0.023,0.01,-0.006,5.571,0.396,-8.23,8,34.73111000985155,126.41692661189512,131.832,110.996,260822.3789088617,2019.0,7.0,17.0,26.0,44.0,55.0,2.0,378506314.481,3,33,8,126.41692661189512,34.73111000985155,26.173,7.217,0.573,0.862,-13.121,34.188,-0.011,36.62,5.079,0.219,0.005,2.98,1.937,0.28,3043,1105.356,92.75,6,32.25,129.789,0.959,129.911,129.944,129.321,129.11,2.419,93.75,-0.0,0.0,0.0,-0.52,-0.709,0.924,-0.048,0.0,1767879.698,39.36,14.51,13.17,5.49,93.0,100.0,920.252,74.663,-31.58,-0.927,-0.582,9.968,0.017,0.006,-0.004,81.0,1,1.99,1.095,6.101,0.558,0.0,10.471,6.0,3043.4
75.59629585783593,-31.941158971219025,3583.271,2.670230983327685e-05,126.41693681763851,34.73110676603197,260822406,-0.019,0.009,-0.003,5.6,0.335,-8.184,8,34.73110676816132,126.41693681955661,131.73,111.013,260822.4062020742,2019.0,7.0,17.0,26.0,44.0,55.0,2.0,405799638.301,3,33,8,126.41693681955661,34.73110676816132,26.165,7.209,0.573,0.863,-13.121,34.158,-0.011,36.592,5.079,0.219,0.005,2.98,1.938,0.28,3054,1092.546,92.75,6,32.25,129.938,0.959,129.918,130.037,129.262,129.025,2.461,93.75,-0.0,0.0,0.0,-0.492,-0.77,1.4,-0.097,0.0,1767907.326,39.359,14.51,13.097,5.49,93.0,100.0,920.4,75.597,-31.941,-0.974,-0.637,9.931,0.013,0.005,-0.004,82.0,1,1.992,1.164,5.16,0.6,0.0,10.608,6.0,3054.876
76.52940307683131,-32.300867695443365,3584.271,5.430971084974149e-05,126.41694701711913,34.73110353469489,260822433,-0.014,0.008,0.0,5.523,0.354,-8.165,8,34.731103546198675,126.41694703153983,131.677,110.984,260822.43350684215,2019.0,7.0,17.0,26.0,44.0,55.0,2.0,433104517.394,3,33,8,126.41694703153983,34.731103546198675,26.149,7.193,0.573,0.864,-13.099,34.151,-0.008,36.577,5.079,0.219,0.005,2.98,1.937,0.28,3054,1095.073,92.75,6,32.25,129.665,0.959,129.833,129.926,129.177,129.0,2.461,93.75,-0.0,0.0,0.0,-0.544,-0.77,0.527,-0.13,0.0,1767935.177,39.357,14.51,13.097,5.49,93.0,100.0,920.4,76.531,-32.3,-0.916,-0.608,9.882,0.007,0.005,-0.005,83.0,1,1.993,1.1,4.142,0.6,0.0,10.772,6.0,3054.33
