time,.header.seq,.header.stamp.secs,.header.stamp.nsecs,.header.frame_id,.identifier.data,.size.data,.TimeStamp.data,PosLocalX,PosLocalY,Height,GPS_Speed,AccelX,AccelY,AccelZ,PedalPosAcc,PedalPosBrk,AngleSteer,carPositionNormalized,TimeStamp
2020/07/16/13:53:44.665486,1,1594875224,665099382,,,0,1594875264,-533.3947754,-281.8938904,-82.14412689,75.88564301,0.142373055,0.0431076735,-0.18143177,0.575800002,0,9.78509903,0.163905278,1594875224.66510
2020/07/16/13:53:44.676070,2,1594875224,675777435,,,0,1594875264,-533.6167603,-281.7722168,-82.14235687,75.95458984,0.191768125,0.0417873822,-0.190989941,0.575800002,0,9.683699608,0.163956702,1594875224.67578
2020/07/16/13:53:44.766036,3,1594875224,765741825,,,0,1594875264,-534.6196289,-281.2260132,-82.13418579,76.26422882,0.146639869,-0.0337453149,-0.161904842,0.576799989,0,9.075299263,0.164191365,1594875224.76574
2020/07/16/13:53:44.866121,4,1594875224,865816831,,,0,1594875264,-536.0796509,-280.4406433,-82.12225342,76.72058105,0.160765752,0.023286147,-0.168756276,0.578750014,0,8.416199684,0.164532274,1594875224.86582
2020/07/16/13:53:44.966084,5,1594875224,965775966,,,0,1594875264,-537.7805786,-279.5392456,-82.10721588,77.23648834,0.182914108,0.0124717569,-0.155195117,0.581650019,0,8.618999481,0.164928421,1594875224.96578
2020/07/16/13:53:45.066082,6,1594875225,65788507,,,0,1594875264,-539.9022217,-278.4342651,-82.08852386,77.87989807,0.178698793,-0.0167467501,-0.172076955,0.581650019,0,8.87250042,0.165417567,1594875225.06579
2020/07/16/13:53:45.166065,7,1594875225,165778636,,,0,1594875264,-542.4588623,-277.1302185,-82.06642151,78.62768555,0.163001999,-0.0385311209,-0.167080209,0.581650019,0,8.87250042,0.166006312,1594875225.16578
2020/07/16/13:53:45.266026,8,1594875225,265741825,,,0,1594875264,-543.2800293,-276.7176209,-82.05963898,78.86804962,0.136687249,0.024669908,-0.172989517,0.582899988,0,8.87250042,0.166195646,1594875225.26574
2020/07/16/13:53:45.366039,9,1594875225,365757226,,,0,1594875264,-545.8846436,-275.4287415,-82.03826141,79.60012817,0.145048752,0.0353192948,-0.171307385,0.581650019,0,8.87250042,0.166791961,1594875225.36576
2020/07/16/13:53:45.466025,10,1594875225,465749740,,,0,1594875264,-548.5251465,-274.1527405,-82.01641846,80.30794525,0.116340011,0.0225032903,-0.165425614,0.549399972,0,8.771100044,0.167393818,1594875225.46575
2020/07/16/13:53:45.566046,11,1594875225,565733671,,,0,1594875264,-549.6152344,-273.6347351,-82.00733185,80.57019043,0.149207011,-0.0110208262,-0.15818499,0.514199972,0,8.618999481,0.167643681,1594875225.56573
2020/07/16/13:53:45.666078,12,1594875225,665758371,,,0,1594875264,-551.8712769,-272.5787964,-81.98822021,80.95898438,0.111170396,-0.0313133113,-0.147958487,0.303200006,0,7.807799816,0.168157086,1594875225.66576
2020/07/16/13:53:45.766058,13,1594875225,765751123,,,0,1594875264,-554.3270264,-271.4522705,-81.96840668,81.06192017,-0.0407353118,-0.047442995,-0.169080958,0,0,5.830500126,0.16871272,1594875225.76575
2020/07/16/13:53:45.866037,14,1594875225,865726709,,,0,1594875264,-555.6782837,-270.8413086,-81.95909882,80.7583313,-0.0877604187,-0.00533199124,-0.125940114,0,0,3.80250001,0.169018567,1594875225.86573
2020/07/16/13:53:45.966088,15,1594875225,965775728,,,0,1594875264,-558.7352295,-269.4766541,-81.9388504,79.99155426,-0.127463862,0.017496042,-0.0365882479,0,0,-2.940599918,0.169710219,1594875225.96578
2020/07/16/13:53:46.066104,16,1594875226,65783262,,,0,1594875264,-559.404541,-269.1797485,-81.9341507,79.82610321,-0.101270691,-0.000465779565,-0.0348849148,0,0,-4.25880003,0.169860214,1594875226.06578
2020/07/16/13:53:46.166147,17,1594875226,165792703,,,0,1594875264,-562.067627,-267.9971924,-81.91500092,79.16231537,-0.162096649,0.0156378355,0.091298528,0,0,-7.402199745,0.170460016,1594875226.16579
2020/07/16/13:53:46.266090,18,1594875226,265783309,,,0,1594875264,-564.2271729,-267.0299072,-81.89838409,78.63698578,-0.114367262,0.00303631648,0.0854645893,0,0,-7.402199745,0.170948476,1594875226.26578
2020/07/16/13:53:46.366139,19,1594875226,365784406,,,0,1594875264,-565.9533081,-266.2474365,-81.88471222,78.3097229,-0.0638362616,0.0375613496,0.112735957,0.14745,0,-7.097999573,0.171337068,1594875226.36578
2020/07/16/13:53:46.466133,20,1594875226,465790033,,,0,1594875264,-568.1453247,-265.2384644,-81.86619568,78.27742004,0.0211500749,0.0259083491,0.133372575,0.405499995,0,-7.605000019,0.171832293,1594875226.46579
2020/07/16/13:53:46.566108,21,1594875226,565788984,,,0,1594875264,-570.5093994,-264.1278381,-81.84442139,78.45330048,0.0553861782,0.0397697091,0.188118383,0.388449997,0,-12.26939964,0.172367081,1594875226.56579
2020/07/16/13:53:46.666091,22,1594875226,665771722,,,0,1594875264,-572.4553833,-263.190979,-81.82417297,78.62732697,0.0654926747,-0.000748337654,0.252244174,0.298600018,0,-17.13659859,0.172808439,1594875226.66577
2020/07/16/13:53:46.766091,23,1594875226,765777111,,,0,1594875264,-573.7494507,-262.5539246,-81.81025696,78.72022247,0.0448087305,-0.0205166563,0.278023243,0.238299996,0,-19.87440109,0.17310454,1594875226.76578
2020/07/16/13:53:46.866001,24,1594875226,865764379,,,0,1594875264,-576.5565796,-261.1228638,-81.78249359,78.78816223,-0.0332139283,-0.0199651644,0.363302112,0.0522499979,0,-26.66819954,0.173746213,1594875226.86576
2020/07/16/13:53:46.966091,25,1594875226,965778827,,,0,1594875264,-577.4262695,-260.6629639,-81.77472687,78.63101959,-0.13740477,-0.0651976019,0.393902004,0,0,-28.59479904,0.173947692,1594875226.96578
2020/07/16/13:53:47.066087,26,1594875227,65788269,,,0,1594875264,-580.2786865,-259.0862427,-81.75746918,77.84494781,-0.155494437,-0.0893337876,0.481422991,0,0,-31.63679886,0.174609974,1594875227.06579
2020/07/16/13:53:47.166030,27,1594875227,165753602,,,0,1594875264,-581.1184082,-258.5984497,-81.75457001,77.58740234,-0.153594404,-0.00613869261,0.5553298,0,0,-31.02839851,0.174808919,1594875227.16575
2020/07/16/13:53:47.266083,28,1594875227,265786170,,,0,1594875264,-583.1546021,-257.3625183,-81.74739075,77.01828766,-0.0467384905,-0.0310924314,0.563701749,0.117700011,0,-30.01440048,0.175295115,1594875227.26579
2020/07/16/13:53:47.366086,29,1594875227,365797519,,,0,1594875264,-585.8359985,-255.6075439,-81.74240875,76.88851929,0.0394440889,-0.0209281817,0.599810958,0.408950001,0,-27.37799835,0.175947845,1594875227.36580
2020/07/16/13:53:47.466073,30,1594875227,465778350,,,0,1594875264,-587.411438,-254.5034027,-81.74199677,77.03279877,0.0885777324,0.0234412327,0.558773875,0.474599987,0,-24.03179932,0.176339865,1594875227.46578
2020/07/16/13:53:47.566084,31,1594875227,565788984,,,0,1594875264,-588.6044922,-253.6308899,-81.74137878,77.18614197,0.0534341782,-0.0190612264,0.535293579,0.50910002,0,-20.9897995,0.176641718,1594875227.56579
2020/07/16/13:53:47.666085,32,1594875227,665792942,,,0,1594875264,-590.9077148,-251.8624573,-81.73701477,77.69887543,0.124426313,0.0402734689,0.406746536,0.551599979,0,-16.52820015,0.177230284,1594875227.66579
2020/07/16/13:53:47.766075,33,1594875227,765784740,,,0,1594875264,-592.4765015,-250.6007843,-81.72967529,78.12812042,0.138707057,0.0279814601,0.375757009,0.551599979,0,-17.74500084,0.177639708,1594875227.76578
2020/07/16/13:53:47.866072,34,1594875227,865780591,,,0,1594875264,-593.8334351,-249.4755249,-81.72081757,78.52559662,0.142440081,0.0336072035,0.360648096,0.552600026,0,-19.36739922,0.177998692,1594875227.86578
2020/07/16/13:53:47.966081,35,1594875227,965788602,,,0,1594875264,-595.9284058,-247.6783447,-81.70545197,79.16017151,0.145936161,-0.0236544181,0.384365827,0.549399972,0,-23.01779938,0.17855753,1594875227.96579
2020/07/16/13:53:48.066101,36,1594875228,65793275,,,0,1594875264,-597.0665894,-246.6698608,-81.69793701,79.48288727,0.103547543,-0.0183983929,0.376616895,0.547450006,0,-23.93039894,0.178869471,1594875228.06579
2020/07/16/13:53:48.166095,37,1594875228,165785551,,,0,1594875264,-599.3208008,-244.6006317,-81.68655396,80.12996674,0.145017654,-0.0596380718,0.40209347,0.546499968,0,-24.64019966,0.179486692,1594875228.16579
2020/07/16/13:53:48.266129,38,1594875228,265772581,,,0,1594875264,-600.2421875,-243.7249603,-81.68345642,80.38783264,0.0991740525,-0.0286800191,0.431500494,0.536450028,0,-24.8429985,0.179746509,1594875228.26577
2020/07/16/13:53:48.366105,39,1594875228,365763664,,,0,1594875264,-601.7311401,-242.2693329,-81.67928314,80.75759125,0.0740890056,-0.0129870474,0.439888358,0.490249991,0,-24.64019966,0.18016912,1594875228.36576
2020/07/16/13:53:48.466135,40,1594875228,465779781,,,0,1594875264,-603.527832,-240.4400787,-81.67191315,81.1477356,0.110955894,-0.0195698012,0.463836372,0.482199997,0,-24.53879929,0.180691615,1594875228.46578
2020/07/16/13:53:48.566139,41,1594875228,565783500,,,0,1594875264,-604.96875,-238.9112549,-81.66416931,81.46313477,0.0661199391,-0.0688741133,0.445757568,0.494150013,0,-24.53879929,0.181116745,1594875228.56578
2020/07/16/13:53:48.666115,42,1594875228,665775299,,,0,1594875264,-606.7033691,-236.9925232,-81.65588379,81.86513519,0.11441943,-0.107509486,0.421594143,0.505200028,0,-24.33600044,0.181643322,1594875228.66578
2020/07/16/13:53:48.766111,43,1594875228,765778779,,,0,1594875264,-608.0916138,-235.3907166,-81.65094757,82.19869995,0.106516898,-0.0270274803,0.437228918,0.512250006,0,-24.23459816,0.182074904,1594875228.76578
2020/07/16/13:53:48.865994,44,1594875228,865761280,,,0,1594875264,-609.7591553,-233.3827209,-81.64519501,82.61373901,0.0920034051,-0.0137704853,0.476974308,0.51910001,0,-24.23459816,0.182608157,1594875228.86576
2020/07/16/13:53:48.966101,45,1594875228,965783596,,,0,1594875264,-610.4066772,-232.5766449,-81.64259338,82.7824707,0.104526654,0.0134325027,0.473864913,0.524249971,0,-24.23459816,0.182816058,1594875228.96578
2020/07/16/13:53:49.066078,46,1594875229,65793275,,,0,1594875264,-612.6869507,-229.6121826,-81.63289642,83.40073395,0.125236481,-0.0201403163,0.486955643,0.538399994,0,-23.82899857,0.183578163,1594875229.06579
2020/07/16/13:53:49.166016,47,1594875229,165749073,,,0,1594875264,-614.4031372,-227.2396545,-81.62146759,83.90665436,0.134655967,-0.0290788524,0.482803941,0.54549998,0,-24.43740082,0.184177846,1594875229.16575
2020/07/16/13:53:49.266008,48,1594875229,265734672,,,0,1594875264,-615.3612671,-225.8579102,-81.61426544,84.19895935,0.0697020441,0.00140549871,0.463246226,0.548449993,0,-24.33600044,0.184520751,1594875229.26573
2020/07/16/13:53:49.366020,49,1594875229,365743398,,,0,1594875264,-616.5349731,-224.1049042,-81.60496521,84.54607391,0.0934333652,-0.00931302737,0.52165699,0.548449993,0,-23.7276001,0.184951141,1594875229.36574
2020/07/16/13:53:49.466149,50,1594875229,465785264,,,0,1594875264,-618.1690674,-221.5424347,-81.58875275,85.0572052,0.0894614905,0.00588208297,0.488736153,0.552600026,0,-23.82899857,0.185570136,1594875229.46579
2020/07/16/13:53:49.566121,51,1594875229,565775156,,,0,1594875264,-618.5777588,-220.877594,-81.58448791,85.18464661,0.139824703,-0.0229024254,0.474282205,0.553550005,0,-23.7276001,0.185730413,1594875229.56578
2020/07/16/13:53:49.666129,52,1594875229,665785789,,,0,1594875264,-620.2459717,-218.0577393,-81.56809998,85.7219162,0.161982313,-0.00626845844,0.466597319,0.556500018,0,-22.916399,0.18639788,1594875229.66579
2020/07/16/13:53:49.766095,53,1594875229,765781402,,,0,1594875264,-621.5730591,-215.681366,-81.55317688,86.15776062,0.128578171,-0.0417812318,0.466268599,0.558449984,0,-22.40939903,0.186956897,1594875229.76578
2020/07/16/13:53:49.866129,54,1594875229,865782976,,,0,1594875264,-622.2531128,-214.414032,-81.54550934,86.40433502,0.128414333,-0.0231499318,0.466993809,0.563600004,0,-22.20660019,0.187251315,1594875229.86578
2020/07/16/13:53:49.966125,55,1594875229,965784549,,,0,1594875264,-623.6404419,-211.7164307,-81.53116608,86.90679932,0.086202994,-0.0403565019,0.49096173,0.58069998,0,-21.49679947,0.187871933,1594875229.96578
2020/07/16/13:53:50.066122,56,1594875230,65797090,,,0,1594875264,-624.8463745,-209.2337189,-81.51742554,87.38778687,0.136243835,0.0287939198,0.461748123,0.60194999,0,-20.27999878,0.18843843,1594875230.06580
2020/07/16/13:53:50.166111,57,1594875230,165769100,,,0,1594875264,-625.1866455,-208.5076447,-81.51290894,87.53085327,0.141299114,0.0292092469,0.424764037,0.607550025,0,-19.87440109,0.188601837,1594875230.16577
2020/07/16/13:53:50.266083,58,1594875230,265793561,,,0,1594875264,-626.5689087,-205.4360046,-81.49214172,88.17216492,0.145109802,-0.0214675367,0.396448582,0.628600001,0,-18.15059853,0.189294711,1594875230.26579
2020/07/16/13:53:50.366123,59,1594875230,365782260,,,0,1594875264,-627.663147,-202.8569183,-81.47432709,88.73657227,0.167651802,-0.0487286523,0.363505304,0.646399975,0,-16.42679977,0.189868286,1594875230.36578
2020/07/16/13:53:50.466065,60,1594875230,465774297,,,0,1594875264,-628.4992676,-200.7951202,-81.46196747,89.21235657,0.152712286,-0.0123601547,0.326466411,0.657400012,0,-14.70299912,0.190324292,1594875230.46577
2020/07/16/13:53:50.566128,61,1594875230,565784692,,,0,1594875264,-629.6322632,-197.8721313,-81.44779205,89.8862381,0.162232503,-0.0586211085,0.315529048,0.675499976,0,-10.24139977,0.190967858,1594875230.56578
2020/07/16/13:53:50.666111,62,1594875230,665767192,,,0,1594875264,-629.9225464,-197.0998077,-81.44481659,90.08216095,0.195153758,-0.0247670952,0.28426671,0.680649996,0,-9.227399826,0.191138476,1594875230.66577
2020/07/16/13:53:50.766131,63,1594875230,765789985,,,0,1594875264,-631.0878906,-193.9124756,-81.4356308,90.86986542,0.192593649,-0.0448819734,0.187341094,0.702399969,0,-3.346199989,0.191835999,1594875230.76579
2020/07/16/13:53:50.866065,64,1594875230,865779399,,,0,1594875264,-632.0519409,-191.1905823,-81.42991638,91.38973999,0.121606067,-0.0129355984,0.103875965,0.735100031,0,0.659099996,0.192428276,1594875230.86578
2020/07/16/13:53:50.966111,65,1594875230,965786457,,,0,1594875264,-632.7804565,-189.1026154,-81.42602539,91.58748627,0.0564368069,0.0339367352,0.0547758862,0.750249982,0,1.825199962,0.192885548,1594875230.96579
2020/07/16/13:53:51.066157,66,1594875231,65819025,,,0,1594875264,-633.9315186,-185.7829285,-81.42037964,91.67680359,-0.00215767417,-0.0446324199,-0.0157495458,0.767849982,0,1.977299929,0.193611637,1594875231.06582
2020/07/16/13:53:51.166031,67,1594875231,165733814,,,0,1594875264,-634.381958,-184.4835205,-81.41807556,91.67982483,-0.0238126032,0.0276619662,-0.0163334683,0.766900003,0,2.33220005,0.193898991,1594875231.16573
2020/07/16/13:53:51.266046,68,1594875231,265751123,,,0,1594875264,-635.3102417,-181.8135681,-81.41230011,91.67178345,0.0406359583,-0.0386111997,-0.0745618567,0.624650002,0,4.562999725,0.194481865,1594875231.26575
2020/07/16/13:53:51.366050,69,1594875231,365763425,,,0,1594875264,-636.2455444,-179.1471863,-81.40700531,91.55721283,-0.0497647971,-0.0235099997,-0.0644992515,0,0,5.019299984,0.195067495,1594875231.36576
2020/07/16/13:53:51.466023,70,1594875231,465754508,,,0,1594875264,-637.3146973,-176.136795,-81.40185547,91.15273285,-0.0528552458,-0.0179862436,-0.0723222494,0,0,3.092700005,0.195731029,1594875231.46575
2020/07/16/13:53:51.566053,71,1594875231,565755844,,,0,1594875264,-637.6987915,-175.0645142,-81.40042114,91.09646606,-0.0542672649,-0.00420917477,-0.0803125054,0,0,2.534999847,0.195967957,1594875231.56576
2020/07/16/13:53:51.666056,72,1594875231,665759801,,,0,1594875264,-638.8589478,-171.8551178,-81.39543915,90.92314911,-0.0213186312,0.026947083,-0.0796235576,0.458499998,0,1.166100025,0.196672499,1594875231.66576
2020/07/16/13:53:51.766086,73,1594875231,765763759,,,0,1594875264,-639.8236084,-169.2144623,-81.39022827,91.74597931,0.245566905,-0.00768059865,-0.0555965453,1,0,1.622399926,0.197257549,1594875231.76576
2020/07/16/13:53:51.866087,74,1594875231,865742444,,,0,1594875264,-640.1405029,-168.3515778,-81.38851166,92.02903748,0.259898335,0.0279088933,-0.0700226873,1,0,1.774499893,0.197446227,1594875231.86574
2020/07/16/13:53:51.966109,75,1594875231,965760231,,,0,1594875264,-641.3164673,-165.164505,-81.38115692,93.21540833,0.236946061,0.0161491148,-0.00933559984,1,0,1.216799974,0.198159963,1594875231.96576
2020/07/16/13:53:52.066134,76,1594875232,65777778,,,0,1594875264,-642.3497314,-162.3789063,-81.37295532,94.35102844,0.275729299,0.0313503481,-0.0696645826,1,0,0.45629999,0.198779225,1594875232.06578
2020/07/16/13:53:52.166093,77,1594875232,165758609,,,0,1594875264,-643.1765747,-160.1561127,-81.36501312,95.29227448,0.330845267,-0.0205936935,-0.00100532174,1,0,0.506999969,0.199274823,1594875232.16576
2020/07/16/13:53:52.266069,78,1594875232,265756130,,,0,1594875264,-644.4348755,-156.7803802,-81.35443115,96.75164032,0.252081782,0.0461900383,0.024073042,1,0,0.861899972,0.200020865,1594875232.26576
2020/07/16/13:53:52.366012,79,1594875232,365732908,,,0,1594875264,-645.1716309,-154.807251,-81.34819031,97.57789612,0.300021559,-0.000738987757,-0.0452219099,1,0,1.419599891,0.200465634,1594875232.36573
2020/07/16/13:53:52.466057,80,1594875232,465760469,,,0,1594875264,-645.9160156,-152.8177185,-81.34172058,98.40159607,0.280194759,0.0263601467,-0.005439125,1,0,1.825199962,0.200904563,1594875232.46576
2020/07/16/13:53:52.566054,81,1594875232,565759658,,,0,1594875264,-647.2225952,-149.3372498,-81.3299408,99.74023438,0.255332321,-0.0591119044,-0.0427042991,0.808200002,0,1.368899941,0.201677844,1594875232.56576
2020/07/16/13:53:52.666038,82,1594875232,665745258,,,0,1594875264,-647.6628418,-148.1681061,-81.32655334,100.0671158,0.186791494,0.0103260456,0.00881705433,0.658399999,0,0.912599981,0.201935917,1594875232.66575
2020/07/16/13:53:52.766036,83,1594875232,765761852,,,0,1594875264,-649.0217896,-144.5680542,-81.31523132,100.5976486,0.0970322862,-0.00960580911,-0.0152610503,0.479000002,0,0.253499985,0.202730477,1594875232.76576
2020/07/16/13:53:52.866019,84,1594875232,865760803,,,0,1594875264,-650.0327759,-141.8972931,-81.3054657,100.9725342,0.108223341,-0.041268155,-0.0131120197,0.59434998,0,0.152099997,0.203318208,1594875232.86576
2020/07/16/13:53:52.966166,85,1594875232,965782642,,,0,1594875264,-650.8397827,-139.7683716,-81.29823303,101.3612289,0.140587896,0.0360838138,0.0211534034,0.642250001,0,0.152099997,0.203789428,1594875232.96578
2020/07/16/13:53:53.066126,86,1594875233,65780878,,,0,1594875264,-652.1931152,-136.2013702,-81.28438568,102.0871658,0.167989194,-0.0318014957,0.0161757506,0.691599965,0,0.45629999,0.204572216,1594875233.06578
2020/07/16/13:53:53.166019,87,1594875233,165738821,,,0,1594875264,-652.677063,-134.9267578,-81.27952576,102.3703232,0.166932866,0.00297768926,-0.0343097039,0.704349995,0,0.45629999,0.204856038,1594875233.16574
2020/07/16/13:53:53.266094,88,1594875233,265756130,,,0,1594875264,-653.8326416,-131.8854675,-81.26850891,103.055069,0.151115894,-0.0193716008,-0.0285555571,0.708500028,0,0.506999969,0.205519855,1594875233.26576
2020/07/16/13:53:53.366099,89,1594875233,365757703,,,0,1594875264,-655.2432251,-128.1774139,-81.256073,103.8865662,0.149709105,-0.00760396523,0.0106039159,0.713349998,0,1.977299929,0.206334263,1594875233.36576
2020/07/16/13:53:53.466078,90,1594875233,465736627,,,0,1594875264,-656.0469971,-126.0690384,-81.24985504,104.3455048,0.172975719,-0.0464388616,-0.0431145802,0.713349998,0,3.650399923,0.206800342,1594875233.46574
2020/07/16/13:53:53.566099,91,1594875233,565757036,,,0,1594875264,-657.2330322,-122.9726486,-81.24240875,105.0187225,0.169572547,0.00335665536,-0.0812941194,0.713349998,0,4.360199451,0.207481906,1594875233.56576
2020/07/16/13:53:53.666141,92,1594875233,665790319,,,0,1594875264,-658.2124634,-120.4344788,-81.23633575,105.5579681,0.173590839,0.0349848568,-0.0887091234,0.715349972,0,3.85319972,0.20803906,1594875233.66579
2020/07/16/13:53:53.766102,93,1594875233,765768527,,,0,1594875264,-659.4295044,-117.3092804,-81.22727203,106.2179565,0.20126915,0.0201275218,-0.129479989,0.718500018,0,3.244799852,0.208726391,1594875233.76577
2020/07/16/13:53:53.866090,94,1594875233,865757942,,,0,1594875264,-660.1428833,-115.4931793,-81.22182465,106.5936813,0.173972145,0.023971919,-0.0899163932,0.718500018,0,2.737799883,0.209130839,1594875233.86576
2020/07/16/13:53:53.966146,95,1594875233,965826749,,,0,1594875264,-661.5221558,-112.0123138,-81.21110535,107.3141022,0.196619034,-0.0369734541,-0.0877836347,0.719500005,0,1.825199962,0.209895059,1594875233.96583
2020/07/16/13:53:54.066093,96,1594875234,65798044,,,0,1594875264,-662.2866821,-110.0982819,-81.20522308,107.6962738,0.160419226,-0.0444686972,-0.0841196477,0.719500005,0,0.861899972,0.210317582,1594875234.06580
2020/07/16/13:53:54.166069,97,1594875234,165773153,,,0,1594875264,-663.8318481,-106.2528229,-81.19300842,108.4713516,0.198512807,-0.0327917077,-0.033797577,0.719500005,0,-1.419599891,0.211166844,1594875234.16577
2020/07/16/13:53:54.266111,98,1594875234,265793561,,,0,1594875264,-664.3394165,-104.9934311,-81.1891098,108.7266159,0.165406555,-0.00373613462,-0.0208641812,0.719500005,0,-1.825199962,0.211444616,1594875234.26579
2020/07/16/13:53:54.365979,99,1594875234,365731477,,,0,1594875264,-666.1425781,-100.5207062,-81.17526245,109.5974197,0.139961824,-0.00502347341,-0.00250107795,0.720449984,0,0.152099997,0.212433636,1594875234.36573
2020/07/16/13:53:54.466135,100,1594875234,465801000,,,0,1594875264,-666.8264771,-98.82344055,-81.16984558,109.9311752,0.182015553,0.0168104861,0.0343882404,0.720449984,0,0.45629999,0.212808549,1594875234.46580
2020/07/16/13:53:54.565977,101,1594875234,565725803,,,0,1594875264,-668.2333374,-95.32772064,-81.15869141,110.5981598,0.177704185,0.000952194445,0.019755017,0.720449984,0,-0.101399995,0.213582769,1594875234.56573
2020/07/16/13:53:54.666089,102,1594875234,665781259,,,0,1594875264,-669.4052734,-92.41228485,-81.14968109,111.1491318,0.135470331,0.0110973623,0.0168358646,0.721449971,0,-0.202799991,0.214226514,1594875234.66578
2020/07/16/13:53:54.766111,103,1594875234,765788078,,,0,1594875264,-669.9238281,-91.12133789,-81.14586639,111.392395,0.150398389,-0.0148934927,0.0210018568,0.721449971,0,-0.405599982,0.214513898,1594875234.76579
2020/07/16/13:53:54.866132,104,1594875234,865828514,,,0,1594875264,-671.9025269,-86.18946838,-81.13076019,112.3064499,0.149647325,-0.0245154519,-0.0129176788,0.721449971,0,-1.723799944,0.215609029,1594875234.86583
2020/07/16/13:53:54.966061,105,1594875234,965767383,,,0,1594875264,-672.425293,-84.88461304,-81.12657166,112.5446091,0.184344754,0.0355566852,0.015650101,0.721449971,0,-2.027999878,0.215895817,1594875234.96577
2020/07/16/13:53:55.066062,106,1594875235,65784692,,,0,1594875264,-674.3096924,-80.16212463,-81.10940552,113.3992386,0.164243191,0.0200808793,0.0450504161,0.721449971,0,-2.129400015,0.216939867,1594875235.06578
2020/07/16/13:53:55.166011,107,1594875235,165745496,,,0,1594875264,-675.3574829,-77.52127838,-81.09975433,113.8590775,0.112770684,0.0145254275,0.110055253,0.721449971,0,-2.230799913,0.217524499,1594875235.16575
2020/07/16/13:53:55.266030,108,1594875235,265737056,,,0,1594875264,-676.4052124,-74.86793518,-81.08992004,114.3245697,0.142920151,-0.00427601486,0.0795215815,0.721449971,0,-2.129400015,0.218108922,1594875235.26574
2020/07/16/13:53:55.366082,109,1594875235,365778446,,,0,1594875264,-677.5922241,-71.84552765,-81.07905579,114.8449707,0.147099376,0.00196349854,0.0887653306,0.72240001,0,-2.33220005,0.218777835,1594875235.36578
2020/07/16/13:53:55.466099,110,1594875235,465779781,,,0,1594875264,-678.6381226,-69.16499329,-81.07000732,115.3115082,0.157303095,0.0250752158,0.091136843,0.723399997,0,-2.33220005,0.219367534,1594875235.46578
2020/07/16/13:53:55.566099,111,1594875235,565773725,,,0,1594875264,-679.8217163,-66.1115036,-81.05947876,115.8217697,0.16066952,0.00012534413,0.080587104,0.724599957,0,-2.433599949,0.220041633,1594875235.56577
2020/07/16/13:53:55.666103,112,1594875235,665763616,,,0,1594875264,-681.3848267,-62.04465866,-81.04515076,116.5074005,0.18552424,0.00910214987,0.0564477816,0.724599957,0,-2.33220005,0.220936641,1594875235.66576
2020/07/16/13:53:55.766110,113,1594875235,765772819,,,0,1594875264,-681.9048462,-60.68258667,-81.04083252,116.7296524,0.106538549,-0.0571317002,0.0919536129,0.725600004,0,-2.230799913,0.22123757,1594875235.76577
2020/07/16/13:53:55.866128,114,1594875235,865790605,,,0,1594875264,-683.5658569,-56.30242157,-81.03009033,117.4577713,0.158322588,-0.00542710349,0.0488701835,0.726549983,0,-1.825199962,0.222198814,1594875235.86579
2020/07/16/13:53:55.966113,115,1594875235,965775966,,,0,1594875264,-684.6019287,-53.54838562,-81.02342224,117.9018631,0.178909793,0.00812296476,0.0548190176,0.726549983,0,-1.723799944,0.222805321,1594875235.96578
2020/07/16/13:53:56.066115,116,1594875236,65796136,,,0,1594875264,-685.1192017,-52.16666031,-81.01972961,118.1217041,0.125641823,0.017558977,0.0756211206,0.726549983,0,-1.825199962,0.223107874,1594875236.06580
2020/07/16/13:53:56.166131,117,1594875236,165791273,,,0,1594875264,-686.6691895,-48.00292969,-81.00857544,118.788887,0.14560315,-0.0102372281,0.0809633583,0.728500009,0,-1.825199962,0.224020854,1594875236.16579
2020/07/16/13:53:56.266069,118,1594875236,265780448,,,0,1594875264,-687.7015381,-45.21183777,-81.00125885,119.2318573,0.102687746,-0.0134105291,0.0901816934,0.731449962,0,-1.825199962,0.224633589,1594875236.26578
2020/07/16/13:53:56.366131,119,1594875236,365791320,,,0,1594875264,-689.3509521,-40.72087479,-80.98927307,119.9383316,0.137968853,-0.0156868678,0.0541506,0.736599982,0,-1.825199962,0.225619987,1594875236.36579
2020/07/16/13:53:56.466116,120,1594875236,465776681,,,0,1594875264,-690.3803711,-37.89829636,-80.98181152,120.3802261,0.104253851,-0.00124502939,0.0757980496,0.736599982,0,-1.92659986,0.226237059,1594875236.46578
2020/07/16/13:53:56.566121,121,1594875236,565779209,,,0,1594875264,-690.8948975,-36.48250961,-80.97815704,120.6011887,0.149934784,-0.0115812458,0.074274689,0.736599982,0,-1.92659986,0.226546928,1594875236.56578
2020/07/16/13:53:56.666122,122,1594875236,665782928,,,0,1594875264,-692.4370117,-32.21735001,-80.9675827,121.2487564,0.111802556,-0.0105265193,0.0530112348,0.736599982,0,-1.115399957,0.227481499,1594875236.66578
2020/07/16/13:53:56.766102,123,1594875236,765763044,,,0,1594875264,-693.4642334,-29.35941315,-80.96035004,121.6755753,0.159420639,-0.00683719618,0.0785757452,0.728049994,0,-1.013999939,0.228103206,1594875236.76576
2020/07/16/13:53:56.866233,124,1594875236,865847110,,,0,1594875264,-694.4572144,-26.58618546,-80.95332336,122.0609436,0.124079145,-0.0161180999,0.0586575232,0.661549985,0,-1.013999939,0.228712454,1594875236.86585
2020/07/16/13:53:56.966130,125,1594875236,965783596,,,0,1594875264,-695.4834595,-23.70854568,-80.94619751,122.2827835,-0.0327538922,-0.015614341,0.0299834758,0.348650008,0,-0.912599981,0.229339525,1594875236.96578
2020/07/16/13:53:57.066148,126,1594875237,65804481,,,0,1594875264,-696.6431274,-20.44385147,-80.93759918,122.1932068,-0.142103106,-0.0193535928,0.059703894,0,0,-0.608399987,0.230048791,1594875237.06580
2020/07/16/13:53:57.166125,127,1594875237,165790319,,,0,1594875264,-698.135437,-16.22560501,-80.92624664,121.9212952,-0.0287639797,-0.0104135461,0.00539712887,0,0,-0.202799991,0.230970427,1594875237.16579
2020/07/16/13:53:57.266117,128,1594875237,265780687,,,0,1594875264,-699.0137329,-13.73613358,-80.91997528,121.7765656,-0.0513711348,-0.0254510771,0.0235949568,0,0,-0.304199994,0.231517062,1594875237.26578
2020/07/16/13:53:57.366127,129,1594875237,365789890,,,0,1594875264,-700.5283203,-9.432988167,-80.90985107,121.5442963,-0.0485603511,0.00151776767,-0.00225006137,0.361550003,0,-0.304199994,0.232450366,1594875237.36579
2020/07/16/13:53:57.466105,130,1594875237,465765476,,,0,1594875264,-701.4014282,-6.947725296,-80.90538025,121.7590942,0.284761578,0.00289523276,0.027450785,0.848500013,0,-0.101399995,0.232992813,1594875237.46577
2020/07/16/13:53:57.566128,131,1594875237,565789937,,,0,1594875264,-702.2435303,-4.549097061,-80.90174866,122.1915283,0.178226382,0.0011569187,-0.01260956,1,0,-0.101399995,0.233517185,1594875237.56579
2020/07/16/13:53:57.666130,132,1594875237,665794372,,,0,1594875264,-704.0027466,0.467808247,-80.89216614,123.1577911,0.240800098,0.00749099674,-0.00613902509,1,0,0.253499985,0.234610885,1594875237.66579
2020/07/16/13:53:57.766099,133,1594875237,765762805,,,0,1594875264,-704.6488037,2.311469793,-80.88783264,123.5479584,0.204266429,-0.00768796261,0.00989983603,1,0,0.152099997,0.235009924,1594875237.76576
2020/07/16/13:53:57.866131,134,1594875237,865790605,,,0,1594875264,-705.7757568,5.528045177,-80.88065338,124.2657776,0.207027048,-0.0184166357,-0.00151290745,1,0,0.253499985,0.235709161,1594875237.86579
2020/07/16/13:53:57.966097,135,1594875237,965780496,,,0,1594875264,-707.1856689,9.551005363,-80.87189484,125.2014313,0.232861638,-0.00933442079,-0.0355363786,1,0,0.709799945,0.236586466,1594875237.96578
2020/07/16/13:53:58.066122,136,1594875238,65823078,,,0,1594875264,-708.7125854,13.90136528,-80.8635025,126.2058258,0.236102626,-0.00281303539,-0.0245174095,1,0,3.194099903,0.237536699,1594875238.06582
2020/07/16/13:53:58.166075,137,1594875238,165773868,,,0,1594875264,-709.2371216,15.39194107,-80.86083984,126.5488358,0.196476027,0.0298090875,-0.0550382808,1,0,4.360199451,0.237864569,1594875238.16577
2020/07/16/13:53:58.266093,138,1594875238,265790939,,,0,1594875264,-710.6490479,19.38397598,-80.8522644,127.4504089,0.24643445,0.00148025376,-0.109589405,1,0,4.715099812,0.238736302,1594875238.26579
2020/07/16/13:53:58.366134,139,1594875238,365779638,,,0,1594875264,-712.1200562,23.5002079,-80.84378815,128.3546295,0.183991879,-0.0188176911,-0.102099299,1,0,3.80250001,0.239637241,1594875238.36578
2020/07/16/13:53:58.466076,140,1594875238,465764522,,,0,1594875264,-712.9207153,25.71841431,-80.83932495,128.8418121,0.19974646,0.00549502298,-0.105064742,1,0,3.80250001,0.240126267,1594875238.46576
2020/07/16/13:53:58.566100,141,1594875238,565788745,,,0,1594875264,-713.8779297,28.34813881,-80.83429718,129.4149933,0.195691556,0.0331162959,-0.128225178,1,0,3.85319972,0.240700528,1594875238.56579
2020/07/16/13:53:58.666098,142,1594875238,665792465,,,0,1594875264,-715.5255127,32.81803131,-80.82545471,130.3677521,0.231904551,0.00474027358,-0.172918975,1,0,3.80250001,0.241679981,1594875238.66579
2020/07/16/13:53:58.766074,143,1594875238,765767335,,,0,1594875264,-716.6691284,35.87947845,-80.81916809,131.0167236,0.182219148,0.0180539079,-0.178840518,1,0,3.650399923,0.242355704,1594875238.76577
2020/07/16/13:53:58.866293,144,1594875238,865920066,,,0,1594875264,-717.9462891,39.25971222,-80.81093597,131.7201691,0.214577794,0.044870887,-0.160831109,1,0,3.599699974,0.243100658,1594875238.86592
2020/07/16/13:53:58.966132,145,1594875238,965817928,,,0,1594875264,-719.6802979,43.78678131,-80.79712677,132.6477814,0.219197631,-0.00951501448,-0.117630139,1,0,4.360199451,0.244095951,1594875238.96582
2020/07/16/13:53:59.066121,146,1594875239,65811634,,,0,1594875264,-720.2797241,45.33527374,-80.79257965,132.9630585,0.22608012,0.00125701015,-0.157350391,1,0,4.715099812,0.244435802,1594875239.06581
2020/07/16/13:53:59.166100,147,1594875239,165815353,,,0,1594875264,-722.555603,51.1385231,-80.77657318,134.1279907,0.204970241,-0.0144139482,-0.136337787,1,0,3.244799852,0.245718941,1594875239.16582
2020/07/16/13:53:59.266049,148,1594875239,265769004,,,0,1594875264,-723.7990723,54.2617836,-80.76843262,134.7451019,0.193010092,-0.00293132919,-0.122529462,1,0,0.861899972,0.246410176,1594875239.26577
2020/07/16/13:53:59.366045,149,1594875239,365765094,,,0,1594875264,-724.5525513,56.14078522,-80.76335144,135.1190948,0.186862573,0.000322488893,-0.0746770054,0.99879998,0,-0.202799991,0.246826127,1594875239.36577
2020/07/16/13:53:59.466071,150,1594875239,465787410,,,0,1594875264,-725.8187256,59.28150558,-80.75442505,135.7309265,0.197062552,0.0376126841,-0.0682279766,0.997799993,0,-1.318199992,0.247521535,1594875239.46579
2020/07/16/13:53:59.566066,151,1594875239,565783262,,,0,1594875264,-727.7364502,64.01576233,-80.73670959,136.6276093,0.197080538,-0.00655558938,0.0399019644,0.984849989,0,-3.954599857,0.248569533,1594875239.56578
2020/07/16/13:53:59.666059,152,1594875239,665780067,,,0,1594875264,-729.0211182,67.18946838,-80.72428131,137.2094574,0.159165606,-0.0210339222,0.0755668283,0.969699979,0,-4.562999725,0.249274254,1594875239.66578
2020/07/16/13:53:59.766054,153,1594875239,765773296,,,0,1594875264,-730.8185425,71.65865326,-80.70750427,137.9970398,0.20253706,-0.0298887249,0.126943946,0.951849997,0,-4.968600273,0.250262231,1594875239.76577
2020/07/16/13:53:59.866052,154,1594875239,865768432,,,0,1594875264,-732.097229,74.87064362,-80.69538116,138.5183105,0.166518912,-0.0119478516,0.204262182,0.919099987,0,-5.982599735,0.250973493,1594875239.86577
2020/07/16/13:53:59.966070,155,1594875239,965785264,,,0,1594875264,-733.5366211,78.53132629,-80.68314362,139.0915222,0.143699929,-0.0714648962,0.176702768,0.858749986,0,-6.084000111,0.251783282,1594875239.96579
2020/07/16/13:54:00.066128,156,1594875240,65810203,,,0,1594875264,-734.9621582,82.21232605,-80.67758179,139.4277039,-0.0056367442,-0.029718088,0.223394662,0.132800013,0,-5.374199867,0.25259456,1594875240.06581
2020/07/16/13:54:00.166059,157,1594875240,165765523,,,0,1594875264,-736.2022095,85.46665192,-80.67414093,139.1508026,-0.106076092,0.0261760689,0.271251082,0,0,-4.867199898,0.253312081,1594875240.16577
2020/07/16/13:54:00.266075,158,1594875240,265783786,,,0,1594875264,-737.9039917,90.0196228,-80.66856384,138.6270294,-0.137961805,-0.0420591757,0.266772568,0,0.0567206107,-4.765799999,0.254312813,1594875240.26578
2020/07/16/13:54:00.366053,159,1594875240,365759372,,,0,1594875264,-738.3425903,91.21073914,-80.66707611,138.3452301,-0.371969163,0.00505732186,0.287491947,0,0.366754591,-4.360199451,0.254573852,1594875240.36576
2020/07/16/13:54:00.466119,160,1594875240,465775966,,,0,1594875264,-740.09021,96.02640533,-80.65985107,134.6413422,-0.954112411,0.0247417223,0.201331109,0,0.845149636,-1.521000028,0.255629152,1594875240.46578
2020/07/16/13:54:00.566111,161,1594875240,565769672,,,0,1594875264,-741.2416382,99.2558136,-80.65248108,131.0338135,-1.151069283,-0.037264891,0.176222593,0,1,-0.709799945,0.256335855,1594875240.56577
2020/07/16/13:54:00.666079,162,1594875240,665761947,,,0,1594875264,-742.3115845,102.2984238,-80.64207459,127.3666,-1.263141751,-0.0394857377,0.256343424,0,1,-1.723799944,0.257002741,1594875240.66576
2020/07/16/13:54:00.766091,163,1594875240,765773534,,,0,1594875264,-743.602417,106.0362854,-80.628685,122.8097839,-1.017267704,-0.104315296,0.257825881,0,1,2.484300137,0.257820576,1594875240.76577
2020/07/16/13:54:00.866263,164,1594875240,865899324,,,0,1594875264,-744.4443359,108.522171,-80.62062073,119.8994141,-0.962958038,-0.087798439,0.225945354,0,0.763077438,12.77639961,0.258362889,1594875240.86590
2020/07/16/13:54:00.966128,165,1594875240,965807199,,,0,1594875264,-745.8658447,112.8120728,-80.6074295,116.8599319,-0.240407452,-0.0274772886,0.30055809,0,0.0827194825,9.480899811,0.259295017,1594875240.96581
2020/07/16/13:54:01.066141,166,1594875241,65802812,,,0,1594875264,-746.876709,115.957283,-80.59637451,116.4584961,-0.0750072375,0.0322742984,0.209227532,0,0.00603165338,6.793799877,0.259977341,1594875241.06580
2020/07/16/13:54:01.166091,167,1594875241,165785551,,,0,1594875264,-747.8679199,119.1018677,-80.58261871,116.3057709,-0.0604478307,-0.0019690725,0.0547811277,0,0,2.078700066,0.260654867,1594875241.16579
2020/07/16/13:54:01.266156,168,1594875241,265825748,,,0,1594875264,-748.9674072,122.6140289,-80.56848907,116.0967255,-0.167810783,0.0146113709,-0.0439911447,0,0.168621659,-3.650399923,0.261412144,1594875241.26583
2020/07/16/13:54:01.366049,169,1594875241,365755558,,,0,1594875264,-749.8266602,125.3564987,-80.55897522,113.5701752,-1.084484458,-0.0617617667,-0.0324425399,0,1,-8.618999481,0.262005508,1594875241.36576
2020/07/16/13:54:01.466063,170,1594875241,465770006,,,0,1594875264,-750.6589966,128.019989,-80.55291748,109.986557,-1.128607273,-0.0807915032,0.0830142796,0,1,-12.47219944,0.262579024,1594875241.46577
2020/07/16/13:54:01.566088,171,1594875241,565776824,,,0,1594875264,-751.7677612,131.6049194,-80.54689789,104.8368683,-1.106831908,-0.0431459844,0.0631473362,0,1,-5.272799969,0.263350278,1594875241.56578
2020/07/16/13:54:01.666073,172,1594875241,665775060,,,0,1594875264,-752.1732788,132.9261322,-80.54412079,102.8114014,-1.266648054,-0.0234915465,0.101448238,0,1,-6.692399979,0.263633341,1594875241.66578
2020/07/16/13:54:01.766084,173,1594875241,765787839,,,0,1594875264,-753.3053589,136.6612854,-80.53400421,96.92140198,-1.044188261,-0.0948292464,0.180806994,0,1,-15.51419926,0.264434814,1594875241.76579
2020/07/16/13:54:01.866077,174,1594875241,865776300,,,0,1594875264,-754.0855103,139.3107147,-80.53010559,92.80506897,-1.127774358,-0.0679263175,0.280130208,0,1,-17.03520012,0.264998108,1594875241.86578
2020/07/16/13:54:01.966107,175,1594875241,965797424,,,0,1594875264,-754.5046997,140.7762451,-80.52861023,90.48830414,-1.045956612,-0.0709541887,0.243706226,0,1,-15.41279888,0.265311182,1594875241.96580
2020/07/16/13:54:02.066144,176,1594875242,65825700,,,0,1594875264,-755.4130859,144.0831451,-80.52403259,84.96925354,-1.108323336,-0.035482157,0.291672468,0,1,-15.71700001,0.266011208,1594875242.06583
2020/07/16/13:54:02.166056,177,1594875242,165760517,,,0,1594875264,-755.6275024,144.8963013,-80.52186584,83.56666565,-1.131084919,-0.0264469199,0.319155633,0,0.957693934,-15.81839943,0.26618132,1594875242.16576
2020/07/16/13:54:02.266091,178,1594875242,265791177,,,0,1594875264,-756.3967896,147.9641571,-80.50924683,78.39680481,-1.004433274,-0.0344080552,0.420713484,0,0.803238332,-20.88840103,0.266829669,1594875242.26579
2020/07/16/13:54:02.366152,179,1594875242,365826368,,,0,1594875264,-756.8552246,149.9598694,-80.50138855,75.66098785,-0.629053354,-0.0436796993,0.504788578,0,0.268025309,-23.11919785,0.267242819,1594875242.36583
2020/07/16/13:54:02.466092,180,1594875242,465791702,,,0,1594875264,-757.2958984,152.1027832,-80.496315,74.63819122,-0.212024957,-0.0140823629,0.589759707,0,0.143858701,-25.95839882,0.26768738,1594875242.46579
2020/07/16/13:54:02.566096,181,1594875242,565787315,,,0,1594875264,-757.4760132,153.0780945,-80.49468994,74.20140076,-0.282567918,-0.0201645158,0.628808498,0,0.158031702,-27.68219948,0.267890751,1594875242.56579
2020/07/16/13:54:02.666068,182,1594875242,665771007,,,0,1594875264,-757.9563599,156.1694794,-80.48753357,73.1909256,-0.135319144,0.0266286545,0.57488513,0,0.0477252416,-27.88500023,0.268524885,1594875242.66577
2020/07/16/13:54:02.766086,183,1594875242,765783071,,,0,1594875264,-758.2077637,158.2818909,-80.47839355,72.75028229,-0.115851209,0.0502871387,0.497773409,0,0.00032931217,-24.43740082,0.268954366,1594875242.76578
2020/07/16/13:54:02.866097,184,1594875242,865788698,,,0,1594875264,-758.2982178,159.1856537,-80.47306824,72.60536194,-0.121382177,-0.0411552377,0.453195095,0,0,-24.23459816,0.26913926,1594875242.86579
2020/07/16/13:54:02.966105,185,1594875242,965794324,,,0,1594875264,-758.5357666,162.2508087,-80.45420074,72.11135101,-0.130121469,-0.0264790095,0.392827243,0,0,-18.2519989,0.269759566,1594875242.96579
2020/07/16/13:54:03.066122,186,1594875243,65809488,,,0,1594875264,-758.6442261,164.3461151,-80.44141388,71.79550171,-0.0814031065,-0.0565517955,0.347676367,0,0,-15.00720024,0.270187706,1594875243.06581
2020/07/16/13:54:03.166060,187,1594875243,165760755,,,0,1594875264,-758.6808472,165.3014832,-80.43611908,71.64680481,-0.114426829,-0.00219651684,0.36547181,0,0,-16.02119827,0.270378411,1594875243.16576
2020/07/16/13:54:03.266097,188,1594875243,265789270,,,0,1594875264,-758.7463989,168.276474,-80.42179871,71.21755981,-0.0967413411,-0.000183113152,0.268762052,0,0,-14.50020027,0.270985544,1594875243.26579
2020/07/16/13:54:03.366094,189,1594875243,365786314,,,0,1594875264,-758.7540283,169.6984406,-80.41545105,71.01225281,-0.0834182799,-0.065783143,0.21263738,0,0,-13.9932003,0.271272093,1594875243.36579
2020/07/16/13:54:03.466096,190,1594875243,465796947,,,0,1594875264,-758.7301025,172.4120941,-80.40171051,70.60167694,-0.0928227901,0.117063574,0.296644628,0,0,-14.3987999,0.271823615,1594875243.46580
2020/07/16/13:54:03.566092,191,1594875243,565788984,,,0,1594875264,-758.6854248,174.2922974,-80.38578033,70.53045654,0.0276267752,-0.00688184984,0.228733242,0.318850011,0,-14.70299912,0.272207141,1594875243.56579
2020/07/16/13:54:03.666049,192,1594875243,665750265,,,0,1594875264,-758.6233521,176.0555878,-80.3706665,70.63596344,0.0745461881,-0.0691182017,0.26109454,0.485100001,0,-15.41279888,0.272560865,1594875243.66575
2020/07/16/13:54:03.766084,193,1594875243,765781402,,,0,1594875264,-758.5822754,176.9971008,-80.36363983,70.7202301,0.0320032611,-0.0499295965,0.240137309,0.52670002,0,-16.22399902,0.272753894,1594875243.76578
2020/07/16/13:54:03.866099,194,1594875243,865792989,,,0,1594875264,-758.4162598,179.9467926,-80.34492493,71.08865356,0.134937301,-0.0630290881,0.240712911,0.497299999,0,-17.13659859,0.273352474,1594875243.86579
2020/07/16/13:54:03.966085,195,1594875243,965778589,,,0,1594875264,-758.3550415,180.8341522,-80.33968353,71.20281982,0.0575750433,0.0698795021,0.283423901,0.485100001,0,-18.35339928,0.273532391,1594875243.96578
2020/07/16/13:54:04.066123,196,1594875244,65813064,,,0,1594875264,-758.1099854,183.7998505,-80.32059479,71.61655426,0.074901551,0.0621655136,0.278789729,0.503000021,0,-19.36739922,0.274135888,1594875244.06581
2020/07/16/13:54:04.166016,197,1594875244,165705919,,,0,1594875264,-757.8994751,185.8828125,-80.30472565,71.93128204,0.0991921276,0.0486630984,0.318248183,0.514699996,0,-19.57019806,0.274560571,1594875244.16571
2020/07/16/13:54:04.266047,198,1594875244,265761852,,,0,1594875264,-757.6921997,187.6734619,-80.29003143,72.24838257,0.0755170956,0.0248217676,0.306578606,0.514699996,0,-19.97579956,0.27492097,1594875244.26576
2020/07/16/13:54:04.366071,199,1594875244,365788936,,,0,1594875264,-757.3930664,189.9480591,-80.27104187,72.6089859,0.0342613272,0.0177046973,0.307186812,0.344500005,0,-19.97579956,0.275391608,1594875244.36579
2020/07/16/13:54:04.466069,200,1594875244,465782880,,,0,1594875264,-757.1279297,191.7457123,-80.25695801,72.68556976,-0.05691595,-0.0412494391,0.279841989,0,0,-20.17860031,0.275761247,1594875244.46578
2020/07/16/13:54:04.566085,201,1594875244,565786600,,,0,1594875264,-756.7974854,193.7738342,-80.24385834,72.3863678,-0.0959468335,-0.0508674756,0.295029432,0,0,-19.97579956,0.276176125,1594875244.56579
2020/07/16/13:54:04.666072,202,1594875244,665775299,,,0,1594875264,-756.4798584,195.55159,-80.23579407,72.11419678,-0.0873024389,-0.0128268544,0.351547837,0,0,-19.87440109,0.276542097,1594875244.66578
2020/07/16/13:54:04.766077,203,1594875244,765787601,,,0,1594875264,-756.0532227,197.7277374,-80.225914,71.75424957,-0.103369869,0.0425272472,0.360869437,0,0,-19.67159843,0.276999861,1594875244.76579
2020/07/16/13:54:04.866062,204,1594875244,865870952,,,0,1594875264,-755.6655273,199.5361938,-80.2151947,71.47059631,-0.0881366059,-0.0106329769,0.346706152,0,0,-19.67159843,0.277378529,1594875244.86587
2020/07/16/13:54:04.966117,205,1594875244,965806484,,,0,1594875264,-755.1669312,201.6769714,-80.20008087,71.13659668,-0.107406534,-0.00117198238,0.352373689,0,0,-19.16460037,0.277826518,1594875244.96581
2020/07/16/13:54:05.066123,206,1594875245,65818071,,,0,1594875264,-754.7349243,203.3982849,-80.18752289,70.87148285,-0.0816870704,0.0106458692,0.325215936,0,0,-18.96179962,0.278189421,1594875245.06582
2020/07/16/13:54:05.166081,207,1594875245,165789127,,,0,1594875264,-754.2318726,205.2766113,-80.17304993,70.57687378,-0.0958201736,-0.0256197751,0.322018743,0,0,-18.75900078,0.278591514,1594875245.16579
2020/07/16/13:54:05.266077,208,1594875245,265787601,,,0,1594875264,-753.7502441,206.9701233,-80.16016388,70.31520081,-0.0649145693,0.0177770145,0.335708052,0,0,-18.35339928,0.278949738,1594875245.26579
2020/07/16/13:54:05.366104,209,1594875245,365806579,,,0,1594875264,-753.1261597,209.0405579,-80.14432526,69.98477173,-0.109618962,0.0125390869,0.267896563,0,0,-11.86380005,0.27939409,1594875245.36581
2020/07/16/13:54:05.466086,210,1594875245,465794563,,,0,1594875264,-752.6002808,210.7056122,-80.1309433,69.73152924,-0.0874588341,0.00106780068,0.213911653,0,0,-3.042000055,0.279749274,1594875245.46579
2020/07/16/13:54:05.566095,211,1594875245,565801143,,,0,1594875264,-751.8652344,212.9652405,-80.11103821,69.39556122,-0.0666744411,-0.00137604179,0.0620091222,0,0,4.512300015,0.280236572,1594875245.56580
2020/07/16/13:54:05.666081,212,1594875245,665784597,,,0,1594875264,-751.1271362,215.2122345,-80.091362,69.07266998,-0.0883664489,0.00894953683,-0.12564683,0,0,15.51419926,0.280717909,1594875245.66578
2020/07/16/13:54:05.766082,213,1594875245,765785932,,,0,1594875264,-750.7904053,216.2511597,-80.08237457,68.91390991,-0.0895451829,-0.0437738933,-0.182659402,0,0,20.07719994,0.280939817,1594875245.76579
2020/07/16/13:54:05.866089,214,1594875245,865797519,,,0,1594875264,-750.1538696,218.2744141,-80.06574249,68.74266815,-0.0165199488,-0.00603608927,-0.271870881,0.170650005,0,26.16119957,0.281372786,1594875245.86580
2020/07/16/13:54:05.966093,215,1594875245,965800285,,,0,1594875264,-749.4888306,220.5269775,-80.04798889,68.7711792,0.030774273,0.0673333034,-0.366948128,0.396499991,0,28.54409981,0.281851828,1594875245.96580
2020/07/16/13:54:06.066097,216,1594875246,65795660,,,0,1594875264,-748.9908447,222.3527832,-80.03285217,68.87437439,0.0386486873,-0.00548513653,-0.467081368,0.450949997,0,29.91300011,0.282238662,1594875246.06580
2020/07/16/13:54:06.166087,217,1594875246,165791749,,,0,1594875264,-748.5706177,224.0243378,-80.01895905,69.01794434,0.0602708161,-0.0224664044,-0.421171993,0.466049999,0,31.1298008,0.282591164,1594875246.16579
2020/07/16/13:54:06.266078,218,1594875246,265767097,,,0,1594875264,-748.282959,225.257782,-80.0091629,69.14186859,0.0300488323,-0.0098516969,-0.4678635,0.470950007,0,32.85359955,0.282848746,1594875246.26577
2020/07/16/13:54:06.366075,219,1594875246,365764141,,,0,1594875264,-747.7635498,227.7441559,-79.99227142,69.40248871,0.0866209865,-7.84E-05,-0.478908569,0.470950007,0,35.69279861,0.28336668,1594875246.36576
2020/07/16/13:54:06.466053,220,1594875246,465752840,,,0,1594875264,-747.5338135,228.9970398,-79.98464203,69.53971863,0.0532500297,-0.0143995555,-0.459109902,0.470950007,0,36.09840012,0.283626199,1594875246.46575
2020/07/16/13:54:06.566077,221,1594875246,565769195,,,0,1594875264,-747.105957,231.7521515,-79.96759033,69.87748718,0.0961405933,-0.0500967056,-0.542609096,0.505649984,0,37.41659927,0.284189492,1594875246.56577
2020/07/16/13:54:06.666041,222,1594875246,665743827,,,0,1594875264,-747.0222778,232.3877106,-79.96408081,69.96929932,0.092980504,0.00687446678,-0.4963727,0.517650008,0,37.72079849,0.284319371,1594875246.66574
2020/07/16/13:54:06.766032,223,1594875246,765749931,,,0,1594875264,-746.7442017,234.9455414,-79.9489975,70.37665558,0.107173294,0.0182255302,-0.620800734,0.562099993,0,37.82219696,0.284838736,1594875246.76575
2020/07/16/13:54:06.865993,224,1594875246,865804910,,,0,1594875264,-746.6079102,236.7042694,-79.93767548,70.73217773,0.135625064,0.00617563305,-0.559011877,0.607550025,0,37.82219696,0.285196364,1594875246.86580
2020/07/16/13:54:06.966225,225,1594875246,965869903,,,0,1594875264,-746.5011597,238.891098,-79.92138672,71.26267242,0.1281517,-0.0202143956,-0.578552723,0.616599977,0,37.61940002,0.285633087,1594875246.96587
2020/07/16/13:54:07.066213,226,1594875247,65856695,,,0,1594875264,-746.4622803,241.0979919,-79.90552521,71.87989807,0.181810632,0.0187861845,-0.587065458,0.61954999,0,37.72079849,0.2860789,1594875247.06586
2020/07/16/13:54:07.166058,227,1594875247,165772438,,,0,1594875264,-746.5039673,243.7476959,-79.88897705,72.63652039,0.154180646,-0.0438814908,-0.565114796,0.628600001,0,37.61940002,0.2866081,1594875247.16577
2020/07/16/13:54:07.266022,228,1594875247,265744686,,,0,1594875264,-746.5872192,245.5690765,-79.87934113,73.16418457,0.140910864,0.0131178899,-0.539119482,0.628600001,0,37.72079849,0.286974877,1594875247.26574
2020/07/16/13:54:07.366025,229,1594875247,365748167,,,0,1594875264,-746.6771851,246.9112549,-79.8711853,73.53702545,0.1731745,-0.00382904615,-0.539308012,0.629799962,0,37.72079849,0.287243634,1594875247.36575
2020/07/16/13:54:07.466151,230,1594875247,465821266,,,0,1594875264,-746.9589233,249.8567657,-79.85324097,74.37457275,0.157532319,-0.00828769803,-0.572485566,0.627600014,0,40.25579834,0.28783378,1594875247.46582
2020/07/16/13:54:07.566169,231,1594875247,565839767,,,0,1594875264,-747.0405273,250.5346832,-79.84926605,74.55156708,0.134552687,-0.0502039865,-0.590774357,0.625649989,0,40.45859909,0.287968785,1594875247.56584
2020/07/16/13:54:07.665966,232,1594875247,665827989,,,0,1594875264,-747.5164795,253.7489166,-79.82930756,75.36925507,0.169837177,-0.0367182828,-0.679533958,0.611000001,0,41.37119675,0.288618773,1594875247.66583
2020/07/16/13:54:07.766185,233,1594875247,765835762,,,0,1594875264,-747.6707153,254.6161957,-79.82260895,75.59281921,0.146785766,0.0701711252,-0.61443156,0.603399992,0,42.18239975,0.288791835,1594875247.76584
2020/07/16/13:54:07.866165,234,1594875247,865834474,,,0,1594875264,-748.2853394,257.5909424,-79.79736328,76.23757935,0.0768779218,-0.0407084823,-0.63746357,0.508099973,0,44.7173996,0.289396912,1594875247.86583
2020/07/16/13:54:07.966114,235,1594875247,965804815,,,0,1594875264,-748.9164429,260.1248474,-79.77863312,76.55621338,0.0606377721,0.0166903455,-0.688129485,0.325450003,0,44.61600113,0.289914161,1594875247.96580
2020/07/16/13:54:08.066196,236,1594875248,65856456,,,0,1594875264,-749.5165405,262.2110901,-79.760849,76.64976501,-0.0138113797,0.0974025279,-0.729693353,0.224099994,0,44.61600113,0.290342987,1594875248.06586
2020/07/16/13:54:08.166094,237,1594875248,165790557,,,0,1594875264,-749.8631592,263.307251,-79.74827576,76.64412689,0.0264665335,0.0207799133,-0.706708789,0.129400015,0,44.3117981,0.290568233,1594875248.16579
2020/07/16/13:54:08.266222,238,1594875248,265869855,,,0,1594875264,-750.7246704,265.7740173,-79.71611786,76.26383972,-0.0740024298,-0.0129624782,-0.728811145,0,0,44.10899734,0.291083843,1594875248.26587
2020/07/16/13:54:08.366158,239,1594875248,365825653,,,0,1594875264,-751.2262573,267.0755005,-79.69869232,75.96253967,-0.102333739,-0.0638851449,-0.722567201,0,0,43.80479813,0.291359484,1594875248.36583
2020/07/16/13:54:08.466309,240,1594875248,465916156,,,0,1594875264,-752.5458984,270.1399536,-79.66120148,75.18621826,-0.114465773,-0.0148370815,-0.808963299,0,0,43.29780197,0.292025357,1594875248.46592
2020/07/16/13:54:08.566156,241,1594875248,565827131,,,0,1594875264,-752.8399658,270.7620544,-79.65315247,75.01591492,-0.132716596,0.0149583872,-0.788089871,0,0,42.99359894,0.292163759,1594875248.56583
2020/07/16/13:54:08.666127,242,1594875248,665812969,,,0,1594875264,-754.2340698,273.4714355,-79.61569977,74.30321503,-0.153874457,-0.0138763059,-0.790026903,0,0,42.99359894,0.292773575,1594875248.66581
2020/07/16/13:54:08.766209,243,1594875248,765881299,,,0,1594875264,-755.1536865,275.0780945,-79.59262848,73.86209106,-0.0783085823,0.0161663406,-0.814313173,0,0,42.58800125,0.293143183,1594875248.76588
2020/07/16/13:54:08.866156,244,1594875248,865836858,,,0,1594875264,-756.2544556,276.8486633,-79.56539917,73.37020111,-0.149287194,-0.0318185464,-0.793679476,0,0,42.6893959,0.293562561,1594875248.86584
2020/07/16/13:54:08.966296,245,1594875248,965912103,,,0,1594875264,-756.9986572,277.9650879,-79.54784393,73.06485748,-0.0998077393,-0.0610953569,-0.741620362,0,0,42.79079819,0.29383114,1594875248.96591
2020/07/16/13:54:09.066248,246,1594875249,65896272,,,0,1594875264,-758.8508301,280.5116882,-79.51072693,72.34179688,-0.150807709,-0.0832694918,-0.736812711,0,0,42.28379822,0.294463634,1594875249.06590
2020/07/16/13:54:09.166120,247,1594875249,165804147,,,0,1594875264,-759.9762573,281.9199524,-79.49158478,71.93151855,-0.110188216,0.00609514769,-0.717271626,0,0,42.08099747,0.294826776,1594875249.16580
2020/07/16/13:54:09.266093,248,1594875249,265793561,,,0,1594875264,-760.8265991,282.9238892,-79.47748566,71.64761353,-0.0776124597,-0.0264462791,-0.764563441,0.049300015,0,41.16839981,0.295088738,1594875249.26579
2020/07/16/13:54:09.366015,249,1594875249,365751028,,,0,1594875264,-762.7147217,284.9911194,-79.44959259,71.42255402,0.00558963418,-0.0894343853,-0.659165263,0.366699994,0,36.1998024,0.295650929,1594875249.36575
2020/07/16/13:54:09.466101,250,1594875249,465803861,,,0,1594875264,-763.1704102,285.4611206,-79.44406891,71.40971375,-0.0322414935,-0.00689989515,-0.736105263,0.410650015,0,33.96900177,0.295781195,1594875249.46580
2020/07/16/13:54:09.566106,251,1594875249,565807580,,,0,1594875264,-765.3920288,287.6171875,-79.41809845,71.54724884,0.0913239568,0.0209496748,-0.480989963,0.549399972,0,18.35339928,0.296400577,1594875249.56581
2020/07/16/13:54:09.666072,252,1594875249,665782213,,,0,1594875264,-766.4954224,288.622467,-79.40564728,71.73999786,0.06466344,0.0187197998,-0.427935869,0.583400011,0,13.58759975,0.296699345,1594875249.66578
2020/07/16/13:54:09.766058,253,1594875249,765775680,,,0,1594875264,-768.1645508,290.084137,-79.38577271,72.16491699,0.129670948,-0.00136292598,-0.280822784,0.605350018,0,8.213399887,0.297145396,1594875249.76578
2020/07/16/13:54:09.866038,254,1594875249,865763425,,,0,1594875264,-769.6375122,291.3330383,-79.36780548,72.65454865,0.18792519,0.0276098661,-0.219596773,0.612450004,0,6.185400009,0.297535211,1594875249.86576
2020/07/16/13:54:09.966083,255,1594875249,965789794,,,0,1594875264,-771.3684692,292.770874,-79.34810638,73.28307343,0.160845041,-0.017169673,-0.133306637,0.628600001,0,5.424899578,0.297989428,1594875249.96579
2020/07/16/13:54:10.066118,256,1594875250,65807342,,,0,1594875264,-773.4121094,294.4444885,-79.32833099,74.10538483,0.203084201,0.00407484313,-0.0841518492,0.632749975,0,4.360199451,0.298529446,1594875250.06581
2020/07/16/13:54:10.165973,257,1594875250,165721416,,,0,1594875264,-774.1325684,295.0302124,-79.32146454,74.40925598,0.241815671,-0.0126617933,-0.0809246525,0.6347,0,4.157400131,0.298720002,1594875250.16572
2020/07/16/13:54:10.266070,258,1594875250,265786409,,,0,1594875264,-776.5616455,296.9912415,-79.29741669,75.38736725,0.179792002,0.0198470596,-0.0619824827,0.641799986,0,3.650399923,0.299363196,1594875250.26579
2020/07/16/13:54:10.365980,259,1594875250,365722656,,,0,1594875264,-777.2492676,297.5428467,-79.29033661,75.670784,0.177064106,-0.0280153379,-0.0671427101,0.64594996,0,3.447599888,0.299543947,1594875250.36572
2020/07/16/13:54:10.465993,260,1594875250,465738058,,,0,1594875264,-779.7818604,299.5621643,-79.26455688,76.69351959,0.196368665,-0.0464086607,-0.0487130582,0.654950023,0,3.194099903,0.300215602,1594875250.46574
2020/07/16/13:54:10.566009,261,1594875250,565742492,,,0,1594875264,-780.8876343,300.4382935,-79.25366211,77.14653015,0.174734384,0.0849595889,-0.072764881,0.657899976,0,2.991299868,0.300506562,1594875250.56574
2020/07/16/13:54:10.665959,262,1594875250,665709972,,,0,1594875264,-783.0713501,302.1596069,-79.22865295,78.00714111,0.209759921,0.0765638351,-0.0495408997,0.663049996,0,2.180099726,0.301081419,1594875250.66571
2020/07/16/13:54:10.765983,263,1594875250,765724182,,,0,1594875264,-784.7670288,303.489563,-79.20675659,78.6600647,0.181743085,0.00249217171,-0.0571937747,0.66595,0,1.774499893,0.301531672,1594875250.76572
2020/07/16/13:54:10.865960,264,1594875250,865710258,,,0,1594875264,-786.4271851,304.7872009,-79.18483734,79.31622314,0.213961616,0.0527155139,-0.0317162126,0.67110002,0,1.216799974,0.301967114,1594875250.86571
2020/07/16/13:54:10.966126,265,1594875250,965823173,,,0,1594875264,-787.5249634,305.64328,-79.17008972,79.74743652,0.249912292,0.0275460202,-0.0511100665,0.67110002,0,0.861899972,0.302258521,1594875250.96582
2020/07/16/13:54:11.066021,266,1594875251,65849065,,,0,1594875264,-790.2175903,307.7384644,-79.13313293,80.76380157,0.179101333,-0.0185295809,-0.030883491,0.673049986,0,0.45629999,0.302970916,1594875251.06585
2020/07/16/13:54:11.166124,267,1594875251,165817737,,,0,1594875264,-790.7498779,308.1520996,-79.1257019,80.96981812,0.171847373,0.00750356494,0.00718239695,0.673049986,0,0.304199994,0.30311206,1594875251.16582
2020/07/16/13:54:11.266093,268,1594875251,265803337,,,0,1594875264,-793.432373,310.2343445,-79.08700562,81.98094177,0.192008257,-0.00927300565,-0.0117568523,0.674049973,0,0,0.303820044,1594875251.26580
2020/07/16/13:54:11.366082,269,1594875251,365793943,,,0,1594875264,-795.2219238,311.6221619,-79.06333923,82.6641922,0.171403587,-0.0322546698,0.000997342169,0.67719996,0,0.152099997,0.304294258,1594875251.36579
2020/07/16/13:54:11.466050,270,1594875251,465770959,,,0,1594875264,-797.1363525,313.1064453,-79.04174042,83.38085175,0.145233229,0.0205332227,0.00350815803,0.680150032,0,0.253499985,0.304799467,1594875251.46577
2020/07/16/13:54:11.565980,271,1594875251,565727710,,,0,1594875264,-797.9619141,313.7463989,-79.03248596,83.69326782,0.201108843,-0.0186057761,-0.00795163214,0.680150032,0,0.253499985,0.305018514,1594875251.56573
2020/07/16/13:54:11.666055,272,1594875251,665780067,,,0,1594875264,-800.5690918,315.7668152,-79.00252533,84.67150879,0.16464743,0.0354441516,0.0131125376,0.681100011,0,0.253499985,0.305701524,1594875251.66578
2020/07/16/13:54:11.766081,273,1594875251,765790224,,,0,1594875264,-802.7554321,317.4607239,-78.97518158,85.47399139,0.209814921,0.0230267383,-0.0191182867,0.684049964,0,0,0.306272149,1594875251.76579
2020/07/16/13:54:11.865965,274,1594875251,865718603,,,0,1594875264,-803.6018677,318.116394,-78.96378326,85.78291321,0.173907295,0.0185148455,-0.000962048769,0.684049964,0,0.304199994,0.306491703,1594875251.86572
2020/07/16/13:54:11.965992,275,1594875251,965731620,,,0,1594875264,-806.4460449,320.3184814,-78.92456055,86.81987762,0.189301267,0.00113272178,0.00427249074,0.685249984,0,0.253499985,0.307234734,1594875251.96573
2020/07/16/13:54:12.066002,276,1594875252,65743923,,,0,1594875264,-808.5150757,321.9199829,-78.8970871,87.55426025,0.19393748,-0.00707084313,-0.0135731399,0.685249984,0,0.506999969,0.307778895,1594875252.06574
2020/07/16/13:54:12.166130,277,1594875252,165822982,,,0,1594875264,-809.3824463,322.5911255,-78.88574982,87.86214447,0.15967463,0.0069619338,-0.00020866096,0.685249984,0,0.45629999,0.308005929,1594875252.16582
2020/07/16/13:54:12.266108,278,1594875252,265806198,,,0,1594875264,-812.3546753,324.8899231,-78.8468399,88.89992523,0.177701294,0.00559246773,-0.0112430975,0.686249971,0,-0.304199994,0.308777094,1594875252.26581
2020/07/16/13:54:12.365996,279,1594875252,365735769,,,0,1594875264,-813.4121704,325.7075195,-78.83262634,89.26848602,0.195533529,0.0571438782,-0.0178532675,0.685249984,0,-0.709799945,0.309052318,1594875252.36574
2020/07/16/13:54:12.465975,280,1594875252,465728044,,,0,1594875264,-815.9554443,327.6743164,-78.79519653,90.12522125,0.149637178,0.0313873589,0.0152758732,0.686249971,0,-1.622399926,0.309712499,1594875252.46573
2020/07/16/13:54:12.565972,281,1594875252,565723896,,,0,1594875264,-818.3417358,329.5225525,-78.75791931,90.9207077,0.182967544,0.0290210489,0.0146852881,0.685249984,0,-1.92659986,0.310335994,1594875252.56572
2020/07/16/13:54:12.665966,282,1594875252,665716409,,,0,1594875264,-819.1813354,330.1738586,-78.74452972,91.19609833,0.205297619,0.0124210687,0.0183528513,0.685249984,0,-1.92659986,0.310554117,1594875252.66572
2020/07/16/13:54:12.766082,283,1594875252,765799522,,,0,1594875264,-822.4395142,332.7082825,-78.68748474,92.2244873,0.163873136,0.00260898075,0.0456309319,0.685249984,0,-2.534999847,0.311404884,1594875252.76580
2020/07/16/13:54:12.865947,284,1594875252,865710020,,,0,1594875264,-824.4453125,334.275238,-78.64940643,92.8499527,0.205182672,0.0074616028,0.0462286174,0.686249971,0,-2.839199781,0.31192711,1594875252.86571
2020/07/16/13:54:12.965962,285,1594875252,965712785,,,0,1594875264,-825.9718018,335.4719849,-78.62016296,93.32126617,0.194963545,0.0068195248,0.0725065544,0.686249971,0,-3.042000055,0.312325746,1594875252.96571
2020/07/16/13:54:13.066025,286,1594875253,65760612,,,0,1594875264,-828.8562012,337.7457886,-78.56481171,94.19078827,0.19059211,0.016354626,0.0538287237,0.686249971,0,-3.244799852,0.313080728,1594875253.06576
2020/07/16/13:54:13.165968,287,1594875253,165719747,,,0,1594875264,-830.6448364,339.1647644,-78.53014374,94.72309875,0.186430916,-0.0251643769,0.0856821984,0.685249984,0,-3.650399923,0.313551366,1594875253.16572
