time,.header.seq,.header.stamp.secs,.header.stamp.nsecs,.header.frame_id,.identifier.data,.size.data,.TimeStamp.data,PosLocalX,PosLocalY,Height,GPS_Speed,AccelX,AccelY,AccelZ,PedalPosAcc,PedalPosBrk,AngleSteer,carPositionNormalized,TimeStamp
2020/07/16/17:55:33.601971,73306,1594889733,601581811,,,0,1594889728,-73.10614014,-79.31820679,5.626828671,28.14772224,0.673548877,-0.0122766262,-0.0617868602,0.97360003,0,27.42869949,0.992992043,1594889733.60158
2020/07/16/17:55:33.611045,73307,1594889733,610893011,,,0,1594889728,-73.13813782,-79.38149261,5.626612186,28.36580276,0.677360058,-0.0124541335,-0.0603942126,0.97360003,0,27.07379913,0.993024349,1594889733.61089
2020/07/16/17:55:33.702480,73308,1594889733,702185392,,,0,1594889728,-73.323349,-79.7497406,5.625287056,29.61318016,0.708608329,-0.0162593871,-0.0693281144,0.97360003,0,25.2485981,0.993192017,1594889733.70219
2020/07/16/17:55:33.802466,73309,1594889733,802182912,,,0,1594889728,-73.58441925,-80.27442932,5.623372078,31.31397057,0.684767306,0.00017523393,-0.0767013282,0.97360003,0,23.22060013,0.993425369,1594889733.80218
2020/07/16/17:55:33.902546,73310,1594889733,902228832,,,0,1594889728,-74.01596069,-81.15606689,5.620660782,33.89403152,0.660579979,-0.00248304522,-0.0660033524,0.961650014,0,19.0632,0.993821323,1594889733.90223
2020/07/16/17:55:34.002494,73311,1594889734,2209186,,,0,1594889728,-74.60676575,-82.38597107,5.61654377,37.10293198,0.673495173,-0.0180889014,-0.0690244436,0.974099994,0,16.07189941,0.994374335,1594889734.00221
2020/07/16/17:55:34.102539,73312,1594889734,102237224,,,0,1594889728,-74.78157806,-82.75474548,5.614953995,38.02918243,0.674217761,-0.000230915844,-0.0726479739,0.987299979,0,15.41279888,0.994533002,1594889734.10224
2020/07/16/17:55:34.202558,73313,1594889734,202257871,,,0,1594889728,-75.4560318,-84.19889069,5.610547543,41.42483902,0.648086488,-0.0154351816,-0.0619569868,1,0,12.77639961,0.99516952,1594889734.20226
2020/07/16/17:55:34.302537,73314,1594889734,302241802,,,0,1594889728,-75.94548798,-85.26483154,5.607877254,43.65704727,0.612777114,0.00850551762,-0.0703877956,1,0,12.21870041,0.995635211,1594889734.30224
2020/07/16/17:55:34.402536,73315,1594889734,402238130,,,0,1594889728,-76.48516846,-86.45715332,5.606744766,45.85429764,0.538295448,0.00379972067,-0.0690041929,0.88440001,0,10.74839973,0.996152103,1594889734.40224
2020/07/16/17:55:34.502556,73316,1594889734,502249479,,,0,1594889728,-76.94487,-87.48597717,5.6066432,47.10654831,0.192348316,-0.0186591577,-0.0618714429,0.403100014,0,8.568299294,0.996601045,1594889734.50225
2020/07/16/17:55:34.602537,73317,1594889734,602241754,,,0,1594889728,-77.4391861,-88.60309601,5.606116772,47.36174011,-0.113870159,-0.00681113265,-0.0105429925,0,0,2.078700066,0.997081161,1594889734.60224
2020/07/16/17:55:34.702540,73318,1594889734,702245950,,,0,1594889728,-77.99367523,-89.86054993,5.604453564,47.00621414,-0.0390423201,-0.0162347052,-0.0287097171,0,0,2.078700066,0.997629225,1594889734.70225
2020/07/16/17:55:34.802549,73319,1594889734,802234649,,,0,1594889728,-78.65462494,-91.36422729,5.601582527,46.87007523,-0.0221746638,-0.0102022132,-0.0182674173,0,0,1.977299929,0.998278856,1594889734.80223
2020/07/16/17:55:34.902663,73320,1594889734,902361392,,,0,1594889728,-79.15602112,-92.50772095,5.600035191,46.78420639,-0.0260248259,0.0246218666,0.0131575363,0,0,-0.405599982,0.998772204,1594889734.90236
2020/07/16/17:55:35.002417,73321,1594889735,2277851,,,0,1594889728,-79.68765259,-93.72065735,5.600370407,46.70729446,-0.0200038254,-0.00996127725,-0.0164525565,0.161150008,0,1.622399926,0.999300122,1594889735.00228
2020/07/16/17:55:35.102472,73322,1594889735,102195262,,,0,1594889728,-80.19178009,-94.87284088,5.601069927,47.71855164,0.0147661408,0.0122180106,0.00363257993,0.673049986,0,0.304199994,0.999799907,1594889735.10220
2020/07/16/17:55:35.202461,73323,1594889735,202188253,,,0,1594889728,-80.64057922,-95.8990097,5.602370739,48.29405594,0.234718248,-0.000142376783,-0.00632245839,0.71754998,0,0.506999969,0.000274540856,1594889735.20219
2020/07/16/17:55:35.302590,73324,1594889735,302273035,,,0,1594889728,-81.11158752,-96.97736359,5.603374004,49.01031876,0.236515969,-0.00643952936,-0.0524823107,0.636150002,0,7.65569973,0.000737214112,1594889735.30227
2020/07/16/17:55:35.402601,73325,1594889735,402287006,,,0,1594889728,-81.78201294,-98.53125763,5.604142189,49.96876144,0.212265849,-0.0233791824,-0.112607799,0.561150014,0,17.18729973,0.00141714385,1594889735.40229
2020/07/16/17:55:35.502576,73326,1594889735,502261400,,,0,1594889728,-82.3846283,-99.96405029,5.60366869,50.80434799,0.226454705,0.0100070583,-0.145450398,0.59434998,0,17.74500084,0.00205876073,1594889735.50226
2020/07/16/17:55:35.602551,73327,1594889735,602238893,,,0,1594889728,-82.64354706,-100.5933685,5.603747845,51.19918442,0.230523869,0.00374313188,-0.155299291,0.596350014,0,18.60689926,0.00233779498,1594889735.60224
2020/07/16/17:55:35.702556,73328,1594889735,702245950,,,0,1594889728,-83.30148315,-102.2344818,5.603645325,52.21956635,0.229845375,0.00652404362,-0.173975348,0.566049993,0,22.00379944,0.00306849647,1594889735.70225
2020/07/16/17:55:35.802590,73329,1594889735,802272319,,,0,1594889728,-83.88600159,-103.7511139,5.60366869,53.13813019,0.236242056,-0.0252174605,-0.172067165,0.567250013,0,21.54750061,0.0037407123,1594889735.80227
2020/07/16/17:55:35.902584,73330,1594889735,902264118,,,0,1594889728,-84.38349152,-105.0901947,5.60341835,53.92550659,0.232001349,-0.000966950611,-0.177396119,0.566049993,0,19.57019806,0.0043344018,1594889735.90226
2020/07/16/17:55:36.002586,73331,1594889736,2269744,,,0,1594889728,-84.90340424,-106.5404816,5.603384972,54.75251389,0.224757701,0.0105530024,-0.186056584,0.566049993,0,19.57019806,0.00496318843,1594889736.00227
2020/07/16/17:55:36.102580,73332,1594889736,102262020,,,0,1594889728,-85.50279999,-108.2825928,5.603633404,55.71281433,0.219905242,-0.00128854846,-0.181447893,0.55309999,0,18.2519989,0.00571227539,1594889736.10226
2020/07/16/17:55:36.202579,73333,1594889736,202260017,,,0,1594889728,-85.81207275,-109.2122269,5.60363245,56.17897034,0.19596085,-0.00414390117,-0.169369608,0.487049997,0,17.18729973,0.00611160323,1594889736.20226
2020/07/16/17:55:36.302566,73334,1594889736,302249193,,,0,1594889728,-86.40434265,-111.0518265,5.60324192,56.83451843,0.0973715335,-0.0104933772,-0.144370466,0.184799999,0,13.84109974,0.0068818666,1594889736.30225
2020/07/16/17:55:36.402579,73335,1594889736,402260780,,,0,1594889728,-86.93765259,-112.771843,5.602956772,56.74221802,-0.0893390849,-0.0216519702,-0.115209937,0,0,10.03859997,0.00760310143,1594889736.40226
2020/07/16/17:55:36.502577,73336,1594889736,502259492,,,0,1594889728,-87.14326477,-113.4495392,5.60256052,56.59658432,-0.0977215469,-0.0164801534,-0.111165434,0,0,8.923199654,0.00788045954,1594889736.50226
2020/07/16/17:55:36.602562,73337,1594889736,602258682,,,0,1594889728,-87.70523834,-115.3405609,5.601734638,56.16335297,-0.0995682776,-0.0335245766,-0.0877452716,0,0,6.793799877,0.00866630673,1594889736.60226
2020/07/16/17:55:36.702577,73338,1594889736,702270746,,,0,1594889728,-88.18556213,-116.9976654,5.600839615,55.78668976,-0.0935046971,-0.00702388491,-0.0708257109,0,0,6.388199806,0.00934410468,1594889736.70227
2020/07/16/17:55:36.802649,73339,1594889736,802316427,,,0,1594889728,-88.59114075,-118.4242325,5.599954605,55.47446823,-0.0882903039,0.0187466629,-0.0777813047,0,0,6.185400009,0.00992499664,1594889736.80232
2020/07/16/17:55:36.902718,73340,1594889736,902366638,,,0,1594889728,-89.12310791,-120.3313599,5.598745823,55.06386566,-0.0891225934,-0.0191331971,-0.0671944916,0,0,5.222100258,0.0106952516,1594889736.90237
2020/07/16/17:55:37.002552,73341,1594889737,2269506,,,0,1594889728,-89.54580688,-121.8755798,5.595859528,54.75081253,-0.0836435929,-0.0245985985,-0.0467360877,0,0,4.562999725,0.0113251582,1594889737.00227
2020/07/16/17:55:37.102524,73342,1594889737,102247476,,,0,1594889728,-89.78367615,-122.7547913,5.593073845,54.57498169,-0.0782074705,-0.0490115881,-0.0582623556,0,0,4.715099812,0.0116749164,1594889737.10225
2020/07/16/17:55:37.202534,73343,1594889737,202258348,,,0,1594889728,-90.2746048,-124.5931854,5.584113598,54.18000412,-0.0916644484,0.0175634492,-0.0542833433,0,0,4.715099812,0.0124217831,1594889737.20226
2020/07/16/17:55:37.302599,73344,1594889737,302271127,,,0,1594889728,-90.52738953,-125.5514908,5.580250263,53.96623993,-0.0989765376,0.00589216314,-0.0310074333,0,0,4.715099812,0.0128060728,1594889737.30227
2020/07/16/17:55:37.402570,73345,1594889737,402255058,,,0,1594889728,-91.01402283,-127.4150162,5.575954914,53.55954361,-0.0888034627,0.0642741174,-0.0364935026,0,0,4.562999725,0.0135523072,1594889737.40226
2020/07/16/17:55:37.502583,73346,1594889737,502270460,,,0,1594889728,-91.40297699,-128.922699,5.577492714,53.23507309,-0.0883495063,0.0239801835,-0.0396240205,0,0,2.484300137,0.014156105,1594889737.50227
2020/07/16/17:55:37.602574,73347,1594889737,602255582,,,0,1594889728,-91.62239838,-129.7806702,5.57897377,53.05819321,-0.0861731768,0.00070008263,-0.0113206021,0,0,-1.622399926,0.0145074446,1594889737.60226
2020/07/16/17:55:37.702574,73348,1594889737,702256679,,,0,1594889728,-92.09210205,-131.6156311,5.580912113,52.6819458,-0.0912255049,-0.0105445115,0.067982018,0,0,-10.64700031,0.015238978,1594889737.70226
2020/07/16/17:55:37.802584,73349,1594889737,802266597,,,0,1594889728,-92.52391052,-133.266037,5.579627037,52.33201218,-0.0801099911,-0.069739446,0.108465493,0.0617500246,0,-15.41279888,0.0159012787,1594889737.80227
2020/07/16/17:55:37.902570,73350,1594889737,902255296,,,0,1594889728,-92.7503891,-134.1081238,5.57656908,52.35119629,0.0317253955,-0.00279103522,0.131207779,0.348650008,0,-16.52820015,0.0162417181,1594889737.90226
2020/07/16/17:55:38.002586,73351,1594889738,2264022,,,0,1594889728,-93.25469971,-135.9215088,5.569983959,52.76531982,0.154467851,-0.00505879149,0.165403634,0.646399975,0,-18.04920006,0.016975686,1594889738.00226
2020/07/16/17:55:38.102594,73352,1594889738,102263689,,,0,1594889728,-93.70081329,-137.4516296,5.564498901,53.47774506,0.235420823,0.00425283844,0.152650237,0.709450006,0,-16.73099899,0.0176012013,1594889738.10226
2020/07/16/17:55:38.202597,73353,1594889738,202255010,,,0,1594889728,-93.95934296,-138.3095551,5.561866283,53.97909546,0.24653393,0.0301640257,0.170176908,0.719500005,0,-15.81839943,0.0179579128,1594889738.20226
2020/07/16/17:55:38.302587,73354,1594889738,302258968,,,0,1594889728,-94.55680084,-140.2213593,5.557303429,55.21484756,0.279278457,0.00991748646,0.155331507,0.720449984,0,-15.81839943,0.018744098,1594889738.30226
2020/07/16/17:55:38.402613,73355,1594889738,402263879,,,0,1594889728,-94.89938354,-141.2796326,5.554990292,55.93798065,0.293799341,-0.0126918871,0.149691164,0.711899996,0,-14.80439949,0.0191786028,1594889738.40226
2020/07/16/17:55:38.502612,73356,1594889738,502263069,,,0,1594889728,-95.55652618,-143.24823,5.550814629,57.063694,0.136241183,0.0321627147,0.117035747,0.285650015,0,-11.2553997,0.0200045519,1594889738.50226
2020/07/16/17:55:38.602614,73357,1594889738,602271795,,,0,1594889728,-96.08174133,-144.7797089,5.550398827,57.04595184,-0.0814369172,0.0388958082,0.0712892115,0,0,-6.692399979,0.0206455979,1594889738.60227
2020/07/16/17:55:38.702600,73358,1594889738,702254533,,,0,1594889728,-96.54829407,-146.1232605,5.551722527,56.76037979,-0.0913514644,-0.0282678194,0.0162435435,0,0,-2.027999878,0.0212097764,1594889738.70225
2020/07/16/17:55:38.802596,73359,1594889738,802254676,,,0,1594889728,-97.09241486,-147.6809387,5.551620007,56.40759659,-0.109338418,0.00678585796,0.0311302263,0,0,-1.622399926,0.0218641814,1594889738.80225
2020/07/16/17:55:38.902674,73360,1594889738,902303695,,,0,1594889728,-97.62020874,-149.1837921,5.550272942,56.05948257,-0.0955399275,-0.0260444544,0.0297286008,0,0,-1.115399957,0.0224974249,1594889738.90230
2020/07/16/17:55:39.002525,73361,1594889739,2229213,,,0,1594889728,-98.03862762,-150.3700409,5.548270226,55.78518677,-0.0965592116,0.0233239718,0.018151639,0,0,0.45629999,0.0229981169,1594889739.00223
2020/07/16/17:55:39.102508,73362,1594889739,102215766,,,0,1594889728,-98.62526703,-152.0295258,5.547150135,55.41336823,-0.0974511579,0.00957025681,0.0229297802,0,0,-0.912599981,0.0236970801,1594889739.10222
2020/07/16/17:55:39.202581,73363,1594889739,202244758,,,0,1594889728,-99.14768219,-153.5048218,5.547623158,55.091362,-0.0962771624,0.00495570712,-0.00848491862,0,0,0.861899972,0.0243197456,1594889739.20224
2020/07/16/17:55:39.302585,73364,1594889739,302244901,,,0,1594889728,-99.57539368,-154.7134857,5.548429012,54.82806396,-0.0871173665,0.00338545209,0.0183869377,0,0,-1.013999939,0.0248304624,1594889739.30224
2020/07/16/17:55:39.402595,73365,1594889739,402248859,,,0,1594889728,-100.0922318,-156.173233,5.54969883,54.50730133,-0.0853786543,-0.0170602333,-0.0136510581,0,0,0,0.0254464354,1594889739.40225
2020/07/16/17:55:39.502598,73366,1594889739,502253532,,,0,1594889728,-100.6210785,-157.6670227,5.5501194,54.18390274,-0.0906214863,-0.0335748643,0.00428940356,0,0,0.45629999,0.0260763429,1594889739.50225
2020/07/16/17:55:39.602589,73367,1594889739,602255821,,,0,1594889728,-101.237236,-159.4057922,5.546973228,53.81928635,-0.0845683888,-0.00971285254,0.0267793499,0,0,-1.216799974,0.0268109478,1594889739.60226
2020/07/16/17:55:39.702597,73368,1594889739,702258110,,,0,1594889728,-101.7010651,-160.7122345,5.542508602,53.53478241,-0.0862648711,-0.0293746721,-0.0132729709,0,0,0.861899972,0.0273634307,1594889739.70226
2020/07/16/17:55:39.802555,73369,1594889739,802241325,,,0,1594889728,-101.9541855,-161.4257507,5.539349079,53.37818909,-0.0818537548,0.0236061551,0.00450917892,0.0664000213,0,-1.318199992,0.027665846,1594889739.80224
2020/07/16/17:55:39.902574,73370,1594889739,902259349,,,0,1594889728,-102.6241074,-163.3131561,5.537621021,53.53797913,0.124727778,0.0260791108,0.0279486775,0.63714999,0,-4.157400131,0.0284628309,1594889739.90226
2020/07/16/17:55:40.002587,73371,1594889740,2269744,,,0,1594889728,-103.1831512,-164.878479,5.542468548,54.32515335,0.272316098,0.0471002907,0.0943916887,0.936699986,0,-15.41279888,0.0291244797,1594889740.00227
2020/07/16/17:55:40.102564,73372,1594889740,102249383,,,0,1594889728,-103.5253448,-165.8219147,5.547886372,55.07945251,0.348021537,0.00239784596,0.154422328,1,0,-24.03179932,0.0295254849,1594889740.10225
2020/07/16/17:55:40.202566,73373,1594889740,202252864,,,0,1594889728,-104.1785507,-167.5671692,5.556331158,56.65222931,0.396359354,-0.0584006868,0.241924137,1,0,-30.92699814,0.0302729029,1594889740.20225
2020/07/16/17:55:40.302563,73374,1594889740,302244186,,,0,1594889728,-104.8465118,-169.2626343,5.558997631,58.32299423,0.422717601,-0.0297984853,0.294325054,1,0,-35.18579864,0.0310024843,1594889740.30224
2020/07/16/17:55:40.402590,73375,1594889740,402243852,,,0,1594889728,-105.1062012,-169.8964233,5.559146881,58.9630661,0.442227155,-0.0160647612,0.308523685,1,0,-35.18579864,0.0312753767,1594889740.40224
2020/07/16/17:55:40.502601,73376,1594889740,502261161,,,0,1594889728,-105.9952698,-171.9671783,5.55995512,61.10673141,0.455516368,-0.0122987339,0.339554489,1,0,-35.59139633,0.0321832076,1594889740.50226
2020/07/16/17:55:40.602607,73377,1594889740,602270603,,,0,1594889728,-106.7475357,-173.6125336,5.561146259,62.80506134,0.459515691,-0.0257191304,0.351903975,1,0,-35.89559937,0.0329166986,1594889740.60227
2020/07/16/17:55:40.702598,73378,1594889740,702258825,,,0,1594889728,-107.555542,-175.2859497,5.561069965,64.47415924,0.448983669,-0.0118908752,0.370440751,1,0,-34.07040024,0.0336668976,1594889740.70226
2020/07/16/17:55:40.802554,73379,1594889740,802239656,,,0,1594889728,-108.241478,-176.6409149,5.560783863,65.52122498,0.229900509,0.00385487149,0.377702683,0.443850011,0,-31.53539848,0.0342845544,1594889740.80224
2020/07/16/17:55:40.902610,73380,1594889740,902276515,,,0,1594889728,-109.4264069,-178.8614044,5.562008858,65.61460876,-0.025665395,-0.0700167045,0.237689316,0,0,-11.4581995,0.0353073515,1594889740.90228
2020/07/16/17:55:41.002569,73381,1594889741,2258539,,,0,1594889728,-110.2751617,-180.3897705,5.559847832,65.5100708,-0.0271136612,-0.0245848633,0.195747346,0,0,-6.286799908,0.0360156484,1594889741.00226
2020/07/16/17:55:41.102565,73382,1594889741,102250814,,,0,1594889728,-111.1377182,-181.9069824,5.554886818,65.39090729,-0.0428445935,0.0189528652,0.170938686,0.348650008,0,-6.084000111,0.0367289223,1594889741.10225
2020/07/16/17:55:41.202582,73383,1594889741,202245712,,,0,1594889728,-111.5188141,-182.5674438,5.552662373,65.33766937,-0.042944327,0.0459672026,0.152007431,0.6523,0,-5.779799461,0.0370388329,1594889741.20225
2020/07/16/17:55:41.302595,73384,1594889741,302256584,,,0,1594889728,-112.7958603,-184.7473145,5.550317764,66.73838806,0.265273869,0.0560696349,0.134185195,1,0,-8.923199654,0.0380640179,1594889741.30226
2020/07/16/17:55:41.402616,73385,1594889741,402266025,,,0,1594889728,-114.0354614,-186.822998,5.553411961,68.12754822,0.320383132,-0.0101370392,0.100633785,1,0,-7.807799816,0.0390503146,1594889741.40227
2020/07/16/17:55:41.502599,73386,1594889741,502262592,,,0,1594889728,-114.8647995,-188.1939697,5.554278374,69.11545563,0.344092727,-0.0281784199,0.0989472717,1,0,-8.111999512,0.0396996997,1594889741.50226
2020/07/16/17:55:41.602584,73387,1594889741,602253913,,,0,1594889728,-115.4987869,-189.2329102,5.553811073,69.87432098,0.339316726,-0.0147360591,0.101138681,1,0,-8.111999512,0.0401987173,1594889741.60225
2020/07/16/17:55:41.702540,73388,1594889741,702253818,,,0,1594889728,-116.9553986,-191.592392,5.550357342,71.61968231,0.348760873,0.0177719258,0.100580588,1,0,-7.300799847,0.0413270779,1594889741.70225
2020/07/16/17:55:41.802570,73389,1594889741,802256107,,,0,1594889728,-117.9772644,-193.2260895,5.547624111,72.7906189,0.348495126,-0.0354533307,0.100117549,1,0,-6.692399979,0.0421118252,1594889741.80226
2020/07/16/17:55:41.902571,73390,1594889741,902253150,,,0,1594889728,-119.1227264,-195.0378113,5.545853615,74.06254578,0.325235724,0.0423632152,0.0836689472,1,0,-5.272799969,0.0429845564,1594889741.90225
2020/07/16/17:55:42.002574,73391,1594889742,2258062,,,0,1594889728,-120.2956619,-196.8754425,5.549154282,75.31835938,0.333149463,0.0514019616,0.0574623942,1,0,-2.737799883,0.0438728891,1594889742.00226
2020/07/16/17:55:42.102568,73392,1594889742,102244377,,,0,1594889728,-120.6696167,-197.4585724,5.551333427,75.71149445,0.323329568,-0.0132441064,0.0532722026,1,0,-1.825199962,0.0441546999,1594889742.10224
2020/07/16/17:55:42.202570,73393,1594889742,202255725,,,0,1594889728,-122.2588882,-199.9274292,5.557021141,77.37006378,0.330875099,-0.0664613619,0.0155589879,1,0,1.166100025,0.0453521013,1594889742.20226
2020/07/16/17:55:42.302634,73394,1594889742,302269458,,,0,1594889728,-123.7425308,-202.2259979,5.555858135,78.84676361,0.335882366,-0.0126082394,-0.00133915246,1,0,1.064700007,0.0464653037,1594889742.30227
2020/07/16/17:55:42.402622,73395,1594889742,402257919,,,0,1594889728,-124.747345,-203.7824097,5.554598331,79.84280396,0.342388809,0.00388973346,-0.0106966943,1,0,1.368899941,0.0472180881,1594889742.40226
2020/07/16/17:55:42.502627,73396,1594889742,502260684,,,0,1594889728,-126.166748,-205.983429,5.553227425,81.22135925,0.340906799,0.0132987918,-0.0106278509,1,0,1.977299929,0.0482849814,1594889742.50226
2020/07/16/17:55:42.602612,73397,1594889742,602250337,,,0,1594889728,-126.5711517,-206.6112366,5.55297327,81.6076355,0.338157535,0.0122342883,-0.0225788653,1,0,1.977299929,0.0485901795,1594889742.60225
2020/07/16/17:55:42.702617,73398,1594889742,702256917,,,0,1594889728,-128.2807922,-209.2709351,5.551624775,83.24555206,0.330789059,-0.029159151,-0.0346744359,1,0,1.774499893,0.0498756021,1594889742.70226
2020/07/16/17:55:42.802621,73399,1594889742,802262544,,,0,1594889728,-129.5249786,-211.2137451,5.549137592,84.42788696,0.329579532,0.0463989377,-0.0318638086,1,0,1.166100025,0.0508157201,1594889742.80226
2020/07/16/17:55:42.902698,73400,1594889742,902323007,,,0,1594889728,-131.2838135,-213.9695282,5.551354885,86.03922272,0.339529097,-0.00370384427,-0.0117584616,1,0,0.506999969,0.0521490462,1594889742.90232
2020/07/16/17:55:43.002532,73401,1594889743,2217054,,,0,1594889728,-132.135849,-215.3067932,5.553739548,86.82962799,0.32491836,-0.03197385,-0.0105811507,1,0,0.506999969,0.0527967252,1594889743.00222
2020/07/16/17:55:43.102526,73402,1594889743,102206230,,,0,1594889728,-133.2698517,-217.0884399,5.555361748,87.84233856,0.332369983,-0.0398746021,-0.0286771208,1,0,0.506999969,0.0536566712,1594889743.10221
2020/07/16/17:55:43.202519,73403,1594889743,202205657,,,0,1594889728,-134.6945648,-219.3299866,5.555053711,89.11024475,0.339860529,-0.0317467526,-0.0261835009,1,0,0.659099996,0.0547354855,1594889743.20221
2020/07/16/17:55:43.302527,73404,1594889743,302223205,,,0,1594889728,-135.6950836,-220.905838,5.554340839,89.97935486,0.330189347,0.0297929589,-0.0166682154,1,0,0.659099996,0.0554951541,1594889743.30222
2020/07/16/17:55:43.402542,73405,1594889743,402219533,,,0,1594889728,-137.6004181,-223.9101868,5.555825233,91.5782547,0.317956179,-0.0292244628,0.000130563974,1,0,0.709799945,0.0569400117,1594889743.40222
2020/07/16/17:55:43.502537,73406,1594889743,502223014,,,0,1594889728,-138.9573059,-226.0519867,5.554357052,92.71569061,0.314105749,-0.0310803298,-0.0270687863,1,0,1.064700007,0.0579716675,1594889743.50222
2020/07/16/17:55:43.602522,73407,1594889743,602218389,,,0,1594889728,-140.2871552,-228.1546783,5.548764229,93.78458405,0.305407584,0.0958625674,-0.033275716,1,0,2.078700066,0.0589866266,1594889743.60222
2020/07/16/17:55:43.702475,73408,1594889743,702213287,,,0,1594889728,-141.8401031,-230.617569,5.548783779,94.98318481,0.315453857,0.0681871548,-0.0526345149,1,0,4.005299568,0.0601751581,1594889743.70221
2020/07/16/17:55:43.802481,73409,1594889743,802217006,,,0,1594889728,-143.0254364,-232.5042267,5.552492619,95.90776062,0.329506457,-0.0347036868,-0.0686768442,1,0,5.222100258,0.0610768422,1594889743.80222
2020/07/16/17:55:43.902478,73410,1594889743,902207374,,,0,1594889728,-144.9023132,-235.5106659,5.555772781,97.31118011,0.31857273,-0.00842432957,-0.103117719,1,0,5.982599735,0.0625202283,1594889743.90221
2020/07/16/17:55:44.002468,73411,1594889744,2205133,,,0,1594889728,-146.1465302,-237.520813,5.557475567,98.22773743,0.27062422,-0.049428463,-0.115063883,1,0,5.982599735,0.0634862557,1594889744.00221
2020/07/16/17:55:44.102462,73412,1594889744,102196931,,,0,1594889728,-147.3953552,-239.5539856,5.557621479,99.14564514,0.289556235,0.00720401807,-0.139738455,1,0,6.743099689,0.064460285,1594889744.10220
2020/07/16/17:55:44.202483,73413,1594889744,202203035,,,0,1594889728,-148.7763367,-241.8248291,5.556410313,100.055954,0.172890976,0.0922281891,-0.174639583,0.594850004,0,7.300799847,0.0655463338,1594889744.20220
2020/07/16/17:55:44.302483,73414,1594889744,302210330,,,0,1594889728,-150.4915009,-244.68573,5.562005997,99.90835571,-0.0924880877,-0.0396495722,-0.150575683,0,0,5.272799969,0.0669185743,1594889744.30221
2020/07/16/17:55:44.402476,73415,1594889744,402208328,,,0,1594889728,-151.6774597,-246.6884766,5.566849709,99.62097168,-0.119968817,-0.172331646,-0.134234473,0,0.0471373722,5.982599735,0.0678726733,1594889744.40221
2020/07/16/17:55:44.502500,73416,1594889744,502215385,,,0,1594889728,-152.8865662,-248.7485504,5.562363625,97.7947998,-0.920583248,-0.102055542,-0.125824809,0,0.916450858,6.134699821,0.0688545555,1594889744.50222
2020/07/16/17:55:44.602490,73417,1594889744,602216958,,,0,1594889728,-154.7595062,-251.9698639,5.543013573,92.64068604,-1.135976434,0.0087717101,-0.109270781,0,1,4.562999725,0.0704032481,1594889744.60222
2020/07/16/17:55:44.702570,73418,1594889744,702260971,,,0,1594889728,-155.2936554,-252.8955383,5.53824234,90.93836975,-1.111236453,0.037000481,-0.10985592,0,1,5.678399563,0.0708511919,1594889744.70226
2020/07/16/17:55:44.802500,73419,1594889744,802221059,,,0,1594889728,-157.0367279,-255.9467163,5.535242081,85.09254456,-1.135373592,0.00537062436,-0.118712425,0,1,2.687099934,0.0723115355,1594889744.80222
2020/07/16/17:55:44.902551,73420,1594889744,902368307,,,0,1594889728,-158.025116,-257.6985168,5.540987015,81.76288605,-0.990024209,-0.051936809,-0.14691335,0,1,2.991299868,0.0731469691,1594889744.90237
2020/07/16/17:55:45.002589,73421,1594889745,2275943,,,0,1594889728,-159.1888428,-259.7848511,5.547810078,77.87550354,-1.002472997,-0.129050791,-0.0826459527,0,1,0.152099997,0.0741372854,1594889745.00228
2020/07/16/17:55:45.102494,73422,1594889745,102212429,,,0,1594889728,-160.2872009,-261.7759399,5.549342155,73.99284363,-1.071602821,-0.0690371245,-0.0665497482,0,1,0.861899972,0.0750804543,1594889745.10221
2020/07/16/17:55:45.202489,73423,1594889745,202200651,,,0,1594889728,-161.0115967,-263.1002502,5.549112797,71.25149536,-1.043879986,-0.048630096,-0.0622644424,0,1,3.194099903,0.0757000521,1594889745.20220
2020/07/16/17:55:45.302499,73424,1594889745,302209138,,,0,1594889728,-161.8930969,-264.7251892,5.548593521,67.72092438,-1.064664125,-0.0730622709,-0.0764232576,0,1,7.807799816,0.0764629841,1594889745.30221
2020/07/16/17:55:45.402566,73425,1594889745,402259111,,,0,1594889728,-162.822937,-266.4602966,5.547801971,63.93074799,-0.857201695,-0.0681694895,-0.128631622,0,0.568547368,12.42149925,0.0772705749,1594889745.40226
2020/07/16/17:55:45.502599,73426,1594889745,502269029,,,0,1594889728,-163.8630981,-268.446106,5.546136379,61.56183243,-0.430645347,-0.0103105381,-0.196539029,0,0.341159374,19.51950073,0.0781794935,1594889745.50227
2020/07/16/17:55:45.602577,73427,1594889745,602254152,,,0,1594889728,-164.3497009,-269.3997192,5.545890808,60.96715546,-0.180552274,0.0272052977,-0.238421917,0,0.0809639096,22.916399,0.0786159188,1594889745.60225
2020/07/16/17:55:45.702585,73428,1594889745,702261447,,,0,1594889728,-165.3108063,-271.3529053,5.548779488,60.60396957,-0.0540213957,0.0207179859,-0.334623188,0,0.00752084423,33.96900177,0.0794901028,1594889745.70226
2020/07/16/17:55:45.802580,73429,1594889745,802260160,,,0,1594889728,-166.0541992,-272.954071,5.553902626,60.46188736,-0.0562917069,-0.00747114932,-0.419031143,0,0,47.65799713,0.0801951289,1594889745.80226
2020/07/16/17:55:45.902535,73430,1594889745,902257680,,,0,1594889728,-166.5586243,-274.1068115,5.556741714,60.34511948,-0.0563595593,-0.0564605854,-0.512055457,0,0,61.14419937,0.0806930363,1594889745.90226
2020/07/16/17:55:46.002589,73431,1594889746,2262830,,,0,1594889728,-167.2342072,-275.7710876,5.556612492,59.01192856,-0.691105783,-0.068066217,-0.311887413,0,0,71.18279266,0.0814030245,1594889746.00226
2020/07/16/17:55:46.102587,73432,1594889746,102269172,,,0,1594889728,-167.9263458,-277.6779785,5.551883698,57.46763611,-0.173429459,-0.00740090013,-0.718265116,0,0,82.13400269,0.0821988583,1594889746.10227
2020/07/16/17:55:46.202561,73433,1594889746,202247619,,,0,1594889728,-168.2153778,-278.5874023,5.54987669,57.10142899,-0.148310363,0.000167307328,-0.747071683,0,0,81.82979584,0.0825716183,1594889746.20225
2020/07/16/17:55:46.302592,73434,1594889746,302275419,,,0,1594889728,-168.7655334,-280.6407776,5.547763348,56.34615326,-0.163767219,-0.00612617843,-0.811715722,0,0,84.46619415,0.0833980367,1594889746.30228
2020/07/16/17:55:46.402579,73435,1594889746,402261257,,,0,1594889728,-169.0844116,-282.1960144,5.547258377,55.77952957,-0.157055289,-0.0192860849,-0.837487936,0,0,90.14459991,0.0840134472,1594889746.40226
2020/07/16/17:55:46.502398,73436,1594889746,502245903,,,0,1594889728,-169.2383881,-283.1561279,5.54673481,55.40397263,-0.172938392,-0.0020899279,-0.832590282,0,0,90.24599457,0.0843849257,1594889746.50225
2020/07/16/17:55:46.602569,73437,1594889746,602269649,,,0,1594889728,-169.4172211,-284.7062073,5.546469688,54.80773163,-0.167046815,-0.027332779,-0.812099457,0,0,82.53959656,0.0849875659,1594889746.60227
2020/07/16/17:55:46.702579,73438,1594889746,702276706,,,0,1594889728,-169.5116882,-286.247345,5.545698643,54.2580719,-0.144590437,-0.0286725033,-0.747080863,0,0,67.12679291,0.0855812803,1594889746.70228
2020/07/16/17:55:46.802595,73439,1594889746,802272558,,,0,1594889728,-169.5294342,-287.7323303,5.543213367,53.85255814,-0.0411442257,-0.0248087645,-0.667026818,0.172100008,0,47.65799713,0.0861516222,1594889746.80227
2020/07/16/17:55:46.902703,73440,1594889746,902327299,,,0,1594889728,-169.4813538,-289.2568054,5.53939724,53.86130905,0.0571500957,-0.00636147195,-0.586009681,0.492700011,0,37.41659927,0.0867284834,1594889746.90233
2020/07/16/17:55:47.002583,73441,1594889747,2265930,,,0,1594889728,-169.3774567,-290.7382813,5.536224365,54.18789291,0.143773511,0.0410033353,-0.53906256,0.671599984,0,37.41659927,0.0872905776,1594889747.00227
2020/07/16/17:55:47.102509,73442,1594889747,102221488,,,0,1594889728,-169.2166138,-292.2749634,5.535265446,54.86579514,0.214171648,0.0209101867,-0.452428162,0.727050006,0,38.63339996,0.0878682956,1594889747.10222
2020/07/16/17:55:47.202512,73443,1594889747,202211856,,,0,1594889728,-169.0074005,-293.8284607,5.536240578,55.7335968,0.256338656,-0.00612469483,-0.392943323,0.738550007,0,41.37119675,0.0884605348,1594889747.20221
2020/07/16/17:55:47.302510,73444,1594889747,302209138,,,0,1594889728,-168.6790924,-295.8220825,5.537596703,56.97730255,0.279711932,0.00189349125,-0.400852501,0.740750015,0,43.80479813,0.0892142877,1594889747.30221
2020/07/16/17:55:47.402570,73445,1594889747,402252912,,,0,1594889728,-168.4647369,-296.9498291,5.538354874,57.72220612,0.279181004,-0.0177877247,-0.384202689,0.74364996,0,44.81879807,0.0896427333,1594889747.40225
2020/07/16/17:55:47.502579,73446,1594889747,502258062,,,0,1594889728,-168.0104828,-299.0457153,5.539036751,59.15962601,0.295090079,0.0345527306,-0.471190214,0.744650006,0,52.93079758,0.0904343873,1594889747.50226
2020/07/16/17:55:47.602572,73447,1594889747,602255105,,,0,1594889728,-167.8113098,-299.8644409,5.539996624,59.7073555,0.316670835,-0.00364280236,-0.506135523,0.742200017,0,58.00080109,0.0907389671,1594889747.60226
2020/07/16/17:55:47.702579,73448,1594889747,702256679,,,0,1594889728,-167.2253265,-301.9992676,5.54438591,60.83676147,0.12292663,-0.00799512956,-0.632068634,0.274399996,0,76.86119843,0.0915518254,1594889747.70226
2020/07/16/17:55:47.802581,73449,1594889747,802258729,,,0,1594889728,-166.7145081,-303.5921631,5.549147606,60.66521835,-0.166261777,-0.02113989,-0.711217761,0,0,85.88579559,0.0921549648,1594889747.80226
2020/07/16/17:55:47.902566,73450,1594889747,902248859,,,0,1594889728,-166.1246338,-305.1972351,5.552491188,60.09212875,-0.145917326,-0.0486215614,-0.76650089,0,0,90.04319763,0.0927725807,1594889747.90225
2020/07/16/17:55:48.002560,73451,1594889748,2241611,,,0,1594889728,-165.6084137,-306.4398804,5.553012371,59.57917023,-0.199240923,-0.00447670324,-0.846789241,0,0,88.62359619,0.0932554603,1594889748.00224
2020/07/16/17:55:48.102580,73452,1594889748,102248668,,,0,1594889728,-164.9608612,-307.8262024,5.554788589,58.95026779,-0.18363446,0.00542517845,-0.868137002,0,0,87.5082016,0.0938113108,1594889748.10225
2020/07/16/17:55:48.202590,73453,1594889748,202260971,,,0,1594889728,-164.2545166,-309.1653442,5.558351517,58.33565521,-0.176917136,0.00381386094,-0.906843662,0,0,86.89979553,0.094358243,1594889748.20226
2020/07/16/17:55:48.302589,73454,1594889748,302256345,,,0,1594889728,-163.1518097,-310.9778748,5.564965725,57.46884537,-0.175770015,-0.0443264768,-0.90080297,0,0,86.89979553,0.0951223969,1594889748.30226
2020/07/16/17:55:48.402621,73455,1594889748,402271986,,,0,1594889728,-162.1948547,-312.3396912,5.569127083,56.74654007,-0.176473081,-0.0318465717,-0.946148992,0,0,85.98719788,0.0957211182,1594889748.40227
2020/07/16/17:55:48.502634,73456,1594889748,502256631,,,0,1594889728,-161.0806427,-313.7319641,5.572768211,55.96299744,-0.182527363,0.00311822072,-0.923897266,0,0,84.06059265,0.0963521451,1594889748.50226
2020/07/16/17:55:48.602631,73457,1594889748,602254867,,,0,1594889728,-160.4645538,-314.4270325,5.574952602,55.56009293,-0.189857036,-0.025347108,-0.921929061,0,0,83.24939728,0.0966774076,1594889748.60225
2020/07/16/17:55:48.702641,73458,1594889748,702264308,,,0,1594889728,-159.341217,-315.5797729,5.577628136,54.88249207,-0.165309668,-0.0222685765,-0.899290681,0,0,82.84379578,0.0972454995,1594889748.70226
2020/07/16/17:55:48.802634,73459,1594889748,802259922,,,0,1594889728,-158.1992493,-316.620575,5.578763008,54.25725555,-0.1667265,-0.0472216159,-0.86483717,0,0,81.82979584,0.0977835134,1594889748.80226
2020/07/16/17:55:48.902658,73460,1594889748,902275085,,,0,1594889728,-157.0130005,-317.5830994,5.577613831,53.64672089,-0.139530361,-0.00969035272,-0.840685487,0,0,77.16539764,0.0983282179,1594889748.90228
2020/07/16/17:55:49.002606,73461,1594889749,2245187,,,0,1594889728,-155.6417694,-318.5671692,5.57507658,53.02489853,-0.15261215,-0.0269928444,-0.808271885,0,0,69.15480041,0.0989258289,1594889749.00225
2020/07/16/17:55:49.102592,73462,1594889749,102256298,,,0,1594889728,-154.2276001,-319.4590759,5.570613384,52.73495483,0.00395816565,-0.0241065733,-0.755198479,0.436749995,0,63.375,0.0994994789,1594889749.10226
2020/07/16/17:55:49.202595,73463,1594889749,202246189,,,0,1594889728,-153.8094788,-319.7018738,5.568982601,52.76120377,0.0393399,-0.00196750276,-0.715931475,0.544499993,0,63.17219543,0.0996693447,1594889749.20225
2020/07/16/17:55:49.302587,73464,1594889749,302234649,,,0,1594889728,-152.0930176,-320.6106873,5.563111782,53.2580719,0.157081842,0.00281760143,-0.65997231,0.672100008,0,66.31559753,0.100325964,1594889749.30223
2020/07/16/17:55:49.402590,73465,1594889749,402259349,,,0,1594889728,-150.7172852,-321.249054,5.559045792,53.6986084,0.0456361026,0.00205458049,-0.630866826,0.1162,0,68.95199585,0.100856744,1594889749.40226
2020/07/16/17:55:49.502646,73466,1594889749,502268314,,,0,1594889728,-149.1890106,-321.8760681,5.555439472,53.37720871,-0.114014298,0.00404310133,-0.615102053,0,0,68.74919891,0.101428188,1594889749.50227
2020/07/16/17:55:49.602614,73467,1594889749,602238416,,,0,1594889728,-148.0648956,-322.286499,5.552733898,53.0345192,-0.126845419,-0.0161863212,-0.632362664,0,0,69.05339813,0.101850919,1594889749.60224
2020/07/16/17:55:49.702635,73468,1594889749,702268362,,,0,1594889728,-146.5156403,-322.7833862,5.548813343,52.5568161,-0.127809733,-0.0186194051,-0.618904769,0,0,70.16880035,0.102423504,1594889749.70227
2020/07/16/17:55:49.802634,73469,1594889749,802259206,,,0,1594889728,-145.0847015,-323.1721191,5.544910431,52.23914337,0.00901968777,-0.0151752029,-0.634586215,0.432150006,0,70.57440186,0.102953196,1594889749.80226
2020/07/16/17:55:49.902617,73470,1594889749,902239799,,,0,1594889728,-143.6359406,-323.4979248,5.539475918,52.68715668,0.219186544,-0.0156796984,-0.635825932,0.901049972,0,70.87860107,0.103471734,1594889749.90224
2020/07/16/17:55:50.002639,73471,1594889750,2261400,,,0,1594889728,-142.0204773,-323.7835693,5.532886028,53.68393326,0.272558212,0.0149305323,-0.638042271,0.898100019,0,71.99399567,0.104052633,1594889750.00226
2020/07/16/17:55:50.102636,73472,1594889750,102258205,,,0,1594889728,-140.4963989,-323.9829102,5.52780056,54.75183487,0.330364764,0.0341439769,-0.626641273,0.883949995,0,72.29820251,0.104600124,1594889750.10226
2020/07/16/17:55:50.202614,73473,1594889750,202238559,,,0,1594889728,-138.7935486,-324.131134,5.524168491,56.04755783,0.345814943,0.0235137045,-0.620317638,0.89199996,0,72.09539795,0.105209418,1594889750.20224
2020/07/16/17:55:50.302630,73474,1594889750,302252531,,,0,1594889728,-138.137085,-324.1687012,5.523375988,56.56729126,0.351432949,0.00194116274,-0.622884393,0.895900011,0,72.19680023,0.105459481,1594889750.30225
2020/07/16/17:55:50.402606,73475,1594889750,402257442,,,0,1594889728,-136.0786438,-324.2197876,5.520861149,58.26729584,0.377080142,-0.00802064873,-0.623834193,0.895900011,0,72.3996048,0.106213048,1594889750.40226
2020/07/16/17:55:50.502597,73476,1594889750,502248764,,,0,1594889728,-134.2082825,-324.1812744,5.517329216,59.75103378,0.303575337,-0.017381018,-0.658786118,0.736599982,0,73.00799561,0.106914259,1594889750.50225
2020/07/16/17:55:50.602612,73477,1594889750,602265119,,,0,1594889728,-132.6565399,-324.0874634,5.512934208,60.41227341,0.0890736282,-0.0282075182,-0.696780443,0.117700011,0,72.19680023,0.107487351,1594889750.60227
2020/07/16/17:55:50.702607,73478,1594889750,702258110,,,0,1594889728,-130.8080139,-323.8988953,5.506689548,60.02653503,-0.171232909,-0.0138884811,-0.700209379,0,0,71.89260101,0.108189121,1594889750.70226
2020/07/16/17:55:50.802350,73479,1594889750,802239418,,,0,1594889728,-129.4276276,-323.7004089,5.502502441,59.55826187,-0.158486888,0.0499558188,-0.765146792,0,0,71.58839416,0.108710982,1594889750.80224
2020/07/16/17:55:50.902610,73480,1594889750,902262687,,,0,1594889728,-127.7777786,-323.3928833,5.50082016,58.96667862,-0.160976395,0.0466901064,-0.784764588,0,0,71.28419495,0.109336987,1594889750.90226
2020/07/16/17:55:51.002596,73481,1594889751,2261877,,,0,1594889728,-126.4436111,-323.0837097,5.502748489,58.48452759,-0.146751985,0.0122064603,-0.778728962,0,0,71.08139801,0.109841593,1594889751.00226
2020/07/16/17:55:51.102588,73482,1594889751,102246999,,,0,1594889728,-124.3505173,-322.4819946,5.507818222,57.74574661,-0.139365196,-0.0389254987,-0.80048269,0,0,70.98000336,0.110654175,1594889751.10225
2020/07/16/17:55:51.202588,73483,1594889751,202255964,,,0,1594889728,-123.5774612,-322.2215576,5.508978844,57.46386719,-0.146312445,-0.0397211835,-0.796301961,0,0,70.87860107,0.110955484,1594889751.20226
2020/07/16/17:55:51.302591,73484,1594889751,302254676,,,0,1594889728,-121.5829926,-321.447876,5.510035515,56.69574356,-0.173829347,0.0017703115,-0.81268388,0,0,70.27019501,0.111763097,1594889751.30225
2020/07/16/17:55:51.402595,73485,1594889751,402245521,,,0,1594889728,-120.0880203,-320.7636108,5.511794567,56.11348724,-0.143396914,-0.000284163281,-0.773797989,0,0,69.96599579,0.112379633,1594889751.40225
2020/07/16/17:55:51.502619,73486,1594889751,502265691,,,0,1594889728,-119.3392181,-320.3848267,5.513196945,55.82526398,-0.159404427,-0.00642478233,-0.792552829,0,0,70.06739807,0.112695381,1594889751.50227
2020/07/16/17:55:51.602616,73487,1594889751,602266550,,,0,1594889728,-117.4898224,-319.3385925,5.51706028,55.10490799,-0.122617096,-0.0275223777,-0.733643413,0,0,70.06739807,0.113506503,1594889751.60227
2020/07/16/17:55:51.702560,73488,1594889751,702232837,,,0,1594889728,-116.7920532,-318.900238,5.518153667,54.82573318,-0.144763231,-0.0237026326,-0.745140135,0,0,70.06739807,0.113820657,1594889751.70223
2020/07/16/17:55:51.802607,73489,1594889751,802259445,,,0,1594889728,-115.0411148,-317.684021,5.520502567,54.10468674,-0.136804402,-0.00348867616,-0.72998631,0,0,69.96599579,0.114637449,1594889751.80226
2020/07/16/17:55:51.902608,73490,1594889751,902260065,,,0,1594889728,-114.1528244,-316.9973145,5.522318363,53.73345184,-0.142458826,-0.0156672169,-0.727071285,0,0,69.96599579,0.11506851,1594889751.90226
2020/07/16/17:55:52.002568,73491,1594889752,2241849,,,0,1594889728,-112.5986404,-315.6673584,5.527073383,53.06565094,-0.134038985,-0.0382464863,-0.687801719,0,0,69.6618042,0.115869954,1594889752.00224
2020/07/16/17:55:52.102632,73492,1594889752,102255582,,,0,1594889728,-111.8923798,-315.0030518,5.529034138,52.75204468,-0.147812694,0.00290153408,-0.680626452,0,0,69.6618042,0.116247594,1594889752.10226
2020/07/16/17:55:52.202603,73493,1594889752,202261924,,,0,1594889728,-110.4647675,-313.5283508,5.5328722,52.1457634,-0.0526085198,-0.0384752043,-0.653898358,0.243650019,0,68.14080048,0.117061004,1594889752.20226
2020/07/16/17:55:52.302558,73494,1594889752,302229166,,,0,1594889728,-110.0598373,-313.0744324,5.533345699,52.14545441,0.0138427019,-0.00396899693,-0.660634995,0.552100003,0,67.22819519,0.117299914,1594889752.30223
2020/07/16/17:55:52.402592,73495,1594889752,402265071,,,0,1594889728,-108.7537918,-311.4880371,5.537093163,52.95082092,0.257005155,0.00382986385,-0.618965149,0.968699992,0,63.07079697,0.118113838,1594889752.40227
2020/07/16/17:55:52.502647,73496,1594889752,502267122,,,0,1594889728,-107.9803391,-310.4542542,5.541289806,53.84476852,0.334084183,-0.0173903853,-0.553019106,1,0,59.11619949,0.118626334,1594889752.50227
2020/07/16/17:55:52.602665,73497,1594889752,602258920,,,0,1594889728,-106.9692383,-308.9945374,5.546924591,55.35031128,0.383216292,-0.0237378199,-0.491416693,1,0,53.03219986,0.119333766,1594889752.60226
2020/07/16/17:55:52.702629,73498,1594889752,702251672,,,0,1594889728,-106.1338501,-307.6974182,5.549678326,56.74284363,0.419175893,-0.0547675565,-0.447867155,1,0,48.36779785,0.119952008,1594889752.70225
2020/07/16/17:55:52.802633,73499,1594889752,802258491,,,0,1594889728,-105.3385925,-306.3850403,5.549418926,58.22208405,0.449029386,0.0165754929,-0.447788835,1,0,44.61600113,0.120569065,1594889752.80226
2020/07/16/17:55:52.902663,73500,1594889752,902262926,,,0,1594889728,-104.4603271,-304.8431091,5.550085068,59.95699692,0.451082617,-1.51E-05,-0.4141078,1,0,39.6473999,0.121287532,1594889752.90226
2020/07/16/17:55:53.002623,73501,1594889753,2262115,,,0,1594889728,-103.9555664,-303.9117126,5.551107883,60.96385956,0.44275558,0.00109711103,-0.387490451,1,0,36.5039978,0.121719711,1594889753.00226
2020/07/16/17:55:53.102620,73502,1594889753,102259159,,,0,1594889728,-102.867897,-301.7918701,5.555039406,63.18359375,0.434571803,-0.0413533449,-0.353664875,1,0,31.63679886,0.122696012,1594889753.10226
2020/07/16/17:55:53.202621,73503,1594889753,202264308,,,0,1594889728,-102.0328445,-300.0588989,5.556799412,64.91511536,0.42840451,-0.0136173423,-0.341725618,1,0,28.79759979,0.12349423,1594889753.20226
2020/07/16/17:55:53.302633,73504,1594889753,302253723,,,0,1594889728,-101.7118378,-299.3678589,5.556959629,65.56891632,0.450943261,-0.04105331,-0.340758532,1,0,27.42869949,0.123814963,1594889753.30225
2020/07/16/17:55:53.402632,73505,1594889753,402256488,,,0,1594889728,-100.671814,-297.0319824,5.555694103,67.68225098,0.430312544,-0.0342982821,-0.305020154,1,0,22.10519981,0.124892622,1594889753.40226
2020/07/16/17:55:53.502637,73506,1594889753,502258062,,,0,1594889728,-99.89458466,-295.1896973,5.554118156,69.28408051,0.418323874,0.0161918812,-0.274697185,1,0,18.6576004,0.125748664,1594889753.50226
2020/07/16/17:55:53.602594,73507,1594889753,602243423,,,0,1594889728,-99.3456955,-293.8407898,5.5533638,70.39450073,0.414757669,-0.00224747742,-0.250518829,1,0,15.00720024,0.126377448,1594889753.60224
2020/07/16/17:55:53.702635,73508,1594889753,702256202,,,0,1594889728,-98.36624908,-291.3469543,5.554091454,72.35173798,0.401760161,-0.00642583426,-0.173084483,1,0,8.568299294,0.127542078,1594889753.70226
2020/07/16/17:55:53.802642,73509,1594889753,802266359,,,0,1594889728,-97.67256927,-289.5250854,5.555658817,73.72533417,0.380899191,-0.0150301829,-0.138198406,1,0,6.743099689,0.128377974,1594889753.80227
2020/07/16/17:55:53.902626,73510,1594889753,902251958,,,0,1594889728,-97.30400848,-288.5413208,5.556434155,74.45005035,0.408573091,-0.00949527044,-0.132699147,1,0,5.931900024,0.128832459,1594889753.90225
2020/07/16/17:55:54.002641,73511,1594889754,2262830,,,0,1594889728,-96.32604218,-285.8886414,5.556568146,76.11267853,0.235739201,-0.00342818024,-0.0751006752,0.504700005,0,1.825199962,0.130047143,1594889754.00226
2020/07/16/17:55:54.102632,73512,1594889754,102255821,,,0,1594889728,-95.50059509,-283.6193848,5.55616188,76.23451996,-0.0343529359,-0.0174941272,-0.0235947482,0,0,0.152099997,0.131077871,1594889754.10226
2020/07/16/17:55:54.202623,73513,1594889754,202247619,,,0,1594889728,-94.98159027,-282.1866455,5.555006981,76.15820313,-0.0417873822,-0.00297244918,-0.0119462889,0,0,-0.304199994,0.131725386,1594889754.20225
2020/07/16/17:55:54.302638,73514,1594889754,302260637,,,0,1594889728,-94.01121521,-279.5039063,5.550914764,76.00502014,-0.0451899134,0.0110148182,-0.00866415817,0.427749991,0,-0.101399995,0.132940397,1594889754.30226
2020/07/16/17:55:54.402637,73515,1594889754,402260303,,,0,1594889728,-93.40912628,-277.8370972,5.54848814,75.93747711,0.0380370729,0.00203672773,-0.00530751282,1,0,-0.608399987,0.133690059,1594889754.40226
2020/07/16/17:55:54.502638,73516,1594889754,502257823,,,0,1594889728,-92.51831818,-275.3695679,5.547832966,77.64186096,0.271903366,0.0232740678,-0.0103021935,1,0,0.45629999,0.134798467,1594889754.50226
2020/07/16/17:55:54.602634,73517,1594889754,602258920,,,0,1594889728,-91.81045532,-273.4084778,5.550262451,78.6513443,0.312203467,0.0383361466,0.00689040124,1,0,-0.608399987,0.135671198,1594889754.60226
2020/07/16/17:55:54.702621,73518,1594889754,702244758,,,0,1594889728,-91.36301422,-272.1697388,5.552816868,79.30310822,0.310294986,-0.048853863,0.00342219323,1,0,-0.405599982,0.136221945,1594889754.70224
2020/07/16/17:55:54.802624,73519,1594889754,802249431,,,0,1594889728,-90.41033173,-269.5336304,5.556222916,80.77243805,0.339829892,-0.00548976334,-0.00180487335,1,0,0.45629999,0.137390539,1594889754.80225
2020/07/16/17:55:54.902710,73520,1594889754,902330875,,,0,1594889728,-89.60293579,-267.2997437,5.557698727,82.0116806,0.339773953,0.000455803238,-0.0046633333,1,0,0,0.138379544,1594889754.90233
2020/07/16/17:55:55.002562,73521,1594889755,2234220,,,0,1594889728,-88.71231842,-264.8356323,5.557059288,83.36876678,0.330767453,-0.00782836415,-0.00103593618,1,0,0.45629999,0.139458954,1594889755.00223
2020/07/16/17:55:55.102552,73522,1594889755,102238655,,,0,1594889728,-88.0472641,-262.9940186,5.555896282,84.35749817,0.335313499,0.0303211622,-0.0103342384,1,0,0.152099997,0.140263185,1594889755.10224
2020/07/16/17:55:55.202605,73523,1594889755,202228784,,,0,1594889728,-87.30239105,-260.9296265,5.556302071,85.45059967,0.335023642,-0.0270757638,-0.00540420413,1,0,-0.202799991,0.141164318,1594889755.20223
2020/07/16/17:55:55.302620,73524,1594889755,302251338,,,0,1594889728,-86.37614441,-258.3623047,5.555678368,86.80699921,0.337293506,-0.0568082295,0.00201225281,1,0,-0.304199994,0.142275944,1594889755.30225
2020/07/16/17:55:55.402633,73525,1594889755,402261972,,,0,1594889728,-85.68437195,-256.4450378,5.552791119,87.80387878,0.355805874,-0.0178568102,-0.00627882034,1,0,0.45629999,0.143102452,1594889755.40226
2020/07/16/17:55:55.502638,73526,1594889755,502263069,,,0,1594889728,-84.9851532,-254.5056763,5.549132824,88.79324341,0.327387989,0.00739374477,-0.00596430898,1,0,0.152099997,0.143936813,1594889755.50226
2020/07/16/17:55:55.602641,73527,1594889755,602266788,,,0,1594889728,-83.81955719,-251.2729187,5.545005321,90.39640808,0.325317353,0.0573532395,-0.00147705525,1,0,0.304199994,0.145324111,1594889755.60227
2020/07/16/17:55:55.702629,73528,1594889755,702254772,,,0,1594889728,-83.3576355,-249.9923859,5.545654774,91.00537109,0.305552363,0.0643346235,0.00354064256,1,0,0.304199994,0.145871609,1594889755.70225
2020/07/16/17:55:55.802627,73529,1594889755,802260398,,,0,1594889728,-82.18939972,-246.7535706,5.554450512,92.52135468,0.301289201,-0.0139664328,-0.00545405596,1,0,0.304199994,0.147255048,1594889755.80226
2020/07/16/17:55:55.902638,73530,1594889755,902263402,,,0,1594889728,-81.5324173,-244.931015,5.559503078,93.36529541,0.313149154,-0.0535991527,-0.01475849,1,0,0,0.148031816,1594889755.90226
2020/07/16/17:55:56.002635,73531,1594889756,2262830,,,0,1594889728,-80.3089447,-241.5342865,5.558722019,94.89848328,0.302357703,-0.0331087634,0.00249294937,1,0,0.253499985,0.149480894,1594889756.00226
2020/07/16/17:55:56.102634,73532,1594889756,102259874,,,0,1594889728,-79.47360229,-239.2140808,5.554683685,95.91092682,0.290363938,0.0811335072,-0.0102953538,1,0,0.912599981,0.15047124,1594889756.10226
2020/07/16/17:55:56.202627,73533,1594889756,202254533,,,0,1594889728,-78.98496246,-237.8556519,5.554369926,96.47969818,0.286202639,0.0408586189,-0.0203286037,0.911549985,0,2.180099726,0.151051715,1594889756.20225
2020/07/16/17:55:56.302628,73534,1594889756,302257776,,,0,1594889728,-77.75605774,-234.43013,5.560126305,97.39769745,0.0881255195,0.0553105175,-0.0107215587,0.437250018,0,0.152099997,0.152517617,1594889756.30226
2020/07/16/17:55:56.402628,73535,1594889756,402260303,,,0,1594889728,-76.79682922,-231.7511597,5.565122604,97.66880035,0.0381369516,-0.0705337226,-0.00349255838,0.139400005,0,-0.608399987,0.153664917,1594889756.40226
2020/07/16/17:55:56.502632,73536,1594889756,502270460,,,0,1594889728,-76.02967834,-229.6063385,5.562934875,97.51616669,-0.0938349888,-0.0898832306,-0.00108256564,0,0,-1.013999939,0.154583856,1594889756.50227
2020/07/16/17:55:56.602634,73537,1594889756,602262020,,,0,1594889728,-75.26502228,-227.4674988,5.55522871,97.20750427,-0.102072611,-0.0432030372,0.00456161983,0,0,-0.506999969,0.155504987,1594889756.60226
2020/07/16/17:55:56.702640,73538,1594889756,702268123,,,0,1594889728,-74.23097992,-224.5759888,5.543836594,96.78125,-0.104678176,0.0151318926,0.0119427443,0,0,-0.202799991,0.156755358,1594889756.70227
2020/07/16/17:55:56.802620,73539,1594889756,802251100,,,0,1594889728,-72.98490143,-221.0926666,5.536599159,96.26461792,-0.109936364,0.126543835,0.00270277262,0,0,0.253499985,0.158263564,1594889756.80225
2020/07/16/17:55:56.902653,73540,1594889756,902296781,,,0,1594889728,-72.52616119,-219.8100586,5.537691116,96.07459259,-0.108711623,0.0817949548,-0.0013441667,0,0,-0.101399995,0.158819959,1594889756.90230
2020/07/16/17:55:57.002559,73541,1594889757,2232551,,,0,1594889728,-71.31665039,-216.4268494,5.550570965,95.59482574,-0.0970191285,-0.0101520382,-0.00877065025,0,0,-0.202799991,0.160292,1594889757.00223
2020/07/16/17:55:57.102542,73542,1594889757,102212667,,,0,1594889728,-70.46067047,-214.0304871,5.558013916,95.28103638,-0.0987884551,-0.0996444151,2.78E-05,0,0,0.659099996,0.161334559,1594889757.10221
2020/07/16/17:55:57.202598,73543,1594889757,202242612,,,0,1594889728,-69.82065582,-212.2385712,5.557610512,95.02594757,-0.111045666,-0.0243146643,0.00410591438,0,0,0.506999969,0.162113726,1594889757.20224
2020/07/16/17:55:57.302592,73544,1594889757,302258729,,,0,1594889728,-68.59873199,-208.8168182,5.553929329,94.65621185,-0.00317593361,-0.025140455,-0.0187441707,0.395000011,0,0.912599981,0.163605243,1594889757.30226
2020/07/16/17:55:57.402599,73545,1594889757,402267456,,,0,1594889728,-67.69746399,-206.2883301,5.551747799,94.87649536,0.108651623,-0.0430369005,-0.0162395034,0.757849991,0,1.064700007,0.16470781,1594889757.40227
2020/07/16/17:55:57.502588,73546,1594889757,502265691,,,0,1594889728,-67.21963501,-204.9455872,5.550004959,95.11725616,0.127205655,0.0221217591,-0.0205462966,0.76275003,0,1.774499893,0.165289536,1594889757.50227
2020/07/16/17:55:57.602555,73547,1594889757,602242469,,,0,1594889728,-66.02256775,-201.5688171,5.548573017,95.99893188,0.246376291,0.0582213402,-0.0616782308,1,0,5.222100258,0.166759863,1594889757.60224
2020/07/16/17:55:57.702631,73548,1594889757,702267646,,,0,1594889728,-65.11591339,-198.9893951,5.552421093,96.93370819,0.270137846,0.0259365682,-0.0804239213,1,0,5.222100258,0.167876631,1594889757.70227
2020/07/16/17:55:57.802616,73549,1594889757,802254676,,,0,1594889728,-64.74214935,-197.9190826,5.554589272,97.33537292,0.282432288,-0.020686673,-0.0832578763,1,0,5.069999695,0.168338686,1594889757.80225
2020/07/16/17:55:57.902595,73550,1594889757,902252435,,,0,1594889728,-63.54013443,-194.4440155,5.558492184,98.70969391,0.288468391,-0.00912601966,-0.110588275,1,0,5.272799969,0.169834599,1594889757.90225
2020/07/16/17:55:58.002563,73551,1594889758,2243518,,,0,1594889728,-62.44576645,-191.2293396,5.55548048,99.99267578,0.292111993,0.0313258097,-0.114297904,1,0,4.106699944,0.171218097,1594889758.00224
2020/07/16/17:55:58.102574,73552,1594889758,102260589,,,0,1594889728,-61.88585663,-189.5647278,5.553727627,100.6267395,0.277338713,-0.00188330072,-0.106236383,1,0,2.737799883,0.171929285,1594889758.10226
2020/07/16/17:55:58.202565,73553,1594889758,202254295,,,0,1594889728,-60.79394531,-186.2824707,5.553833008,101.6071625,0.05404073,0.0138779785,-0.0749888644,0.16625002,0,1.216799974,0.173337787,1594889758.20225
2020/07/16/17:55:58.302553,73554,1594889758,302254438,,,0,1594889728,-59.78892136,-183.2301483,5.557098866,101.2900925,-0.108332314,0.0265486725,-0.0336082801,0,0,-1.013999939,0.174651191,1594889758.30225
2020/07/16/17:55:58.402553,73555,1594889758,402258396,,,0,1594889728,-59.26349258,-181.6281433,5.559396744,101.0612488,-0.102776803,-0.0321297683,-0.0224672928,0,0,-1.622399926,0.175345823,1594889758.40226
2020/07/16/17:55:58.502564,73556,1594889758,502263545,,,0,1594889728,-58.09275818,-178.0523224,5.561697483,99.06558228,-0.789591253,-0.0739503056,-0.00026832521,0,0.686334431,-0.912599981,0.176901788,1594889758.50226
2020/07/16/17:55:58.602556,73557,1594889758,602260828,,,0,1594889728,-57.48398972,-176.1928711,5.560837746,96.79814911,-0.951693714,-0.0580811016,0.00717350841,0,1,-0.912599981,0.177715451,1594889758.60226
2020/07/16/17:55:58.702554,73558,1594889758,702255964,,,0,1594889728,-56.47904587,-173.1270142,5.554652691,92.34111786,-1.081488848,-0.07361494,0.0124354661,0,1,-0.506999969,0.179062396,1594889758.70226
2020/07/16/17:55:58.802549,73559,1594889758,802253246,,,0,1594889728,-55.61247253,-170.4885254,5.547151566,88.10858917,-1.115548134,-0.0132592395,0.0359178782,0,1,-4.25880003,0.180212647,1594889758.80225
2020/07/16/17:55:58.902704,73560,1594889758,902350425,,,0,1594889728,-55.0034256,-168.6426392,5.543785572,84.99802399,-1.159419656,-0.000641066581,0.0456334949,0,1,-5.272799969,0.181016803,1594889758.90235
2020/07/16/17:55:59.002594,73561,1594889759,2261400,,,0,1594889728,-54.24210358,-166.3512878,5.544241905,80.89700317,-1.104337215,-0.0143380351,0.0435841978,0,1,-3.346199989,0.182019502,1594889759.00226
2020/07/16/17:55:59.102582,73562,1594889759,102251291,,,0,1594889728,-53.59505844,-164.4165955,5.548260212,77.41094208,-0.995321572,-0.053749904,0.042720288,0,1,0.45629999,0.18285878,1594889759.10225
2020/07/16/17:55:59.202564,73563,1594889759,202266693,,,0,1594889728,-52.9150238,-162.3912048,5.551730156,73.73181152,-0.982928693,-0.109047577,0.0254140198,0,1,1.774499893,0.183738515,1594889759.20227
2020/07/16/17:55:59.302578,73564,1594889759,302265405,,,0,1594889728,-52.26669312,-160.4651337,5.551008701,70.04634857,-0.972144067,-0.0729630142,0.0276668668,0,0.769653141,0.709799945,0.18457301,1594889759.30227
2020/07/16/17:55:59.402579,73565,1594889759,402268648,,,0,1594889728,-51.50487518,-158.2123261,5.548194408,66.45562744,-0.547118425,-0.0135477195,0.0257503241,0,0.315105945,1.166100025,0.185557023,1594889759.40227
2020/07/16/17:55:59.502582,73566,1594889759,502268314,,,0,1594889728,-50.90531921,-156.448288,5.547869682,65.42225647,-0.157188907,0.0383046083,0.0196232814,0,0.0484198928,1.166100025,0.186334014,1594889759.50227
2020/07/16/17:55:59.602562,73567,1594889759,602253198,,,0,1594889728,-50.53663254,-155.3667297,5.54934454,65.21606445,-0.0641608983,0.0210555512,0.00616392307,0,0.00940093212,1.622399926,0.18681024,1594889759.60225
2020/07/16/17:55:59.702568,73568,1594889759,702257633,,,0,1594889728,-49.74872208,-153.0559387,5.554592609,65.05935669,-0.0127620082,-0.0485514998,-0.0112450793,0,0,0.304199994,0.187837675,1594889759.70226
2020/07/16/17:55:59.802566,73569,1594889759,802253484,,,0,1594889728,-49.50404739,-152.337616,5.555324078,65.03773499,-0.0151078701,-0.0422834232,-0.00679235626,0,0,-0.304199994,0.188160226,1594889759.80225
2020/07/16/17:55:59.902627,73570,1594889759,902264833,,,0,1594889728,-48.71844482,-150.0306244,5.554072857,64.93595886,-0.0280468185,-0.00548954727,0.012434734,0,0,-1.216799974,0.189211637,1594889759.90226
2020/07/16/17:56:00.002630,73571,1594889760,2264738,,,0,1594889728,-48.05440903,-148.0864563,5.551641941,64.82841492,-0.0152109815,0.012674327,0.0373629518,0,0,-5.678399563,0.19011344,1594889760.00226
2020/07/16/17:56:00.102571,73572,1594889760,102255105,,,0,1594889728,-47.79128647,-147.3203583,5.55093956,64.78538513,-0.0278730001,0.0248129927,0.0614315309,0,0,-7.605000019,0.190472513,1594889760.10226
2020/07/16/17:56:00.202583,73573,1594889760,202266454,,,0,1594889728,-46.99404144,-145.0283966,5.550441742,64.64279938,-0.0357165821,0.000398349017,0.135505095,0,0.0213033557,-16.02119827,0.191555813,1594889760.20227
2020/07/16/17:56:00.302589,73574,1594889760,302273273,,,0,1594889728,-46.29321671,-143.0716858,5.550095558,62.73324203,-0.8245368,-0.0295126867,0.0859573334,0,0.345533252,-25.55279922,0.192490518,1594889760.30227
2020/07/16/17:56:00.402582,73575,1594889760,402267932,,,0,1594889728,-45.72663116,-141.5408936,5.548575401,60.13237381,-0.683356762,-0.0394007564,0.265646338,0,0.724112868,-29.71019936,0.19322601,1594889760.40227
2020/07/16/17:56:00.502594,73576,1594889760,502276659,,,0,1594889728,-45.11019897,-139.9520111,5.546940804,56.92753601,-0.893008471,-0.0191936046,0.286065519,0,0.773159981,-32.95499802,0.193989679,1594889760.50228
2020/07/16/17:56:00.602579,73577,1594889760,602262973,,,0,1594889728,-44.43241119,-138.3016205,5.547210217,53.13273239,-0.911404967,-0.0518983752,0.302114129,0,0.783319771,-34.27319717,0.194768921,1594889760.60226
2020/07/16/17:56:00.702588,73578,1594889760,702271938,,,0,1594889728,-43.88259125,-137.0434875,5.547688007,50.14488983,-0.873254299,-0.0516781509,0.348608404,0,0.711552799,-35.79419708,0.195356324,1594889760.70227
2020/07/16/17:56:00.802562,73579,1594889760,802258968,,,0,1594889728,-43.38692474,-135.9755707,5.547932625,47.61413193,-0.773797274,-0.064100787,0.400249243,0,0.585526049,-40.35720062,0.19584313,1594889760.80226
2020/07/16/17:56:00.902721,73580,1594889760,902357101,,,0,1594889728,-43.14702606,-135.4831085,5.547775269,46.55465698,-0.599028468,-0.0310315676,0.451418608,0,0.408931404,-43.60199738,0.196068749,1594889760.90236
2020/07/16/17:56:01.002590,73581,1594889761,2275228,,,0,1594889728,-42.33803558,-133.9465942,5.547733307,44.42300415,-0.322563827,-0.0226984806,0.497702777,0,0.140092924,-61.65119553,0.196767166,1594889761.00228
2020/07/16/17:56:01.102585,73582,1594889761,102272748,,,0,1594889728,-41.66700363,-132.8113251,5.549282074,43.65377045,-0.161994696,-0.00379740819,0.539849877,0,0.0484198928,-82.43819427,0.197287917,1594889761.10227
2020/07/16/17:56:01.202571,73583,1594889761,202260732,,,0,1594889728,-41.03371429,-131.8430176,5.55191803,43.18860626,-0.141654819,-0.0463763885,0.574005485,0,0.0234205481,-99.67619324,0.197737381,1594889761.20226
2020/07/16/17:56:01.302563,73584,1594889761,302250146,,,0,1594889728,-40.05780029,-130.5210876,5.553634644,42.603508,-0.134704024,-0.0374536738,0.640304327,0,0.00235134992,-119.1449966,0.19836618,1594889761.30225
2020/07/16/17:56:01.402569,73585,1594889761,402258634,,,0,1594889728,-39.65389252,-130.0285339,5.553587437,42.36549759,-0.144477457,-0.0264751632,0.671313584,0,0.000362618535,-124.2656937,0.198609009,1594889761.40226
2020/07/16/17:56:01.502606,73586,1594889761,502262830,,,0,1594889728,-38.56456757,-128.8423615,5.553418159,41.72202301,-0.155133456,-0.0387525484,0.726686239,0,0,-133.2902985,0.199217752,1594889761.50226
2020/07/16/17:56:01.602599,73587,1594889761,602259874,,,0,1594889728,-38.04056168,-128.3382416,5.553053379,41.42640305,-0.16408354,-0.0168033075,0.754433393,0,0,-133.2902985,0.199491769,1594889761.60226
2020/07/16/17:56:01.702596,73588,1594889761,702256917,,,0,1594889728,-36.83774567,-127.3221664,5.554275513,40.79361725,-0.165507764,-0.0242785513,0.743612409,0,0,-132.1242065,0.200083241,1594889761.70226
2020/07/16/17:56:01.802584,73589,1594889761,802248239,,,0,1594889728,-36.45801926,-127.0375061,5.554884434,40.60514832,-0.152684599,-0.0477982424,0.737323344,0,0,-132.1748962,0.200261459,1594889761.80225
2020/07/16/17:56:01.902557,73590,1594889761,902269601,,,0,1594889728,-35.25656509,-126.2376251,5.556378841,40.02407074,-0.150648519,-0.0337700024,0.737298846,0,0,-131.6171875,0.200800568,1594889761.90227
2020/07/16/17:56:02.002548,73591,1594889762,2259731,,,0,1594889728,-34.06850433,-125.581543,5.558273315,39.4810791,-0.155276895,-0.0208346341,0.730619252,0,0,-131.2115936,0.201308504,1594889762.00226
2020/07/16/17:56:02.102548,73592,1594889762,102258920,,,0,1594889728,-33.44688797,-125.2862854,5.559507847,39.21259308,-0.151263267,-0.00932707731,0.721745372,0,0,-130.7045898,0.201563016,1594889762.10226
2020/07/16/17:56:02.202553,73593,1594889762,202266216,,,0,1594889728,-32.39523697,-124.8554688,5.562165737,38.78239441,-0.10460344,-0.0157238021,0.704884887,0.133300006,0,-129.2342987,0.201985732,1594889762.20227
