time,.header.seq,.header.stamp.secs,.header.stamp.nsecs,.header.frame_id,.identifier.data,.size.data,.TimeStamp.data,PosLocalX,PosLocalY,Height,GPS_Speed,AccelX,AccelY,AccelZ,PedalPosAcc,PedalPosBrk,AngleSteer,carPositionNormalized,TimeStamp
2020/07/16/17:23:13.217283,56471,1594887793,216900110,,,0,1594887808,-155.5674133,170.8933411,-7.201409817,7.803391457,0.140460953,-0.00383275887,0.105551772,1,0,-371.4281921,0.0428709798,1594887793.21690
2020/07/16/17:23:13.225400,56472,1594887793,225124597,,,0,1594887808,-155.5797729,170.8780823,-7.201094627,7.85554266,0.129700869,-0.00467145769,0.109091885,1,0,-370.8197632,0.0428762138,1594887793.22512
2020/07/16/17:23:13.317889,56473,1594887793,317567586,,,0,1594887808,-155.6434937,170.8008728,-7.199522495,8.113325119,0.132732645,-0.00367511227,0.107133575,1,0,-367.7270813,0.0428858586,1594887793.31757
2020/07/16/17:23:13.417873,56474,1594887793,417553663,,,0,1594887808,-155.7521057,170.674057,-7.197010517,8.535161018,0.144611925,-0.00368668232,0.120018899,1,0,-364.3808899,0.0429045931,1594887793.41755
2020/07/16/17:23:13.517902,56475,1594887793,517580986,,,0,1594887808,-155.9056549,170.5048065,-7.193629742,9.112235069,0.148882404,-0.000769539038,0.117410831,1,0,-354.6464844,0.042934902,1594887793.51758
2020/07/16/17:23:13.617891,56476,1594887793,617569446,,,0,1594887808,-156.1452332,170.2584991,-7.188299656,10.02949715,0.21075581,0.00408409582,0.104041897,1,0,-319.4606934,0.0429743044,1594887793.61757
2020/07/16/17:23:13.717880,56477,1594887793,717560052,,,0,1594887808,-156.3827972,170.0246124,-7.182695866,10.9772768,0.237540424,0.000506566896,0.0524843857,1,0,-269.2677002,0.0430095717,1594887793.71756
2020/07/16/17:23:13.817890,56478,1594887793,817562818,,,0,1594887808,-156.5522766,169.8591461,-7.178547859,11.69098282,0.271157295,0.0114963241,0.028475225,0.961149991,0,-231.6483002,0.0430357456,1594887793.81756
2020/07/16/17:23:13.917880,56479,1594887793,917558431,,,0,1594887808,-156.8063202,169.6091461,-7.171669006,12.64057636,0.231142074,0.000625354704,0.00180332363,0.692849994,0,-176.9936981,0.0430730842,1594887793.91756
2020/07/16/17:23:14.017865,56480,1594887794,17549514,,,0,1594887808,-156.9972382,169.4191742,-7.166452408,13.12791634,0.139269844,-0.00548775122,-0.00430915505,0.483649999,0,-144.7992096,0.0431028455,1594887794.01755
2020/07/16/17:23:14.117898,56481,1594887794,117561817,,,0,1594887808,-157.3470612,169.0702057,-7.157572269,13.80538654,0.172976226,-0.000205834222,0.023820281,0.646399975,0,-103.1238022,0.0431539789,1594887794.11756
2020/07/16/17:23:14.217870,56482,1594887794,217550516,,,0,1594887808,-157.6166687,168.8016052,-7.150506496,14.75843048,0.376420975,0.0121018132,-0.00508512557,1,0,-63.07079697,0.0431984998,1594887794.21755
2020/07/16/17:23:14.317864,56483,1594887794,317548751,,,0,1594887808,-157.9066162,168.507843,-7.142003536,16.10953522,0.431381583,0.00574128143,-0.0664370358,1,0,-24.8429985,0.0432442874,1594887794.31755
2020/07/16/17:23:14.417881,56484,1594887794,417567253,,,0,1594887808,-158.2187347,168.1804504,-7.132209301,17.71409416,0.513819218,0.00930680055,-0.11659196,1,0,12.06659889,0.0432997458,1594887794.41757
2020/07/16/17:23:14.517860,56485,1594887794,517560482,,,0,1594887808,-158.6867371,167.6607361,-7.115924358,20.3359623,0.593134701,-0.00773118436,-0.168977559,1,0,56.78399658,0.0433798917,1594887794.51756
2020/07/16/17:23:14.617856,56486,1594887794,617555618,,,0,1594887808,-159.0901184,167.1812286,-7.101640224,22.2493515,0.215672225,-0.00971144158,-0.233383745,0.294200003,0,90.24599457,0.0434546955,1594887794.61756
2020/07/16/17:23:14.717847,56487,1594887794,717549800,,,0,1594887808,-159.4462128,166.7252655,-7.088681698,22.32017708,-0.141258806,0.00945706852,-0.284585088,0,0,109.1063995,0.0435305201,1594887794.71755
2020/07/16/17:23:14.817844,56488,1594887794,817527532,,,0,1594887808,-159.7584229,166.2901306,-7.075992107,22.01474953,-0.130924284,-0.00717293471,-0.280063659,0,0,124.8233948,0.0435966738,1594887794.81753
2020/07/16/17:23:14.918055,56489,1594887794,917680501,,,0,1594887808,-160.1044464,165.7573242,-7.062623024,21.59905243,-0.124597386,-0.0241957549,-0.303052545,0,0,140.9459991,0.0436803959,1594887794.91768
2020/07/16/17:23:15.017979,56490,1594887795,17626047,,,0,1594887808,-160.4173126,165.218689,-7.049870491,21.16970444,-0.129589185,0.0313971862,-0.227958694,0,0,150.2747955,0.0437725149,1594887795.01763
2020/07/16/17:23:15.117917,56491,1594887795,117579698,,,0,1594887808,-160.6543732,164.7703094,-7.037003517,20.85731506,-0.120310247,0.0380051285,-0.264999926,0,0,156.5615845,0.0438452959,1594887795.11758
2020/07/16/17:23:15.217898,56492,1594887795,217566490,,,0,1594887808,-160.8855743,164.2884064,-7.021185875,20.57587051,-0.0990856364,0.0215517934,-0.227866635,0,0,154.2294006,0.0439259782,1594887795.21757
2020/07/16/17:23:15.317876,56493,1594887795,317568063,,,0,1594887808,-161.1761475,163.6006927,-6.998832703,20.18338776,-0.107229561,-0.00587539561,-0.222683236,0,0,154.4322052,0.0440422967,1594887795.31757
2020/07/16/17:23:15.417892,56494,1594887795,417564153,,,0,1594887808,-161.2994537,163.2719269,-6.989541531,19.99287415,-0.0996299684,-0.00943883229,-0.210833862,0,0,154.5335999,0.0440949835,1594887795.41756
2020/07/16/17:23:15.517948,56495,1594887795,517600774,,,0,1594887808,-161.5287781,162.5843506,-6.970917225,19.59532738,-0.103969887,0.00993706565,-0.185152844,0,0,155.1419983,0.0442125835,1594887795.51760
2020/07/16/17:23:15.617959,56496,1594887795,617606163,,,0,1594887808,-161.6769714,162.0709534,-6.956748009,19.30889893,-0.109314717,-0.00488390448,-0.203404263,0,0,156.1560059,0.0443016738,1594887795.61761
2020/07/16/17:23:15.717944,56497,1594887795,717600584,,,0,1594887808,-161.7412262,161.8228455,-6.950349808,19.17411423,-0.097041145,-0.0104794418,-0.200029269,0,0,155.8517914,0.0443393476,1594887795.71760
2020/07/16/17:23:15.817965,56498,1594887795,817603588,,,0,1594887808,-161.8885498,161.1590271,-6.934947491,18.82084656,-0.0922292992,0.00587785896,-0.205190748,0,0,155.0405884,0.0444521271,1594887795.81760
2020/07/16/17:23:15.917961,56499,1594887795,917600870,,,0,1594887808,-161.9869995,160.5923157,-6.922667027,18.52685547,-0.0934856236,-0.00185938925,-0.169322222,0,0,155.1419983,0.0445468388,1594887795.91760
2020/07/16/17:23:16.017968,56500,1594887796,17607450,,,0,1594887808,-162.0508118,160.1216125,-6.913444996,18.28198814,-0.0814987719,-0.0049540312,-0.173466757,0,0,155.2433929,0.0446257629,1594887796.01761
2020/07/16/17:23:16.117978,56501,1594887796,117615222,,,0,1594887808,-162.097168,159.6701355,-6.905723572,18.0556221,-0.104190506,-0.00653579133,-0.168082669,0,0,155.2433929,0.0447072498,1594887796.11762
2020/07/16/17:23:16.217961,56502,1594887796,217603445,,,0,1594887808,-162.1378174,159.0304413,-6.896998882,17.75158691,-0.0840057284,-0.00726603391,-0.170271099,0,0,155.2433929,0.0448139496,1594887796.21760
2020/07/16/17:23:16.317982,56503,1594887796,317616462,,,0,1594887808,-162.1490479,158.5311737,-6.891879559,17.52333641,-0.077273421,-0.00157449453,-0.164978161,0,0,155.2433929,0.0448995121,1594887796.31762
2020/07/16/17:23:16.417971,56504,1594887796,417605638,,,0,1594887808,-162.1442566,158.0958862,-6.888215065,17.32763481,-0.0822970346,-0.0017790203,-0.15497528,0,0,155.2433929,0.0449766815,1594887796.41761
2020/07/16/17:23:16.517968,56505,1594887796,517604827,,,0,1594887808,-162.1229706,157.6087952,-6.885004997,17.11255646,-0.0689143538,-0.00378041202,-0.147373721,0,0,155.1419983,0.0450594574,1594887796.51760
2020/07/16/17:23:16.617977,56506,1594887796,617613315,,,0,1594887808,-162.0932617,157.2128754,-6.883168221,16.94241524,-0.0784549341,-0.00303927786,-0.147670776,0,0,154.4322052,0.045132041,1594887796.61761
2020/07/16/17:23:16.717972,56507,1594887796,717612743,,,0,1594887808,-162.0433655,156.7385254,-6.881923676,16.74720955,-0.063952826,-0.00608403282,-0.121517383,0,0,144.089386,0.0452168658,1594887796.71761
2020/07/16/17:23:16.817972,56508,1594887796,817610502,,,0,1594887808,-161.987915,156.3117676,-6.881689548,16.59054184,-0.0476540253,0.00258920738,-0.0554401428,0,0,121.0715942,0.0452876799,1594887796.81761
2020/07/16/17:23:16.918046,56509,1594887796,917674541,,,0,1594887808,-161.9043579,155.725647,-6.881480217,16.60025597,0.088134788,0.002116316,0.00491609704,0.28245002,0,86.59560394,0.0453918688,1594887796.91767
2020/07/16/17:23:17.017920,56510,1594887797,17608165,,,0,1594887808,-161.8606567,155.4219818,-6.881210804,16.86356163,0.148514256,0.00479539763,0.00848921575,0.532299995,0,68.64779663,0.045444604,1594887797.01761
2020/07/16/17:23:17.117910,56511,1594887797,117600679,,,0,1594887808,-161.7763519,154.8201599,-6.880061626,17.93678474,0.361891836,0.00656484812,0.0289553497,0.906149983,0,31.43400002,0.0455467701,1594887797.11760
2020/07/16/17:23:17.217885,56512,1594887797,217572927,,,0,1594887808,-161.7071686,154.2940979,-6.878142357,19.47286797,0.486247391,0.00601383578,0.0446955636,1,0,6.388199806,0.0456412956,1594887797.21757
2020/07/16/17:23:17.317920,56513,1594887797,317587137,,,0,1594887808,-161.6492615,153.8236084,-6.875414848,21.02478027,0.550019145,0.0399282724,0.0394106209,1,0,-0.608399987,0.0457230881,1594887797.31759
2020/07/16/17:23:17.417895,56514,1594887797,417585611,,,0,1594887808,-161.5783539,153.2201996,-6.869166374,23.00949478,0.583852828,-0.0119527662,0.0325197019,1,0,-6.185400009,0.0458290912,1594887797.41759
2020/07/16/17:23:17.517989,56515,1594887797,517616033,,,0,1594887808,-161.4810181,152.3475189,-6.860871792,25.83195686,0.646366596,-0.026900487,0.0321670771,1,0,-12.06659889,0.045981735,1594887797.51762
2020/07/16/17:23:17.617980,56516,1594887797,617609500,,,0,1594887808,-161.3997345,151.5835419,-6.855990887,28.23545647,0.702035069,-0.0259148777,0.0108538046,1,0,-9.024600029,0.04611044,1594887797.61761
2020/07/16/17:23:17.717965,56517,1594887797,717598438,,,0,1594887808,-161.3618011,151.2241974,-6.854129791,29.35233307,0.696642816,0.019188052,0.00472545624,1,0,-6.895199776,0.0461772159,1594887797.71760
2020/07/16/17:23:17.817971,56518,1594887797,817605733,,,0,1594887808,-161.2447052,150.1163483,-6.846743584,32.58255005,0.679196894,-0.0192467384,0.0263863914,1,0,-4.765799999,0.0463660993,1594887797.81761
2020/07/16/17:23:17.917987,56519,1594887797,917617082,,,0,1594887808,-161.1268921,148.9843903,-6.840592384,35.47830582,0.688883007,-0.023935955,0.000351712108,1,0,-3.346199989,0.0465654582,1594887797.91762
2020/07/16/17:23:18.017964,56520,1594887798,17596244,,,0,1594887808,-161.0897369,148.6261444,-6.839103699,36.34445572,0.679518759,-0.0148775252,-0.0110229477,1,0,-1.318199992,0.0466253757,1594887798.01760
2020/07/16/17:23:18.117976,56521,1594887798,117607593,,,0,1594887808,-160.9477692,147.2719727,-6.834095478,39.43782806,0.675058544,-0.0289188698,-0.00941254199,1,0,3.447599888,0.0468650572,1594887798.11761
2020/07/16/17:23:18.217979,56522,1594887798,217615127,,,0,1594887808,-160.7931366,145.8090973,-6.830684662,42.42471695,0.645271361,-0.040609017,-0.0215730742,1,0,2.078700066,0.0471226275,1594887798.21762
2020/07/16/17:23:18.317971,56523,1594887798,317607879,,,0,1594887808,-160.6890564,144.8373566,-6.830349445,44.22796249,0.623662114,-0.0479752347,-0.0152633935,1,0,2.078700066,0.0472868793,1594887798.31761
2020/07/16/17:23:18.417978,56524,1594887798,417610406,,,0,1594887808,-160.550415,143.5580292,-6.829493523,46.35585403,0.550553679,-0.000483494252,-0.00268097594,1,0,2.991299868,0.0475131348,1594887798.41761
2020/07/16/17:23:18.517922,56525,1594887798,517609834,,,0,1594887808,-160.4035492,142.2230072,-6.827838421,48.13558197,0.252993733,-0.00833670236,-0.0320092961,0.411150008,0,2.534999847,0.0477447659,1594887798.51761
2020/07/16/17:23:18.617990,56526,1594887798,617622375,,,0,1594887808,-160.2105865,140.5067902,-6.823735714,48.07203674,-0.020396322,0.00398317771,-0.00524825789,0,0,1.825199962,0.0480414778,1594887798.61762
2020/07/16/17:23:18.717968,56527,1594887798,717604398,,,0,1594887808,-160.0707855,139.2744904,-6.818421364,47.95407486,-0.0338090286,0.00670153787,-0.0192237645,0,0,1.977299929,0.0482578389,1594887798.71760
2020/07/16/17:23:18.817966,56528,1594887798,817602157,,,0,1594887808,-159.9753113,138.4416199,-6.814321995,47.87038422,-0.03635047,0.0220765192,-0.00268332614,0,0,1.216799974,0.0484050699,1594887798.81760
2020/07/16/17:23:18.918043,56529,1594887798,917675256,,,0,1594887808,-159.7794952,136.740097,-6.804450989,47.76428223,0.0627480596,0.00655707857,-0.00277529517,0.898100019,0,0.304199994,0.0487038977,1594887798.91768
2020/07/16/17:23:19.017903,56530,1594887799,17612218,,,0,1594887808,-159.6218872,135.3726196,-6.795794487,49.71076965,0.80195719,-0.00999608077,0.00473979861,1,0,-2.230799913,0.0489417538,1594887799.01761
2020/07/16/17:23:19.117893,56531,1594887799,117606401,,,0,1594887808,-159.5501099,134.7492676,-6.792122841,50.41951752,0.352074236,-0.00431525428,0.021168502,1,0,-3.954599857,0.0490507297,1594887799.11761
2020/07/16/17:23:19.217883,56532,1594887799,217596054,,,0,1594887808,-159.3368835,132.8745728,-6.782132149,52.39712906,0.437778443,0.0160202757,0.0270690005,1,0,-4.968600273,0.049376905,1594887799.21760
2020/07/16/17:23:19.317905,56533,1594887799,317612171,,,0,1594887808,-159.1594238,131.2855835,-6.773178577,54.07114792,0.444322318,-0.00243428955,0.0347753651,1,0,-5.678399563,0.0496502556,1594887799.31761
2020/07/16/17:23:19.417888,56534,1594887799,417602539,,,0,1594887808,-158.990448,129.7376251,-6.762719154,55.70942688,0.454156369,0.0201334879,0.0541517772,1,0,-6.590999603,0.0499223471,1594887799.41760
2020/07/16/17:23:19.517884,56535,1594887799,517600059,,,0,1594887808,-158.8513641,128.4274139,-6.751880169,57.08215332,0.447307885,-0.00340968976,0.0539807528,1,0,-6.590999603,0.0501554161,1594887799.51760
2020/07/16/17:23:19.617902,56536,1594887799,617613792,,,0,1594887808,-158.6831055,126.7930298,-6.738293648,58.75242996,0.467708349,-0.0180256404,0.0606632829,1,0,-5.374199867,0.0504393093,1594887799.61761
2020/07/16/17:23:19.717915,56537,1594887799,717612266,,,0,1594887808,-158.5007477,124.9602585,-6.724446297,60.57329178,0.460045844,-0.0100279767,0.03231626,1,0,-4.055999756,0.0507566556,1594887799.71761
2020/07/16/17:23:19.817895,56538,1594887799,817605257,,,0,1594887808,-158.287796,122.7596054,-6.708856583,62.68042755,0.454576164,-0.00470755016,0.0225497596,1,0,-1.622399926,0.0511380956,1594887799.81761
2020/07/16/17:23:19.917866,56539,1594887799,917579412,,,0,1594887808,-158.192688,121.7633514,-6.702006817,63.58752823,0.447345376,-0.0408431031,-0.0125417486,1,0,0.152099997,0.0513147824,1594887799.91758
2020/07/16/17:23:20.017870,56540,1594887800,17585515,,,0,1594887808,-158.0552521,120.3230438,-6.694815159,64.89186096,0.458643228,-0.0624430925,0.0042658411,1,0,1.622399926,0.0515665375,1594887800.01759
2020/07/16/17:23:20.117899,56541,1594887800,117612123,,,0,1594887808,-157.8078918,117.7465134,-6.691704273,67.12593079,0.438428462,-0.0223486591,-0.0110135004,1,0,1.368899941,0.0520136766,1594887800.11761
2020/07/16/17:23:20.217937,56542,1594887800,217604875,,,0,1594887808,-157.6382446,116.0005188,-6.692788601,68.54108429,0.427628577,0.0234928615,-0.03321274,1,0,2.078700066,0.0523191094,1594887800.21760
2020/07/16/17:23:20.317949,56543,1594887800,317620515,,,0,1594887808,-157.426712,113.8698349,-6.690768719,70.21018982,0.427383721,0.0581384003,-0.0525055341,1,0,2.889899731,0.0526922233,1594887800.31762
2020/07/16/17:23:20.417905,56544,1594887800,417606115,,,0,1594887808,-157.2595673,112.2241974,-6.685301304,71.4360733,0.424179882,0.0224789642,-0.0310007147,1,0,1.825199962,0.0529764667,1594887800.41761
2020/07/16/17:23:20.517889,56545,1594887800,517601490,,,0,1594887808,-157.0687256,110.3696136,-6.676861286,72.7713623,0.405119598,0.0104510523,-0.0193459801,1,0,1.571699977,0.0532987677,1594887800.51760
2020/07/16/17:23:20.617889,56546,1594887800,617599010,,,0,1594887808,-156.7690735,107.4937592,-6.665054798,74.75597382,0.402199447,-0.0335346907,-0.0278851204,1,0,1.166100025,0.0538017228,1594887800.61760
2020/07/16/17:23:20.717884,56547,1594887800,717598438,,,0,1594887808,-156.6440735,106.309494,-6.662475586,75.53890991,0.389851958,-0.0520396307,-0.0484439917,1,0,0.912599981,0.0540077314,1594887800.71760
2020/07/16/17:23:20.817884,56548,1594887800,817593336,,,0,1594887808,-156.3257751,103.338501,-6.65795517,76.56716919,0.00897644646,0.0287463702,-0.0239056014,0,0,0.506999969,0.0545261167,1594887800.81759
2020/07/16/17:23:20.918008,56549,1594887800,917660236,,,0,1594887808,-156.1337891,101.5666885,-6.653252602,76.20222473,-0.127554491,0.0149033517,0.00472903438,0,0,-1.318199992,0.0548351444,1594887800.91766
2020/07/16/17:23:21.017884,56550,1594887801,17597436,,,0,1594887808,-155.9227448,99.61371613,-6.646492958,75.96263885,-0.0386575758,0.0112732993,0.0227112211,0,0,-2.534999847,0.0551787838,1594887801.01760
2020/07/16/17:23:21.117885,56551,1594887801,117603540,,,0,1594887808,-155.6873474,97.41318512,-6.636333942,75.80892181,-0.0349035077,0.0233868342,0.0268867221,0,0,-2.839199781,0.0555633977,1594887801.11760
2020/07/16/17:23:21.217920,56552,1594887801,217606067,,,0,1594887808,-155.5082397,95.71832275,-6.626354218,75.7011795,-0.037387237,0.0221174303,0.0398234613,0.352050006,0,-4.968600273,0.0558594465,1594887801.21761
2020/07/16/17:23:21.317954,56553,1594887801,317603111,,,0,1594887808,-155.2993622,93.70442963,-6.612671375,76.42812347,0.27500096,0.0167648476,0.0751393661,0.8495,0,-7.097999573,0.0562079363,1594887801.31760
2020/07/16/17:23:21.417956,56554,1594887801,417609930,,,0,1594887808,-155.0630951,91.34650421,-6.594783783,77.29172516,0.262690544,0.00401593,0.0944030285,1,0,-8.314800262,0.0566223525,1594887801.41761
2020/07/16/17:23:21.517917,56555,1594887801,517617464,,,0,1594887808,-154.7932281,88.50075531,-6.573419571,78.58103943,0.316134691,-0.100946046,0.0611141063,1,0,-8.010599136,0.057122238,1594887801.51762
2020/07/16/17:23:21.617976,56556,1594887801,617603540,,,0,1594887808,-154.6674347,87.12471008,-6.567265987,79.23709869,0.288020521,-0.162413895,0.0518646836,1,0,-9.328800201,0.0573629253,1594887801.61760
2020/07/16/17:23:21.717974,56557,1594887801,717610597,,,0,1594887808,-154.4507446,84.67223358,-6.572762489,80.10373688,-0.0798356235,-0.137801155,0.149903983,1,0,-13.38479996,0.0577949844,1594887801.71761
2020/07/16/17:23:21.817952,56558,1594887801,817597627,,,0,1594887808,-154.298584,82.81082153,-6.587431431,80.08441162,-0.129184902,0.0693600476,0.17802012,1,0,-9.328800201,0.0581227504,1594887801.81760
2020/07/16/17:23:21.917949,56559,1594887801,917599439,,,0,1594887808,-154.1295624,80.54985046,-6.595291615,80.04499054,0.24939844,0.254488528,0.145735621,1,0,-3.548999786,0.058516413,1594887801.91760
2020/07/16/17:23:22.017894,56560,1594887802,17596483,,,0,1594887808,-153.9246063,77.48866272,-6.567395687,80.0799942,-0.067946136,0.0357932672,0.180948079,1,0,-8.821800232,0.0590542331,1594887802.01760
2020/07/16/17:23:22.117946,56561,1594887802,117596864,,,0,1594887808,-153.8375092,76.02420044,-6.547773838,80.05069733,-0.105124943,-0.0783575624,0.158938855,1,0,-10.34279919,0.0593137331,1594887802.11760
2020/07/16/17:23:22.217948,56562,1594887802,217599630,,,0,1594887808,-153.7131653,73.6937027,-6.522366524,80.03707886,0.197513416,-0.105209909,0.12476778,1,0,-10.34279919,0.0597207695,1594887802.21760
2020/07/16/17:23:22.317958,56563,1594887802,317608118,,,0,1594887808,-153.578949,70.76243591,-6.501691818,80.05285645,0.207026213,-0.00834193546,0.160343736,1,0,-10.54559994,0.0602340847,1594887802.31761
2020/07/16/17:23:22.417927,56564,1594887802,417576551,,,0,1594887808,-153.5269165,69.42967987,-6.493008137,80.05576324,0.201312914,0.0109517109,0.166782379,1,0,-10.34279919,0.0604697429,1594887802.41758
2020/07/16/17:23:22.517900,56565,1594887802,517604827,,,0,1594887808,-153.4314423,66.36338806,-6.470794678,80.07247162,-0.0410609245,-0.125322014,0.228057042,1,0,-10.84979916,0.0609991364,1594887802.51760
2020/07/16/17:23:22.617945,56566,1594887802,617581605,,,0,1594887808,-153.4036713,65.09675598,-6.464416027,80.07304382,0.106545143,-0.0898886472,0.251974791,1,0,-10.13999939,0.0612210408,1594887802.61758
2020/07/16/17:23:22.717947,56567,1594887802,717599391,,,0,1594887808,-153.3734131,62.8297348,-6.46062994,79.9708252,-0.042517297,-0.142797858,0.196572199,1,0,-8.111999512,0.0616150126,1594887802.71760
2020/07/16/17:23:22.817957,56568,1594887802,817592620,,,0,1594887808,-153.3613586,59.74552155,-6.464186192,80.94089508,0.217105716,0.0854202881,0.110869572,1,0,-10.84979916,0.0621482469,1594887802.81759
2020/07/16/17:23:22.918088,56569,1594887802,917676210,,,0,1594887808,-153.3634949,58.18791962,-6.46054554,81.53197479,0.263528556,0.157078445,0.184269533,1,0,-10.74839973,0.06242273,1594887802.91768
2020/07/16/17:23:23.017964,56570,1594887803,17602205,,,0,1594887808,-153.3809967,55.93225479,-6.439190865,82.45552826,0.287035495,0.12696825,0.219141573,1,0,-9.835799217,0.0628067777,1594887803.01760
2020/07/16/17:23:23.117957,56571,1594887803,117596149,,,0,1594887808,-153.4356232,52.95445633,-6.374766827,83.71411133,0.288576424,0.20591028,0.166646942,1,0,-4.562999725,0.0633235425,1594887803.11760
2020/07/16/17:23:23.217954,56572,1594887803,217594385,,,0,1594887808,-153.48349,51.13342285,-6.313924313,84.49269867,0.328510016,-0.0135808252,0.0984848142,1,0,-2.534999847,0.0636351928,1594887803.21759
2020/07/16/17:23:23.317950,56573,1594887803,317599773,,,0,1594887808,-153.5770874,48.08127594,-6.229284763,85.90918732,0.359450549,-0.555748582,-0.000357332639,1,0,-4.664400101,0.0641596764,1594887803.31760
2020/07/16/17:23:23.417938,56574,1594887803,417591333,,,0,1594887808,-153.6208191,46.71496582,-6.214742661,86.64823914,0.351737499,-0.224902466,-0.00631410116,1,0,-2.636399984,0.0643934309,1594887803.41759
2020/07/16/17:23:23.517947,56575,1594887803,517602443,,,0,1594887808,-153.7196503,43.58311844,-6.195613384,88.12090302,0.327333897,0.106283784,-0.00875457097,1,0,0,0.0649344847,1594887803.51760
2020/07/16/17:23:23.617950,56576,1594887803,617595434,,,0,1594887808,-153.7661743,42.1088028,-6.182760715,88.78956604,0.306011945,0.0467557497,0.0435258523,1,0,-0.405599982,0.0651875436,1594887803.61760
2020/07/16/17:23:23.717952,56577,1594887803,717600584,,,0,1594887808,-153.8712463,38.90094757,-6.153247833,90.2498703,0.310024887,-0.0734729469,-0.0165686868,1,0,1.622399926,0.0657366365,1594887803.71760
2020/07/16/17:23:23.817964,56578,1594887803,817597150,,,0,1594887808,-153.9533081,36.40403366,-6.135579109,91.34476471,0.303616941,-0.0165827777,-0.0330614559,1,0,2.180099726,0.0661640242,1594887803.81760
2020/07/16/17:23:23.917960,56579,1594887803,917597532,,,0,1594887808,-154.0265045,34.10794449,-6.120072842,92.3328476,0.30508548,0.0582947582,-0.0359404311,1,0,0.659099996,0.0665622726,1594887803.91760
2020/07/16/17:23:24.017963,56580,1594887804,17598152,,,0,1594887808,-154.1057587,31.55411148,-6.099378109,93.40563965,0.317951381,0.025862487,-0.019763751,1,0,0.861899972,0.0669974387,1594887804.01760
2020/07/16/17:23:24.117952,56581,1594887804,117601633,,,0,1594887808,-154.2068787,28.18183899,-6.07163763,94.80431366,0.304849952,-0.00896013714,-0.0332187153,1,0,0.861899972,0.0675785989,1594887804.11760
2020/07/16/17:23:24.217947,56582,1594887804,217598438,,,0,1594887808,-154.2824097,25.56003952,-6.051073551,95.85860443,0.294126809,0.0934239104,-0.0287472755,1,0,0.304199994,0.0680275932,1594887804.21760
2020/07/16/17:23:24.317948,56583,1594887804,317599058,,,0,1594887808,-154.329834,23.87685585,-6.035058022,96.50001526,0.290205747,0.0114579229,-0.00441004522,1,0,0.152099997,0.0683171228,1594887804.31760
2020/07/16/17:23:24.417953,56584,1594887804,417602062,,,0,1594887808,-154.4263916,20.3945179,-6.001277447,97.85266876,0.296675324,-0.100037158,-0.0218643583,1,0,0.912599981,0.0689179674,1594887804.41760
2020/07/16/17:23:24.517902,56585,1594887804,517601966,,,0,1594887808,-154.4993591,17.6891613,-5.982123852,98.87548065,0.291972369,-0.0252404101,-0.027698677,1,0,0.45629999,0.0693819225,1594887804.51760
2020/07/16/17:23:24.617883,56586,1594887804,617584705,,,0,1594887808,-154.5580139,15.45499229,-5.968169212,99.69986725,0.290317982,0.0196684543,-0.0227508564,1,0,0.659099996,0.0697682127,1594887804.61758
2020/07/16/17:23:24.717886,56587,1594887804,717590093,,,0,1594887808,-154.6350708,12.44741154,-5.947779179,100.7798615,0.27922374,-0.00542562176,-0.013327131,1,0,0.659099996,0.0702851564,1594887804.71759
2020/07/16/17:23:24.817871,56588,1594887804,817573070,,,0,1594887808,-154.7196503,9.067656517,-5.92322588,101.9678726,0.270333529,0.00282808649,-0.00843267795,1,0,0.45629999,0.0708665997,1594887804.81757
2020/07/16/17:23:24.918025,56589,1594887804,917664289,,,0,1594887808,-154.7888184,6.249904156,-5.900868416,102.9394608,0.263045132,0.00881236419,-0.0167866927,1,0,1.216799974,0.0713509247,1594887804.91766
2020/07/16/17:23:25.017763,56590,1594887805,17518520,,,0,1594887808,-154.8501282,3.665339947,-5.879380226,103.8056335,0.268816799,0.0550522804,-0.0282037295,1,0,1.064700007,0.0717974156,1594887805.01752
2020/07/16/17:23:25.117822,56591,1594887805,117554187,,,0,1594887808,-154.8840942,2.191210747,-5.865831375,104.2829971,0.267822534,0.0255136024,-0.00291979453,1,0,0.45629999,0.0720490441,1594887805.11755
2020/07/16/17:23:25.217890,56592,1594887805,217606067,,,0,1594887808,-154.9804535,-2.095849037,-5.826988697,105.6797485,0.270578623,-0.0654222369,-0.0288551506,1,0,1.571699977,0.0727889389,1594887805.21761
2020/07/16/17:23:25.317882,56593,1594887805,317570924,,,0,1594887808,-155.0371399,-4.748646259,-5.808433533,106.5141068,0.264774323,-0.00436060876,-0.0423166044,1,0,1.622399926,0.0732441619,1594887805.31757
2020/07/16/17:23:25.417898,56594,1594887805,417602777,,,0,1594887808,-155.103714,-8.049024582,-5.786239147,107.5325394,0.25402844,0.00686352747,-0.0348762795,1,0,1.622399926,0.0738121644,1594887805.41760
2020/07/16/17:23:25.517969,56595,1594887805,517609119,,,0,1594887808,-155.154892,-10.74807072,-5.768512726,108.350975,0.250985324,-0.0211965647,-0.0518201739,1,0,1.774499893,0.0742765963,1594887805.51761
2020/07/16/17:23:25.617978,56596,1594887805,617611169,,,0,1594887808,-155.2133179,-14.1051054,-5.748920918,109.3532181,0.244788453,0.0170295425,-0.0409752056,1,0,1.622399926,0.0748576149,1594887805.61761
2020/07/16/17:23:25.717908,56597,1594887805,717603683,,,0,1594887808,-155.2573547,-16.84944534,-5.732368946,110.150444,0.25519377,0.0199698657,-0.0268572215,1,0,2.534999847,0.0753300563,1594887805.71760
2020/07/16/17:23:25.817880,56598,1594887805,817578315,,,0,1594887808,-155.2911835,-19.05936813,-5.718431473,110.7914047,0.254939586,0.00491390144,-0.0409693792,1,0,4.157400131,0.0757113919,1594887805.81758
2020/07/16/17:23:25.917918,56599,1594887805,917601585,,,0,1594887808,-155.3470917,-23.14385033,-5.691894054,111.9446182,0.248614907,-0.00695604365,-0.0809638873,1,0,6.185400009,0.076416254,1594887805.91760
2020/07/16/17:23:26.017904,56600,1594887806,17606258,,,0,1594887808,-155.3833008,-26.70541573,-5.670255184,112.939064,0.231986061,-0.0485787764,-0.136648715,1,0,5.830500126,0.077029407,1594887806.01761
2020/07/16/17:23:26.117910,56601,1594887806,117611408,,,0,1594887808,-155.3986206,-29.25515938,-5.658686161,113.634407,0.249395937,-0.0252743475,-0.153455287,1,0,5.678399563,0.0774738267,1594887806.11761
2020/07/16/17:23:26.217894,56602,1594887806,217602968,,,0,1594887808,-155.4028931,-32.77473831,-5.644154072,114.5830841,0.237072036,0.0355007537,-0.167537376,1,0,5.678399563,0.0780792981,1594887806.21760
2020/07/16/17:23:26.317951,56603,1594887806,317610025,,,0,1594887808,-155.3930054,-35.3612709,-5.631416798,115.2628784,0.246021017,0.0208183341,-0.165956721,1,0,6.185400009,0.0785263553,1594887806.31761
2020/07/16/17:23:26.417901,56604,1594887806,417599916,,,0,1594887808,-155.3602448,-39.02747726,-5.612564087,116.221756,0.237084627,-0.0158178769,-0.169830665,0.967999995,0,6.185400009,0.0791578442,1594887806.41760
2020/07/16/17:23:26.517955,56605,1594887806,517605781,,,0,1594887808,-155.3220062,-41.74585342,-5.600416183,116.6379547,-0.0114080012,-0.0116636883,-0.156936973,0.0810500085,0,5.019299984,0.0796278343,1594887806.51761
2020/07/16/17:23:26.617964,56606,1594887806,617618799,,,0,1594887808,-155.2306061,-46.40177155,-5.582380772,116.2320404,-0.0592552312,0.0135775702,-0.143734112,0,0,3.194099903,0.0804289356,1594887806.61762
2020/07/16/17:23:26.717938,56607,1594887806,717598199,,,0,1594887808,-155.1735229,-48.7240448,-5.573109627,116.085083,-0.0535451621,-0.00269737327,-0.130318373,0,0,2.534999847,0.0808319524,1594887806.71760
2020/07/16/17:23:26.817894,56608,1594887806,817595243,,,0,1594887808,-155.0693054,-52.39471436,-5.557684422,115.8595886,-0.0488714017,0.0242206939,-0.122443445,0.908599973,0,2.180099726,0.0814635679,1594887806.81760
2020/07/16/17:23:26.918045,56609,1594887806,917681932,,,0,1594887808,-154.9823914,-55.09750366,-5.544595242,116.1053925,0.343997985,0.0291293114,-0.112049729,1,0,1.825199962,0.0819311365,1594887806.91768
2020/07/16/17:23:27.017919,56610,1594887807,17611980,,,0,1594887808,-154.8658905,-58.40505981,-5.526759148,117.2076645,0.186443582,-0.00893106591,-0.101787649,1,0,3.244799852,0.0825031251,1594887807.01761
2020/07/16/17:23:27.117882,56611,1594887807,117589235,,,0,1594887808,-154.7497559,-61.44020462,-5.510786057,117.8881836,0.208112314,-0.0156287346,-0.0765298828,1,0,1.774499893,0.0830257908,1594887807.11759
2020/07/16/17:23:27.217763,56612,1594887807,217639446,,,0,1594887808,-154.609787,-64.88835144,-5.493598461,118.6864243,0.209045559,-0.0368289724,-0.0709154457,1,0,0.912599981,0.083624281,1594887807.21764
2020/07/16/17:23:27.317878,56613,1594887807,317584037,,,0,1594887808,-154.4668579,-68.26069641,-5.477847576,119.4951324,0.214484349,-0.0224946514,-0.0405926481,1,0,0.45629999,0.0842086226,1594887807.31758
2020/07/16/17:23:27.417886,56614,1594887807,417598009,,,0,1594887808,-154.3456726,-71.05475616,-5.465198994,120.1501923,0.218900144,0.0172134805,-0.0201347359,1,0,-0.202799991,0.0846941248,1594887807.41760
2020/07/16/17:23:27.517960,56615,1594887807,517642259,,,0,1594887808,-154.2093506,-74.16581726,-5.449963093,120.8708115,0.219992578,0.0102901608,0.00117230229,1,0,-0.709799945,0.0852343664,1594887807.51764
2020/07/16/17:23:27.617927,56616,1594887807,617614030,,,0,1594887808,-154.0271606,-78.3089447,-5.429104805,121.8211823,0.229549423,-0.0177497789,0.000594448298,1,0,-0.608399987,0.0859529451,1594887807.61761
2020/07/16/17:23:27.717887,56617,1594887807,717586755,,,0,1594887808,-153.9020233,-81.15703583,-5.415975094,122.4663849,0.22332193,-0.0269876942,0.0118887741,1,0,-0.304199994,0.0864482895,1594887807.71759
2020/07/16/17:23:27.817879,56618,1594887807,817576408,,,0,1594887808,-153.750061,-84.63565826,-5.401337147,123.2468109,0.208563522,-0.00308584701,0.0121938996,1,0,0,0.0870526731,1594887807.81758
2020/07/16/17:23:27.917884,56619,1594887807,917582273,,,0,1594887808,-153.5939484,-88.23960114,-5.386723995,124.0450058,0.206313476,0.00101521355,0.0073889764,1,0,-0.202799991,0.0876791626,1594887807.91758
2020/07/16/17:23:28.017862,56620,1594887808,17572402,,,0,1594887808,-153.3939362,-92.90720367,-5.366207123,125.0539627,0.215079263,0.0312863104,0.0290060416,1,0,-0.912599981,0.0884886459,1594887808.01757
2020/07/16/17:23:28.117879,56621,1594887808,117577552,,,0,1594887808,-153.3321686,-94.3670578,-5.358702183,125.3666916,0.208031774,0.0154221421,0.0261030756,1,0,-0.912599981,0.0887433067,1594887808.11758
2020/07/16/17:23:28.217876,56622,1594887808,217578172,,,0,1594887808,-153.1482697,-98.7685318,-5.336072922,126.3004761,0.211361319,-0.00338162947,0.023235973,1,0,-0.101399995,0.0895064995,1594887808.21758
2020/07/16/17:23:28.317855,56623,1594887808,317572116,,,0,1594887808,-152.9657898,-103.2025375,-5.314382076,127.2240829,0.205487147,-0.0124340383,0.0109613845,1,0,0.45629999,0.0902764499,1594887808.31757
2020/07/16/17:23:28.417866,56624,1594887808,417561769,,,0,1594887808,-152.8314514,-106.4959564,-5.298890114,127.8978195,0.207221642,0.00819133967,0.00455756858,1,0,0.659099996,0.0908487663,1594887808.41756
2020/07/16/17:23:28.517862,56625,1594887808,517564058,,,0,1594887808,-152.7446136,-108.6299515,-5.288746357,128.332077,0.203607336,-0.0177204348,-0.0068662297,1,0,1.216799974,0.0912185982,1594887808.51756
2020/07/16/17:23:28.617868,56626,1594887808,617565393,,,0,1594887808,-152.5289307,-113.8887253,-5.266955376,129.3908844,0.209240228,0.0124817053,-0.0187110603,1,0,1.368899941,0.0921332985,1594887808.61757
2020/07/16/17:23:28.717844,56627,1594887808,717552900,,,0,1594887808,-152.3938599,-117.1294174,-5.253366947,130.0265503,0.193287238,0.0287015513,-0.0205786228,1,0,1.216799974,0.0926947966,1594887808.71755
2020/07/16/17:23:28.817836,56628,1594887808,817544698,,,0,1594887808,-152.2512665,-120.4946899,-5.237299442,130.6857147,0.20451583,0.0411499664,-0.0412308797,1,0,1.064700007,0.0932800248,1594887808.81754
2020/07/16/17:23:28.917946,56629,1594887808,917633056,,,0,1594887808,-152.1053162,-123.8766327,-5.219291687,131.3292236,0.195824817,0.0224125963,-0.0264290459,1,0,1.166100025,0.0938685238,1594887808.91763
2020/07/16/17:23:29.017876,56630,1594887809,17576932,,,0,1594887808,-151.9411163,-127.6048508,-5.199148178,132.0370483,0.207116798,-0.0701296404,-0.0353613459,1,0,1.064700007,0.0945153683,1594887809.01758
2020/07/16/17:23:29.117860,56631,1594887809,117573022,,,0,1594887808,-151.7165833,-132.5700684,-5.183726311,132.9788361,0.199434176,-0.0410486422,-0.0471171066,1,0,0.861899972,0.0953797027,1594887809.11757
2020/07/16/17:23:29.217868,56632,1594887809,217565774,,,0,1594887808,-151.6138763,-134.7880096,-5.179328442,133.3922882,0.174112111,0.0439904928,-0.0302483626,1,0,0.709799945,0.0957654864,1594887809.21757
2020/07/16/17:23:29.317868,56633,1594887809,317563056,,,0,1594887808,-151.3986511,-139.3558197,-5.164270878,134.2222443,0.193042397,0.0892650113,-0.0102098417,1,0,0.45629999,0.0965588018,1594887809.31756
2020/07/16/17:23:29.417872,56634,1594887809,417576551,,,0,1594887808,-151.2329102,-142.8280945,-5.144212723,134.8426514,0.17261973,0.0343443006,-0.0259936005,1,0,0.709799945,0.0971624106,1594887809.41758
2020/07/16/17:23:29.517876,56635,1594887809,517582178,,,0,1594887808,-151.0540619,-146.541748,-5.118034363,135.4992828,0.194433108,-0.0229595061,-0.0265129618,1,0,0.709799945,0.0978061631,1594887809.51758
2020/07/16/17:23:29.617855,56636,1594887809,617567300,,,0,1594887808,-150.883728,-150.0466766,-5.09599781,136.1145325,0.181071356,-0.0961871222,-0.0262005031,1,0,0.659099996,0.0984159335,1594887809.61757
2020/07/16/17:23:29.717862,56637,1594887809,717574357,,,0,1594887808,-150.6940308,-153.9090424,-5.079957962,136.793335,0.199121758,-0.0343249552,-0.0253479723,1,0,0.659099996,0.09908811,1594887809.71757
2020/07/16/17:23:29.817859,56638,1594887809,817577362,,,0,1594887808,-150.5413208,-156.9897156,-5.069503784,137.320694,0.182894945,0.0118495207,-0.0193130821,1,0,0.506999969,0.0996220931,1594887809.81758
2020/07/16/17:23:29.917860,56639,1594887809,917578697,,,0,1594887808,-150.3236542,-161.3454895,-5.053699017,138.0635071,0.173299924,0.0273478329,-0.0192320906,1,0,0.506999969,0.100379683,1594887809.91758
2020/07/16/17:23:30.017907,56640,1594887810,17580032,,,0,1594887808,-150.1261444,-165.2624054,-5.03727293,138.7171173,0.19138886,0.0718700513,0.00136382412,1,0,0.709799945,0.101060472,1594887810.01758
2020/07/16/17:23:30.117863,56641,1594887810,117576360,,,0,1594887808,-149.967804,-168.3857117,-5.020616055,139.2231445,0.183680296,-0.0114560034,-0.00440261979,1,0,0.709799945,0.101602085,1594887810.11758
2020/07/16/17:23:30.217905,56642,1594887810,217581510,,,0,1594887808,-149.6884766,-173.8501892,-4.995519638,140.1217346,0.170158982,-0.00452161115,-0.0282936245,1,0,1.774499893,0.102551833,1594887810.21758
2020/07/16/17:23:30.317942,56643,1594887810,317599773,,,0,1594887808,-149.5434723,-176.6538696,-4.984837532,140.569519,0.184159696,-0.0230345279,-0.0347928479,1,0,1.825199962,0.103038892,1594887810.31760
2020/07/16/17:23:30.417948,56644,1594887810,417603731,,,0,1594887808,-149.3716736,-179.9361877,-4.973526001,141.0983429,0.169808865,0.00340811233,-0.0515953526,1,0,1.825199962,0.103608966,1594887810.41760
2020/07/16/17:23:30.517958,56645,1594887810,517615318,,,0,1594887808,-149.0619354,-185.7087708,-4.949414253,141.9915619,0.189420804,0.0356045552,-0.0551275276,1,0,1.166100025,0.104613118,1594887810.51762
2020/07/16/17:23:30.617951,56646,1594887810,617603302,,,0,1594887808,-148.8526764,-189.4979553,-4.92976284,142.5762939,0.167748332,-0.0471715443,-0.0575148873,1,0,1.774499893,0.105270989,1594887810.61760
2020/07/16/17:23:30.717925,56647,1594887810,717586994,,,0,1594887808,-148.6919861,-192.349884,-4.916236401,143.0139923,0.162470803,0.00195776415,-0.0654080436,1,0,2.33220005,0.105766639,1594887810.71759
2020/07/16/17:23:30.817905,56648,1594887810,817607164,,,0,1594887808,-148.4719391,-196.1654968,-4.898008823,143.5877686,0.172421381,-0.0301144812,-0.0606174544,1,0,2.33220005,0.106430367,1594887810.81761
2020/07/16/17:23:30.918010,56649,1594887810,917659759,,,0,1594887808,-148.2376556,-200.1159668,-4.881858349,144.1829376,0.168470547,-0.0144907227,-0.0655357987,1,0,2.180099726,0.107116848,1594887810.91766
2020/07/16/17:23:31.017857,56650,1594887811,17583131,,,0,1594887808,-147.9507294,-204.8050537,-4.864780903,144.8682098,0.178070799,0.0320551731,-0.068671979,1,0,0.861899972,0.107932508,1594887811.01758
2020/07/16/17:23:31.117857,56651,1594887811,117577791,,,0,1594887808,-147.7537537,-207.9431152,-4.849857807,145.3162994,0.159363598,0.12829113,-0.0615478493,1,0,0.152099997,0.108479552,1594887811.11758
2020/07/16/17:23:31.217841,56652,1594887811,217569112,,,0,1594887808,-147.4119415,-213.2750702,-4.814075947,146.0673065,0.167988539,0.00932964869,-0.0242440645,1,0,0,0.109406225,1594887811.21757
2020/07/16/17:23:31.317870,56653,1594887811,317588806,,,0,1594887808,-147.1747284,-216.9260254,-4.786991119,146.582962,0.163463026,-0.055557128,-0.00596033037,1,0,-0.101399995,0.110041358,1594887811.31759
2020/07/16/17:23:31.417871,56654,1594887811,417582511,,,0,1594887808,-146.9360809,-220.5897369,-4.763604164,147.0971832,0.171560124,-0.0943405777,0.00107556954,1,0,-0.304199994,0.110678658,1594887811.41758
2020/07/16/17:23:31.517945,56655,1594887811,517643928,,,0,1594887808,-146.6412048,-225.1260986,-4.743444443,147.7265625,0.159461692,-0.0767901465,0.00751823233,1,0,-0.101399995,0.111467756,1594887811.51764
2020/07/16/17:23:31.617990,56656,1594887811,617671966,,,0,1594887808,-146.3134155,-230.1755981,-4.727073193,148.4159546,0.171234384,0.128501594,0.00319782272,1,0,-0.101399995,0.112346806,1594887811.61767
2020/07/16/17:23:31.717899,56657,1594887811,717601776,,,0,1594887808,-146.0649567,-234.008728,-4.704463482,148.9198456,0.139460549,0.120256178,-0.00111373514,1,0,0.506999969,0.113013439,1594887811.71760
2020/07/16/17:23:31.817876,56658,1594887811,817578554,,,0,1594887808,-145.8558044,-237.2335663,-4.678907871,149.3474884,0.15025942,-0.0294134561,-0.01637448,1,0,1.774499893,0.11357455,1594887811.81758
2020/07/16/17:23:31.917964,56659,1594887811,917588233,,,0,1594887808,-145.539444,-242.0882263,-4.645899296,149.9896851,0.151080042,-0.0352770239,-0.0261904988,1,0,3.092700005,0.114418954,1594887811.91759
2020/07/16/17:23:32.017993,56660,1594887812,17596960,,,0,1594887808,-145.3254852,-245.335968,-4.62597847,150.4066467,0.153195962,-0.0209751334,-0.0487435944,1,0,3.650399923,0.11498452,1594887812.01760
2020/07/16/17:23:32.117956,56661,1594887812,117609262,,,0,1594887808,-145.0652313,-249.2197876,-4.601019859,150.900177,0.172538415,-0.110400461,-0.0562037975,1,0,3.650399923,0.115660198,1594887812.11761
2020/07/16/17:23:32.217930,56662,1594887812,217596769,,,0,1594887808,-144.7101288,-254.3757935,-4.577414513,151.5804443,0.164857432,-0.00108657533,-0.116339236,1,0,3.80250001,0.116557583,1594887812.21760
2020/07/16/17:23:32.317887,56663,1594887812,317590236,,,0,1594887808,-144.466629,-257.7829285,-4.564212799,152.0071106,0.172237262,0.128718138,-0.167636007,1,0,3.650399923,0.117150858,1594887812.31759
2020/07/16/17:23:32.417901,56664,1594887812,417597532,,,0,1594887808,-144.144455,-262.0856323,-4.537936211,152.5306396,0.149682879,0.165336043,-0.19511272,1,0,3.447599888,0.117899515,1594887812.41760
2020/07/16/17:23:32.517894,56665,1594887812,517589569,,,0,1594887808,-143.7192841,-267.4187622,-4.492218971,153.1672974,0.131560892,-0.0786286667,-0.145812124,1,0,3.396899939,0.118828893,1594887812.51759
2020/07/16/17:23:32.617896,56666,1594887812,617593765,,,0,1594887808,-143.4327087,-270.8582153,-4.467747688,153.5899963,0.157247663,-0.14043735,-0.106732935,1,0,2.991299868,0.119427443,1594887812.61759
2020/07/16/17:23:32.717885,56667,1594887812,717603445,,,0,1594887808,-143.0939178,-274.8183289,-4.449043751,154.0808258,0.158352375,-0.0151712252,-0.0984202847,1,0,2.484300137,0.120117463,1594887812.71760
2020/07/16/17:23:32.817890,56668,1594887812,817591667,,,0,1594887808,-142.6294403,-280.0737,-4.424167633,154.7023773,0.144470751,0.0814568549,-0.147864446,1,0,1.622399926,0.121034458,1594887812.81759
2020/07/16/17:23:32.918014,56669,1594887812,917682409,,,0,1594887808,-142.4423981,-282.1297913,-4.411350727,154.9472351,0.148614943,-0.0466557294,-0.114107937,1,0,1.216799974,0.121392243,1594887812.91768
2020/07/16/17:23:33.017900,56670,1594887813,17611980,,,0,1594887808,-141.8529968,-288.4457703,-4.375571728,155.7029419,0.141201511,0.00546548329,-0.0726242736,1,0,0.506999969,0.122494876,1594887813.01761
2020/07/16/17:23:33.117886,56671,1594887813,117599964,,,0,1594887808,-141.6685638,-290.3849792,-4.36474514,155.9295349,0.149844483,0.0376007743,-0.0632099956,1,0,0.506999969,0.122832015,1594887813.11760
2020/07/16/17:23:33.217888,56672,1594887813,217605113,,,0,1594887808,-141.1442108,-295.8291321,-4.330882549,156.5590363,0.126603365,0.0410406478,-0.0473609865,1,0,0.659099996,0.123781502,1594887813.21761
2020/07/16/17:23:33.317898,56673,1594887813,317594528,,,0,1594887808,-140.5723724,-301.6858826,-4.297647476,157.2458954,0.147471145,-0.0660655275,-0.00677395053,1,0,0.45629999,0.124803431,1594887813.31759
2020/07/16/17:23:33.417877,56674,1594887813,417588949,,,0,1594887808,-140.200943,-305.4738159,-4.28271246,157.6883545,0.137287498,-0.00613717642,-0.0111954808,1,0,0,0.125464961,1594887813.41759
2020/07/16/17:23:33.517897,56675,1594887813,517600774,,,0,1594887808,-139.8151245,-309.4033813,-4.266412258,158.1407471,0.137199581,-0.0107401181,-0.00763885304,1,0,-0.304199994,0.126149952,1594887813.51760
2020/07/16/17:23:33.617904,56676,1594887813,617599725,,,0,1594887808,-139.285141,-314.7918701,-4.244234085,158.7602997,0.151225016,0.0381720476,0.00424316712,1,0,-0.405599982,0.127089962,1594887813.61760
2020/07/16/17:23:33.717873,56677,1594887813,717593908,,,0,1594887808,-138.9999695,-317.6918335,-4.230792522,159.0806427,0.12514244,0.0945640579,0.00170835014,1,0,-0.405599982,0.12759617,1594887813.71759
2020/07/16/17:23:33.817876,56678,1594887813,817596197,,,0,1594887808,-138.4153137,-323.6416016,-4.193111897,159.7315369,0.156875163,-0.0222887415,0.0183070954,1,0,-0.506999969,0.128634244,1594887813.81760
2020/07/16/17:23:33.917891,56679,1594887813,917591333,,,0,1594887808,-138.1294098,-326.5594177,-4.173867702,160.0541992,0.14194642,-0.0427703224,0.0216372665,1,0,-0.912599981,0.12914294,1594887813.91759
2020/07/16/17:23:34.017910,56680,1594887814,17607450,,,0,1594887808,-137.5589294,-332.4127502,-4.13779068,160.6897736,0.130236834,-0.0353734903,0.0283105485,1,0,-0.405599982,0.130163923,1594887814.01761
2020/07/16/17:23:34.117896,56681,1594887814,117605209,,,0,1594887808,-137.1323242,-336.8182983,-4.113017559,161.1724243,0.135391653,-0.0100407861,0.0157569125,1,0,-0.304199994,0.130932748,1594887814.11761
2020/07/16/17:23:34.217883,56682,1594887814,217591047,,,0,1594887808,-136.9386902,-338.8251648,-4.102448463,161.3820496,0.129707068,-0.0454270281,0.0395074785,1,0,-0.202799991,0.131282598,1594887814.21759
2020/07/16/17:23:34.317901,56683,1594887814,317599296,,,0,1594887808,-136.2703247,-345.8035889,-4.067275047,162.1219788,0.125730559,0.0950263813,0.0131994411,1,0,0.304199994,0.132500067,1594887814.31760
2020/07/16/17:23:34.417867,56684,1594887814,417585611,,,0,1594887808,-135.9492645,-349.1698914,-4.044483185,162.4692841,0.129510537,0.067672722,-0.00413613673,1,0,0.304199994,0.133087471,1594887814.41759
2020/07/16/17:23:34.517906,56685,1594887814,517601966,,,0,1594887808,-135.5763245,-353.0837097,-4.014671803,162.8683319,0.127940461,-0.117731266,0.0250353497,1,0,-0.506999969,0.133769557,1594887814.51760
2020/07/16/17:23:34.617913,56686,1594887814,617606639,,,0,1594887808,-135.1016541,-358.0917053,-3.987734795,163.3946228,0.143742457,-0.117064938,0.0114900777,0.860249996,0,0.709799945,0.134643257,1594887814.61761
2020/07/16/17:23:34.717881,56687,1594887814,717598915,,,0,1594887808,-134.5893402,-363.514801,-3.971659899,163.234848,-0.143034533,0.0792141184,-0.00791246723,0,0,-0.202799991,0.135589316,1594887814.71760
2020/07/16/17:23:34.817897,56688,1594887814,817594051,,,0,1594887808,-134.3976746,-365.5444641,-3.96406889,163.0035553,-0.147025496,0.0860565826,-0.00340338238,0,0,0.152099997,0.135942787,1594887814.81759
2020/07/16/17:23:34.918041,56689,1594887814,917699337,,,0,1594887808,-133.747406,-372.4179688,-3.926050425,161.5250549,-0.591997564,-0.0155523531,-0.0151344016,0,0.401985854,0.304199994,0.137142241,1594887814.91770
2020/07/16/17:23:35.017894,56690,1594887815,17602205,,,0,1594887808,-133.3810272,-376.2786255,-3.902356386,159.4386902,-0.936772168,-0.0414072201,-0.0074980557,0,0.927667201,0.506999969,0.137815967,1594887815.01760
2020/07/16/17:23:35.117888,56691,1594887815,117604255,,,0,1594887808,-132.9717712,-380.5880737,-3.87771368,155.6378784,-1.160943151,-0.038826149,-0.0285170004,0,1,3.396899939,0.138568774,1594887815.11760
2020/07/16/17:23:35.217874,56692,1594887815,217592000,,,0,1594887808,-132.5349426,-385.1641235,-3.851039171,151.2608948,-1.12547183,-0.0904143155,-0.00163988024,0,1,-1.318199992,0.13936764,1594887815.21759
2020/07/16/17:23:35.317902,56693,1594887815,317601203,,,0,1594887808,-132.2267303,-388.3896179,-3.8331604,148.2067413,-1.112933397,-0.107731611,0.0507482588,0,1,-7.199399948,0.139930293,1594887815.31760
2020/07/16/17:23:35.417908,56694,1594887815,417606830,,,0,1594887808,-131.7809296,-393.1080017,-3.810401917,144.099762,-0.541946054,-0.0263715386,-0.00513697416,0,0.187018365,-0.405599982,0.140754387,1594887815.41761
2020/07/16/17:23:35.517896,56695,1594887815,517601013,,,0,1594887808,-131.4556732,-396.5619202,-3.794969082,143.2579193,-0.14987649,-0.0342484675,-0.00139680877,0,0.0130599942,0.152099997,0.141356289,1594887815.51760
2020/07/16/17:23:35.617904,56696,1594887815,617603302,,,0,1594887808,-131.0872955,-400.4788513,-3.778358221,142.9550171,-0.066358231,0.022161128,0.00693259574,0,0,0.152099997,0.142040089,1594887815.61760
2020/07/16/17:23:35.717900,56697,1594887815,717599630,,,0,1594887808,-130.6538086,-405.1004639,-3.756640196,142.7281799,-0.0308149792,-0.0249457192,-0.000527429394,0,0,1.064700007,0.142846048,1594887815.71760
2020/07/16/17:23:35.817899,56698,1594887815,817594766,,,0,1594887808,-130.1767731,-410.1875916,-3.734465361,142.4645844,-0.0448691323,0.000552778831,-0.00624257978,0,0,1.064700007,0.143733069,1594887815.81759
2020/07/16/17:23:35.917886,56699,1594887815,917590379,,,0,1594887808,-129.977005,-412.3140564,-3.725807667,142.3331451,-0.0735395178,0.0577249788,-0.0297390372,0,0,1.216799974,0.144104689,1594887815.91759
2020/07/16/17:23:36.017908,56700,1594887816,17604589,,,0,1594887808,-129.5422363,-416.9141235,-3.701476812,142.0292511,-0.0954987854,0.0368328877,-0.0245252922,0,0.00163963635,0.506999969,0.14490667,1594887816.01760
2020/07/16/17:23:36.117918,56701,1594887816,117609024,,,0,1594887808,-129.2633514,-419.8487244,-3.683209419,140.7511749,-0.839402974,-0.0631363466,-0.000950038433,0,0.243653417,0.506999969,0.145419091,1594887816.11761
2020/07/16/17:23:36.217905,56702,1594887816,217599630,,,0,1594887808,-128.7914886,-424.7967224,-3.658032179,136.931427,-0.982163131,-0.0822206885,-0.00498417765,0,0.969201267,0.304199994,0.146281764,1594887816.21760
2020/07/16/17:23:36.317901,56703,1594887816,317600965,,,0,1594887808,-128.5231171,-427.6030579,-3.647248268,133.9829712,-1.16243422,-0.0252782982,-0.00972088426,0,1,-0.405599982,0.146772251,1594887816.31760
2020/07/16/17:23:36.417900,56704,1594887816,417600154,,,0,1594887808,-128.075058,-432.2814636,-3.626895905,128.7123261,-1.149874926,-0.0303765927,0.00195191056,0,1,0,0.147588879,1594887816.41760
2020/07/16/17:23:36.517896,56705,1594887816,517597913,,,0,1594887808,-127.8225784,-434.914856,-3.612562895,125.6440659,-1.102649689,-0.0505015329,-0.00267284364,0,1,-1.115399957,0.148048133,1594887816.51760
2020/07/16/17:23:36.617914,56706,1594887816,617611885,,,0,1594887808,-127.3657227,-439.6958923,-3.583858967,119.97155,-1.138834953,-0.0565164052,0.0364916548,0,1,-5.069999695,0.148884296,1594887816.61761
2020/07/16/17:23:36.717883,56707,1594887816,717584609,,,0,1594887808,-127.170311,-441.761322,-3.571246386,117.4929428,-1.056147337,-0.0747620463,0.056905061,0,1,-4.664400101,0.149244532,1594887816.71758
2020/07/16/17:23:36.817888,56708,1594887816,817587614,,,0,1594887808,-126.9094086,-444.543396,-3.555728436,114.0872955,-1.147907615,-0.0762827247,0.021437116,0,1,-2.230799913,0.149728671,1594887816.81759
2020/07/16/17:23:36.917987,56709,1594887816,917654514,,,0,1594887808,-126.6582718,-447.2423401,-3.541490793,110.6249084,-1.10540247,-0.0515496247,0.00325568765,0,0.991859496,0.506999969,0.15020065,1594887816.91765
2020/07/16/17:23:37.017912,56710,1594887817,17608404,,,0,1594887808,-126.2789764,-451.3522644,-3.518060684,105.0540619,-1.180223584,-0.0313810222,0.0443875194,0,0.942900658,-2.636399984,0.150919229,1594887817.01761
2020/07/16/17:23:37.117887,56711,1594887817,117595434,,,0,1594887808,-126.0014114,-454.4190369,-3.49726963,100.640686,-1.141572595,-0.0528278686,0.0584177151,0,0.942900658,-1.723799944,0.15145427,1594887817.11760
2020/07/16/17:23:37.217873,56712,1594887817,217591762,,,0,1594887808,-125.7411346,-457.3568115,-3.476042509,96.36404419,-1.114283919,-0.0881112218,0.0484317243,0,0.916450858,-0.608399987,0.151966527,1594887817.21759
2020/07/16/17:23:37.317897,56713,1594887817,317594289,,,0,1594887808,-125.6170654,-458.7780457,-3.466276169,94.22983551,-1.089089155,-0.0560684502,0.0513430014,0,0.883948505,-0.811199963,0.1522149,1594887817.31759
2020/07/16/17:23:37.417910,56714,1594887817,417608737,,,0,1594887808,-125.3180923,-462.2717285,-3.443223715,89.21450043,-0.879340053,-0.0116621088,0.0375813916,0,0.661645234,-1.318199992,0.152824789,1594887817.41761
2020/07/16/17:23:37.517866,56715,1594887817,517586469,,,0,1594887808,-125.2256699,-463.3731689,-3.435575962,87.91583252,-0.799897075,-0.0239090472,0.0395349413,0,0.588164032,-0.912599981,0.153016269,1594887817.51759
2020/07/16/17:23:37.617909,56716,1594887817,617607116,,,0,1594887808,-124.9315033,-466.9400635,-3.406970024,84.215065,-0.654661596,-0.0262727737,0.0276893824,0,0.512010932,0.45629999,0.153637588,1594887817.61761
2020/07/16/17:23:37.717904,56717,1594887817,717607498,,,0,1594887808,-124.7689819,-468.9427185,-3.388881207,82.29964447,-0.625751615,-0.0423317701,0.0168956295,0,0.475914061,0.861899972,0.153987736,1594887817.71761
2020/07/16/17:23:37.817884,56718,1594887817,817604780,,,0,1594887808,-124.595192,-471.1016846,-3.371573925,80.37062073,-0.510556281,-0.0523037463,0.00347723439,0,0.388371706,1.419599891,0.154363111,1594887817.81760
2020/07/16/17:23:37.917902,56719,1594887817,917604446,,,0,1594887808,-124.4048233,-473.4772949,-3.35703373,78.79402161,-0.314640969,-0.0163276158,0.000628247857,0,0.191288486,0.709799945,0.154776812,1594887817.91760
2020/07/16/17:23:38.017905,56720,1594887818,17609834,,,0,1594887808,-124.1753159,-476.3396301,-3.34033227,78.04250336,-0.0762350857,0.018158881,-0.0115339737,0,0.0024762156,1.571699977,0.15527606,1594887818.01761
2020/07/16/17:23:38.117868,56721,1594887818,117586612,,,0,1594887808,-124.0654678,-477.6990051,-3.331292152,77.84967041,-0.0871086642,0.0220303293,-0.0267902352,0,0.00029262554,2.180099726,0.155513227,1594887818.11759
2020/07/16/17:23:38.217875,56722,1594887818,217589616,,,0,1594887808,-123.9123764,-479.5706787,-3.317295074,77.59347534,-0.0814612582,0.0134286135,-0.0424431041,0,0,3.244799852,0.155839592,1594887818.21759
2020/07/16/17:23:38.317883,56723,1594887818,317596673,,,0,1594887808,-123.673645,-482.398407,-3.294839144,77.21985626,-0.0868178383,-0.0186069664,-0.118558802,0,0,11.10330009,0.156334192,1594887818.31760
2020/07/16/17:23:38.417896,56724,1594887818,417595148,,,0,1594887808,-123.571373,-483.5506287,-3.285985708,77.04070282,-0.13256973,-0.0147514967,-0.160240099,0,0.028928563,15.51419926,0.156535625,1594887818.41760
2020/07/16/17:23:38.517890,56725,1594887818,517597675,,,0,1594887808,-123.2459564,-486.8560791,-3.261591196,76.24938965,-0.174230918,-0.00562741468,-0.328674853,0,0.071556367,28.18919945,0.15711911,1594887818.51760
2020/07/16/17:23:38.617910,56726,1594887818,617601633,,,0,1594887808,-123.0582047,-488.4915466,-3.249608994,75.77059174,-0.192409396,-0.0152002061,-0.394608468,0,0.0627239347,31.53539848,0.157409951,1594887818.61760
2020/07/16/17:23:38.717886,56727,1594887818,717592239,,,0,1594887808,-122.6785507,-491.2922058,-3.229214907,75.05879211,-0.131102458,-0.0355548076,-0.488943398,0,0.0177676175,34.67879868,0.157912686,1594887818.71759
2020/07/16/17:23:38.817903,56728,1594887818,817598104,,,0,1594887808,-122.4940567,-492.4638977,-3.221471787,74.81310272,-0.126811907,-0.0500553809,-0.528708875,0,0.00818090048,37.21379852,0.158122674,1594887818.81760
2020/07/16/17:23:38.917999,56729,1594887818,917664289,,,0,1594887808,-122.0874481,-494.7265625,-3.208753109,74.34806824,-0.121015966,-0.0295510963,-0.610492408,0,0.00107035541,43.29780197,0.158531681,1594887818.91766
2020/07/16/17:23:39.017902,56730,1594887819,17600297,,,0,1594887808,-121.7473526,-496.3599243,-3.20035553,73.99699402,-0.112887532,-0.000761124305,-0.667636514,0,0.000935771444,47.35379791,0.158829078,1594887819.01760
2020/07/16/17:23:39.117908,56731,1594887819,117600679,,,0,1594887808,-121.0589142,-499.1607666,-3.183154345,73.33451843,-0.128628269,-0.0414998904,-0.724188805,0,0.0066455286,54.04619598,0.159337267,1594887819.11760
2020/07/16/17:23:39.217891,56732,1594887819,217593908,,,0,1594887808,-120.6580353,-500.5673828,-3.174564362,72.97498322,-0.13766396,-0.0626896918,-0.75493598,0,0.00967931282,58.81199646,0.159595057,1594887819.21759
2020/07/16/17:23:39.317887,56733,1594887819,317585945,,,0,1594887808,-120.1081467,-502.2997131,-3.165648222,72.47654724,-0.143051162,-0.0536626913,-0.802158952,0,0.00995429233,64.28759766,0.159913227,1594887819.31759
2020/07/16/17:23:39.417894,56734,1594887819,417590856,,,0,1594887808,-119.4591293,-504.1112671,-3.157452583,71.90608978,-0.153036803,-0.0346044712,-0.83712703,0,0.00493902853,69.45899963,0.16024822,1594887819.41759
2020/07/16/17:23:39.517883,56735,1594887819,517594575,,,0,1594887808,-118.6263351,-506.1543579,-3.148928881,71.25905609,-0.158506632,-0.0133318929,-0.903567195,0,0.000638622674,75.23880005,0.160628483,1594887819.51759
2020/07/16/17:23:39.617889,56736,1594887819,617601633,,,0,1594887808,-117.4917679,-508.5543213,-3.137927055,70.38715363,-0.18835628,-0.0165770426,-0.954777956,0,0,88.62359619,0.161076114,1594887819.61760
2020/07/16/17:23:39.717870,56737,1594887819,717576742,,,0,1594887808,-116.7184067,-509.9946899,-3.130117893,69.81195831,-0.168217003,-0.0484254248,-0.935688257,0,0,99.37199402,0.161347762,1594887819.71758
2020/07/16/17:23:39.817865,56738,1594887819,817579746,,,0,1594887808,-115.7739639,-511.5871582,-3.12210536,69.11446381,-0.172578245,-0.0742180124,-0.935104549,0,0,110.4245987,0.161646456,1594887819.81758
2020/07/16/17:23:39.917906,56739,1594887819,917590618,,,0,1594887808,-115.1518555,-512.5509644,-3.117928028,68.61363983,-0.186157733,0.0210669916,-1.000792027,0,0,112.9596024,0.161829457,1594887819.91759
2020/07/16/17:23:40.017904,56740,1594887820,17589569,,,0,1594887808,-113.593811,-514.706543,-3.097964764,67.32019806,-0.183775008,0.0553298853,-1.048478365,0,0,112.4525986,0.162236407,1594887820.01759
2020/07/16/17:23:40.117926,56741,1594887820,117606163,,,0,1594887808,-112.6045685,-515.9138794,-3.077642441,66.58738709,-0.204345971,-0.0283908602,-0.990203977,0,0,112.6553955,0.162469953,1594887820.11761
2020/07/16/17:23:40.217924,56742,1594887820,217603683,,,0,1594887808,-111.3491211,-517.3036499,-3.050559759,65.72977448,-0.167165458,-0.088003695,-0.930112839,0,0,112.7567978,0.162732258,1594887820.21760
2020/07/16/17:23:40.317933,56743,1594887820,317607402,,,0,1594887808,-110.1975403,-518.4610596,-3.030327082,64.99543762,-0.138845056,-0.11646495,-0.856310844,0,0,112.6553955,0.162958249,1594887820.31761
2020/07/16/17:23:40.417931,56744,1594887820,417598962,,,0,1594887808,-108.8486328,-519.6958618,-3.015488386,64.17408752,-0.190816283,-0.119665593,-0.899000823,0,0,112.0469971,0.163207382,1594887820.41760
2020/07/16/17:23:40.517946,56745,1594887820,517606973,,,0,1594887808,-107.2914963,-520.9761963,-3.008054495,63.22344589,-0.198563129,-0.0538162813,-0.92799288,0,0,111.2357941,0.163486347,1594887820.51761
2020/07/16/17:23:40.617926,56746,1594887820,617769479,,,0,1594887808,-105.6008987,-522.2026978,-3.002386808,62.1772995,-0.173581272,-0.0439030826,-0.939304948,0,0,108.5993958,0.163777724,1594887820.61777
2020/07/16/17:23:40.717912,56747,1594887820,717607498,,,0,1594887808,-104.6943436,-522.7944336,-2.998917103,61.63528442,-0.201714873,-0.0234593675,-0.986979544,0,0,106.5713959,0.163930729,1594887820.71761
2020/07/16/17:23:40.817913,56748,1594887820,817605733,,,0,1594887808,-102.8463593,-523.8690796,-2.990386009,60.6406517,-0.147043049,-0.106901258,-0.912089407,0,0,99.37199402,0.164244533,1594887820.81761
2020/07/16/17:23:40.917993,56749,1594887820,917678117,,,0,1594887808,-101.457016,-524.5710449,-2.987329245,59.9585495,-0.166613668,-0.0745629072,-0.929731429,0,0,77.67240143,0.164493844,1594887820.91768
2020/07/16/17:23:41.017883,56750,1594887821,17593145,,,0,1594887808,-99.72930908,-525.3245239,-2.982955456,59.20003891,-0.0927171856,0.0732967854,-0.750429869,0,0,19.0632,0.164802909,1594887821.01759
2020/07/16/17:23:41.117894,56751,1594887821,117606878,,,0,1594887808,-98.4925766,-525.7932129,-2.957213879,58.57762909,-0.101222634,0.0198914148,-0.666150093,0,0,-11.66100025,0.165040046,1594887821.11761
2020/07/16/17:23:41.217888,56752,1594887821,217604160,,,0,1594887808,-96.78993988,-526.3720093,-2.921263695,58.03456879,-0.368741214,0.592395484,-0.23449707,0,0.381974876,-10.44420052,0.165460974,1594887821.21760
2020/07/16/17:23:41.317900,56753,1594887821,317590951,,,0,1594887808,-95.24824524,-526.8704224,-2.885928869,56.58405304,-0.393452942,-0.75058341,0.0481362268,0,0.976759493,-3.346199989,0.165871486,1594887821.31759
2020/07/16/17:23:41.417907,56754,1594887821,417601346,,,0,1594887808,-94.10163879,-527.2397461,-2.894201756,54.57946396,-0.882811785,0.315317988,-0.0891249776,0,1,-10.74839973,0.16618152,1594887821.41760
2020/07/16/17:23:41.517901,56755,1594887821,517594814,,,0,1594887808,-92.42958832,-527.7715454,-2.903816223,51.10119629,-0.45899123,-0.0677206442,0.189362288,0,0.686334431,-40.25579834,0.16661346,1594887821.51759
2020/07/16/17:23:41.617899,56756,1594887821,617588996,,,0,1594887808,-91.16728973,-528.1828003,-2.915564299,48.45674515,-0.904558539,0.247829542,0.252785653,0,0.313029826,-31.43400002,0.16694051,1594887821.61759
2020/07/16/17:23:41.717903,56757,1594887821,717599630,,,0,1594887808,-90.18910217,-528.5189209,-2.912508249,47.40082169,-0.1674999,0.15441297,0.367302001,0,0.0581484959,-24.33600044,0.167183846,1594887821.71760
2020/07/16/17:23:41.817896,56758,1594887821,817602872,,,0,1594887808,-88.49803925,-529.1546021,-2.884924889,46.98373795,0.0116850734,0.0035163383,0.235673487,0,0,-25.04579926,0.167610213,1594887821.81760
2020/07/16/17:23:41.917913,56759,1594887821,917602300,,,0,1594887808,-87.30091095,-529.6369019,-2.86301899,46.90336609,0.00536774471,-0.0893787965,0.191348642,0,0,-34.57740021,0.167899728,1594887821.91760
2020/07/16/17:23:42.017882,56760,1594887822,17581462,,,0,1594887808,-86.47203827,-529.9832153,-2.851803064,46.84152603,0.00127932429,-0.0582435578,0.230539411,0,0,-38.73479843,0.168100432,1594887822.01758
