time,.header.seq,.header.stamp.secs,.header.stamp.nsecs,.header.frame_id,.identifier.data,.size.data,.TimeStamp.data,PosLocalX,PosLocalY,Height,GPS_Speed,AccelX,AccelY,AccelZ,PedalPosAcc,PedalPosBrk,AngleSteer,carPositionNormalized,TimeStamp
2020/07/16/16:11:11.654331,36998,1594883471,653964519,,,0,1594883456,-91.27371979,0.733139217,1.078757524,0.00143878465,0,0,0,1,0,-7.706399441,0.00709209777,1594883471.65396
2020/07/16/16:11:11.663098,36999,1594883471,662827730,,,0,1594883456,-91.27371979,0.733139753,1.078757167,0.00114166504,0,0,0,1,0,-7.807799816,0.00709209777,1594883471.66283
2020/07/16/16:11:11.754968,37000,1594883471,754667520,,,0,1594883456,-91.27371979,0.733142853,1.078754425,0.000702939753,0,0,0,1,0,-8.111999512,0.00709209777,1594883471.75467
2020/07/16/16:11:11.854988,37001,1594883471,854668617,,,0,1594883456,-91.27371979,0.733150005,1.078750014,0.00164201006,0,0,0,1,0,-9.125999451,0.00709386403,1594883471.85467
2020/07/16/16:11:11.954956,37002,1594883471,954675912,,,0,1594883456,-91.27371979,0.733154356,1.078745127,0.00213474804,0,0,0,0.685750008,0,-9.430199623,0.00709386403,1594883471.95468
2020/07/16/16:11:12.055048,37003,1594883472,54720401,,,0,1594883456,-91.27371979,0.733152747,1.078737617,0.00181041146,0,0,0,0,0,-9.024600029,0.00709209777,1594883472.05472
2020/07/16/16:11:12.154921,37004,1594883472,154651165,,,0,1594883456,-91.27371979,0.733154237,1.078735352,0.000780041562,0,0,0,0,0,-9.227399826,0.00709386403,1594883472.15465
2020/07/16/16:11:12.254978,37005,1594883472,254695177,,,0,1594883456,-91.27596283,0.733166933,1.078756809,0.477756143,0.685593009,0.0153980656,0.00221229857,1,0,-10.74839973,0.00709209777,1594883472.25470
2020/07/16/16:11:12.354929,37006,1594883472,354657173,,,0,1594883456,-91.31456757,0.733247757,1.080304503,2.582309246,0.916021347,0.0348377861,0.00766991079,1,0,-13.79039955,0.00710416725,1594883472.35466
2020/07/16/16:11:12.454932,37007,1594883472,454650163,,,0,1594883456,-91.43247986,0.733623624,1.086254716,5.166165829,0.544209063,-0.00172214839,0.0151694361,1,0,-27.17519951,0.00712830666,1594883472.45465
2020/07/16/16:11:12.554934,37008,1594883472,554659128,,,0,1594883456,-91.61227417,0.734968185,1.092525721,7.368356705,0.643998325,-0.0551975518,0.0205963198,1,0,-49.07759857,0.00715774437,1594883472.55466
2020/07/16/16:11:12.654931,37009,1594883472,654647588,,,0,1594883456,-91.83496094,0.737868071,1.095631242,9.696541786,0.745491385,-0.0361305401,0.0330018625,1,0,-69.05339813,0.0071886545,1594883472.65465
2020/07/16/16:11:12.754940,37010,1594883472,754660367,,,0,1594883456,-92.30953979,0.748720348,1.099407911,13.88210201,0.876981258,-0.0078834733,0.0566427074,1,0,-89.84039307,0.00722280284,1594883472.75466
2020/07/16/16:11:12.855069,37011,1594883472,854729890,,,0,1594883456,-92.46800995,0.753636956,1.100963712,15.11105347,0.903240442,-0.00630533136,0.0613740347,1,0,-91.25999451,0.00722280284,1594883472.85473
2020/07/16/16:11:12.955038,37012,1594883472,954726696,,,0,1594883456,-93.19013214,0.78249526,1.109985232,20.05714798,0.98576349,-0.0165138207,0.0747866705,1,0,-90.6516037,0.00722280284,1594883472.95473
2020/07/16/16:11:13.054876,37013,1594883473,54618358,,,0,1594883456,-93.39826202,0.792509913,1.112889767,21.30808449,0.979438186,-0.0208495557,0.0814429149,1,0,-90.44879913,0.00722280284,1594883473.05462
2020/07/16/16:11:13.154946,37014,1594883473,154658555,,,0,1594883456,-94.39914703,0.850737453,1.126731038,26.49487495,0.957657695,-0.0304669589,0.164612293,1,0,-89.63759613,0.00765649695,1594883473.15466
2020/07/16/16:11:13.254986,37015,1594883473,254688262,,,0,1594883456,-95.02579498,0.899127722,1.135001659,29.08950996,0.883857965,-0.0237401389,0.229721189,1,0,-87.20399475,0.00776206423,1594883473.25469
2020/07/16/16:11:13.354955,37016,1594883473,354663133,,,0,1594883456,-96.24581146,1.030813456,1.151151299,33.18179321,0.713808596,-0.0382884592,0.275564134,1,0,-67.53239441,0.00814704131,1594883473.35466
2020/07/16/16:11:13.454915,37017,1594883473,454637289,,,0,1594883456,-96.77896881,1.102969408,1.157619834,34.5593338,0.674803019,-0.0363315903,0.231815636,1,0,-55.56719971,0.00814704131,1594883473.45464
2020/07/16/16:11:13.554935,37018,1594883473,554651975,,,0,1594883456,-98.28104401,1.336719632,1.173729301,38.18352127,0.679850221,-0.0123428395,0.153263092,1,0,-37.11239624,0.00838850159,1594883473.55465
2020/07/16/16:11:13.654907,37019,1594883473,654623985,,,0,1594883456,-98.69493866,1.406860232,1.178091049,39.10687256,0.656152725,-0.00675046211,0.142231315,1,0,-32.34659958,0.00848066993,1594883473.65462
2020/07/16/16:11:13.754955,37020,1594883473,754668474,,,0,1594883456,-100.2557526,1.686588764,1.195239186,41.20629883,0.0384688415,-0.00400813529,0.0864585191,0,0,-17.44079781,0.00878093857,1594883473.75467
2020/07/16/16:11:13.854970,37021,1594883473,854677915,,,0,1594883456,-101.3005142,1.883612275,1.206394434,41.11259079,-0.0426978543,-0.0139413951,0.0682416931,0,0,-13.28340054,0.00898141135,1594883473.85468
2020/07/16/16:11:13.954952,37022,1594883473,954648256,,,0,1594883456,-102.3748398,2.092260838,1.216969371,40.98043442,-0.0456733815,-0.00432203896,0.0479950309,0,0,-9.125999451,0.009185615,1594883473.95465
2020/07/16/16:11:14.054906,37023,1594883474,54615259,,,0,1594883456,-103.6116486,2.337785482,1.229103327,40.82828903,-0.0319664069,0.0124687543,0.0279452521,0.301250011,0,-4.867199898,0.00942617282,1594883474.05462
2020/07/16/16:11:14.154944,37024,1594883474,154631376,,,0,1594883456,-104.548027,2.526060343,1.238871098,41.33283997,0.624309242,0.00854122825,0.0231445804,1,0,-3.85319972,0.009607438,1594883474.15463
2020/07/16/16:11:14.254960,37025,1594883474,254673957,,,0,1594883456,-105.8333588,2.787056684,1.253039241,43.26551056,0.380601138,0.0246018134,0.0269413963,1,0,-4.461599827,0.00985369831,1594883474.25467
2020/07/16/16:11:14.354972,37026,1594883474,354662895,,,0,1594883456,-106.8369446,2.993001223,1.265456319,44.45148849,0.41139555,0.00165744382,0.0321654603,1,0,-4.360199451,0.0100461319,1594883474.35466
2020/07/16/16:11:14.454956,37027,1594883474,454652786,,,0,1594883456,-107.9807129,3.230167627,1.278895259,45.87768173,0.441868931,-0.00366472034,0.0221885592,1,0,-4.25880003,0.010265125,1594883474.45465
2020/07/16/16:11:14.554950,37028,1594883474,554663181,,,0,1594883456,-109.3941269,3.525921583,1.293714523,47.67610931,0.470827401,-0.00596229685,0.026115045,1,0,-2.636399984,0.0105390241,1594883474.55466
2020/07/16/16:11:14.654950,37029,1594883474,654645204,,,0,1594883456,-110.7420349,3.81018877,1.306449413,49.41805267,0.476573855,0.0129159978,0.00695499778,1,0,-1.115399957,0.0107979206,1594883474.65465
2020/07/16/16:11:14.754954,37030,1594883474,754650592,,,0,1594883456,-112.5575867,4.194556236,1.323599935,51.65153122,0.476615041,-0.00259501673,0.00677840412,1,0,-0.506999969,0.0111475755,1594883474.75465
2020/07/16/16:11:14.855136,37031,1594883474,854775667,,,0,1594883456,-113.8408508,4.466959476,1.335711241,53.14912033,0.467622161,-0.00180454203,0.00488680601,1,0,-0.202799991,0.0113946488,1594883474.85478
2020/07/16/16:11:14.955065,37032,1594883474,954727888,,,0,1594883456,-114.8050232,4.671830177,1.344881058,54.2353363,0.466974109,-0.00265515083,-0.00128998607,1,0,0.45629999,0.0115822395,1594883474.95473
2020/07/16/16:11:15.055001,37033,1594883475,54701328,,,0,1594883456,-116.7453766,5.083968163,1.363422751,56.33576965,0.463665545,0.00190077734,-0.00484456122,1,0,0.912599981,0.0119541893,1594883475.05470
2020/07/16/16:11:15.154932,37034,1594883475,154644012,,,0,1594883456,-117.6262207,5.270822525,1.372028947,57.26325607,0.463056535,0.00415855879,-0.0110944435,1,0,1.774499893,0.0121255592,1594883475.15464
2020/07/16/16:11:15.254987,37035,1594883475,254685401,,,0,1594883456,-119.6733246,5.70291853,1.392676234,59.37243652,0.46425879,0.00499658845,-0.0505550839,1,0,7.959899902,0.0125205982,1594883475.25469
2020/07/16/16:11:15.354947,37036,1594883475,354659795,,,0,1594883456,-121.1960449,6.019075394,1.408570409,60.88767242,0.455965966,-0.00215784018,-0.103621289,1,0,14.80439949,0.0128150936,1594883475.35466
2020/07/16/16:11:15.454949,37037,1594883475,454662322,,,0,1594883456,-123.0659027,6.394340515,1.428198457,62.67625809,0.4546583,-0.0122475009,-0.186255634,1,0,24.48809814,0.0131743159,1594883475.45466
2020/07/16/16:11:15.554952,37038,1594883475,554667949,,,0,1594883456,-124.4668732,6.661108017,1.442422152,63.95225906,0.440358847,-0.0135519486,-0.258566976,1,0,31.73820114,0.0134455506,1594883475.55467
2020/07/16/16:11:15.654918,37039,1594883475,654645204,,,0,1594883456,-126.9791565,7.095826626,1.466726184,66.09879303,0.421849787,-0.0144370198,-0.35051477,1,0,36.60540009,0.0139301065,1594883475.65465
2020/07/16/16:11:15.754902,37040,1594883475,754628419,,,0,1594883456,-128.2977142,7.297882557,1.479048133,67.16721344,0.420491099,-0.0109922849,-0.373594195,1,0,35.18579864,0.0141851893,1594883475.75463
2020/07/16/16:11:15.854944,37041,1594883475,854660034,,,0,1594883456,-129.6964874,7.491584301,1.492228031,68.26869202,0.398328125,0.00976211019,-0.39254427,1,0,33.7661972,0.0144555345,1594883475.85466
2020/07/16/16:11:15.954942,37042,1594883475,954668045,,,0,1594883456,-132.3355408,7.798989296,1.519258738,70.23054504,0.401163578,0.00753412815,-0.395618618,1,0,30.11579895,0.0149643039,1594883475.95467
2020/07/16/16:11:16.054962,37043,1594883476,54675340,,,0,1594883456,-133.4496002,7.906811714,1.531440973,71.02700043,0.39698863,-0.00539108878,-0.381215334,1,0,27.17519951,0.0151788145,1594883476.05468
2020/07/16/16:11:16.154983,37044,1594883476,154652595,,,0,1594883456,-136.1979675,8.122560501,1.561616898,72.39026642,0.102864474,-0.0213055164,-0.340442002,0.054700017,0,19.16460037,0.0157100428,1594883476.15465
2020/07/16/16:11:16.255012,37045,1594883476,254676580,,,0,1594883456,-138.2423553,8.242362022,1.582407117,72.17376709,-0.0415213183,-0.0212034434,-0.259777874,0,0,11.30609989,0.0161047541,1594883476.25468
2020/07/16/16:11:16.354962,37046,1594883476,354655742,,,0,1594883456,-139.382843,8.297160149,1.593239069,72.07511902,-0.0491492786,-0.0125146341,-0.249082029,0,0,11.15400028,0.0163257774,1594883476.35466
2020/07/16/16:11:16.455066,37047,1594883476,454716682,,,0,1594883456,-141.9592896,8.391633987,1.617409706,71.84792328,-0.0447021648,0.00726487115,-0.241030887,0.431650013,0,12.57359982,0.0168229993,1594883476.45472
2020/07/16/16:11:16.554980,37048,1594883476,554666996,,,0,1594883456,-143.8770905,8.436338425,1.636404157,72.36743164,0.559880495,0.0255523995,-0.194038093,1,0,14.09459972,0.0171921384,1594883476.55467
2020/07/16/16:11:16.654960,37049,1594883476,654650449,,,0,1594883456,-146.1916809,8.462238312,1.661508441,73.58758545,0.271621972,0.0131325219,-0.245807663,1,0,17.44079781,0.0176410303,1594883476.65465
2020/07/16/16:11:16.754947,37050,1594883476,754642009,,,0,1594883456,-147.7332306,8.462116241,1.679235816,74.32196808,0.277342468,-0.0378786586,-0.231671348,1,0,15.71700001,0.0179393217,1594883476.75464
2020/07/16/16:11:16.855050,37051,1594883476,854727268,,,0,1594883456,-150.7388153,8.424985886,1.705775857,75.90812683,0.327233702,-0.16551958,-0.224975765,1,0,14.09459972,0.0185203589,1594883476.85473
2020/07/16/16:11:16.954941,37052,1594883476,954670906,,,0,1594883456,-152.5862274,8.380260468,1.710409999,76.92360687,0.328810394,-0.108870655,-0.172739357,1,0,10.95119953,0.0188768972,1594883476.95467
2020/07/16/16:11:17.054965,37053,1594883477,54666042,,,0,1594883456,-153.6159058,8.349588394,1.709944248,77.48869324,0.332936436,-0.0366154499,-0.152988121,1,0,7.706399441,0.0190762691,1594883477.05467
2020/07/16/16:11:17.154926,37054,1594883477,154643535,,,0,1594883456,-156.8143005,8.235046387,1.71785152,79.12316132,0.308130741,0.189946041,-0.0938924626,1,0,-2.534999847,0.0196942855,1594883477.15464
2020/07/16/16:11:17.254956,37055,1594883477,254660129,,,0,1594883456,-159.0045319,8.144859314,1.751068592,80.23873138,0.351202011,0.147904336,0.0101204626,1,0,-9.024600029,0.0201180913,1594883477.25466
2020/07/16/16:11:17.354931,37056,1594883477,354640483,,,0,1594883456,-161.4292755,8.046245575,1.801967621,81.47294617,0.32784912,-0.121998996,0.128587782,1,0,-12.57359982,0.020587692,1594883477.35464
2020/07/16/16:11:17.454902,37057,1594883477,454622983,,,0,1594883456,-163.2038116,7.98268652,1.833264589,82.36727905,0.325732291,-0.0921025872,0.163433522,1,0,-12.16800022,0.0209314153,1594883477.45462
2020/07/16/16:11:17.554935,37058,1594883477,554652690,,,0,1594883456,-165.6236877,7.911578178,1.868871212,83.55850983,0.334418923,0.017433282,0.162927508,1,0,-9.734399796,0.0213999152,1594883477.55465
2020/07/16/16:11:17.654913,37059,1594883477,654633998,,,0,1594883456,-168.6442871,7.846744061,1.916595101,84.98240662,0.300629348,0.0168715399,0.173089609,1,0,-8.111999512,0.0219840445,1594883477.65463
2020/07/16/16:11:17.754905,37060,1594883477,754624605,,,0,1594883456,-170.7105408,7.817731857,1.950820923,85.97050476,0.327309132,-0.0739333034,0.161837623,1,0,-8.51760006,0.0223846212,1594883477.75462
2020/07/16/16:11:17.854917,37061,1594883477,854641675,,,0,1594883456,-172.5112762,7.802387238,1.975845218,86.8234024,0.326007485,-0.140366271,0.144711271,1,0,-7.909199715,0.0227321908,1594883477.85464
2020/07/16/16:11:17.954931,37062,1594883477,954651832,,,0,1594883456,-175.0622864,7.79442215,2.00224781,88.01152039,0.331433028,-0.0103338175,0.125089258,1,0,-5.779799461,0.023224188,1594883477.95465
2020/07/16/16:11:18.054952,37063,1594883478,54662704,,,0,1594883456,-178.0944824,7.802364826,2.033547401,89.38851929,0.31383273,0.0355125926,0.106479757,1,0,-4.360199451,0.0238079373,1594883478.05466
2020/07/16/16:11:18.154912,37064,1594883478,154630422,,,0,1594883456,-180.4934845,7.819748878,2.062811375,90.45271301,0.316123456,0.0351334363,0.0950901508,1,0,-3.75180006,0.0242737941,1594883478.15463
2020/07/16/16:11:18.254982,37065,1594883478,254683494,,,0,1594883456,-181.9311523,7.834279537,2.082119465,91.07714844,0.315739989,0.0248299204,0.0920820385,1,0,-3.548999786,0.0245491397,1594883478.25468
2020/07/16/16:11:18.354927,37066,1594883478,354645252,,,0,1594883456,-185.2981415,7.87915659,2.12957263,92.51135254,0.313049138,-0.00803450961,0.0700375661,1,0,-2.636399984,0.0251983441,1594883478.35465
2020/07/16/16:11:18.454905,37067,1594883478,454629182,,,0,1594883456,-188.4824066,7.932303429,2.173999786,93.82859802,0.304784745,-0.00802684855,0.0349693336,1,0,0.253499985,0.0258135498,1594883478.45463
2020/07/16/16:11:18.554938,37068,1594883478,554655790,,,0,1594883456,-190.9986877,7.978024006,2.20889926,94.84333801,0.288340002,0.0208546855,0.00614712201,1,0,2.889899731,0.0262979716,1594883478.55466
2020/07/16/16:11:18.654916,37069,1594883478,654634952,,,0,1594883456,-193.7814636,8.028639793,2.250643492,95.93122864,0.291608572,0.0388986804,-0.032054387,1,0,3.650399923,0.0268344972,1594883478.65464
2020/07/16/16:11:18.754937,37070,1594883478,754647731,,,0,1594883456,-195.3053741,8.054857254,2.275735855,96.52219391,0.282346696,0.112306938,-0.0926538259,1,0,4.917899609,0.0271270517,1594883478.75465
2020/07/16/16:11:18.855059,37071,1594883478,854730606,,,0,1594883456,-198.624588,8.100073814,2.342015028,97.73180389,0.278469026,0.125128716,-0.144145489,1,0,7.300799847,0.0277671535,1594883478.85473
2020/07/16/16:11:18.955038,37072,1594883478,954720020,,,0,1594883456,-201.2436829,8.121925354,2.406831503,98.6759491,0.272099376,0.035863176,-0.110349372,1,0,5.830500126,0.0282722656,1594883478.95472
2020/07/16/16:11:19.054961,37073,1594883479,54674148,,,0,1594883456,-204.1370087,8.134374619,2.483343363,99.69200897,0.256970346,0.138934627,-0.0856786668,1,0,5.678399563,0.0288309753,1594883479.05467
2020/07/16/16:11:19.154943,37074,1594883479,154664516,,,0,1594883456,-206.5555878,8.135746002,2.553271055,100.5006638,0.275741488,0.0978707075,-0.140518218,1,0,5.475599766,0.0292971358,1594883479.15466
2020/07/16/16:11:19.254976,37075,1594883479,254684925,,,0,1594883456,-209.1625519,8.124785423,2.633703947,101.3424072,0.260624915,0.0150837963,-0.195589617,1,0,5.424899578,0.0298013072,1594883479.25468
2020/07/16/16:11:19.354962,37076,1594883479,354671478,,,0,1594883456,-212.9850616,8.082324982,2.759376764,102.5678711,0.259505242,0.0153892916,-0.107298419,1,0,2.484300137,0.0305390377,1594883479.35467
2020/07/16/16:11:19.454939,37077,1594883479,454637050,,,0,1594883456,-215.4724579,8.043399811,2.843459129,103.3463898,0.25371331,-0.0189062972,-0.0880501419,1,0,2.281499863,0.0310203861,1594883479.45464
2020/07/16/16:11:19.554923,37078,1594883479,554642200,,,0,1594883456,-218.2386475,7.992917061,2.937594175,104.1836319,0.244152889,0.0930780917,-0.0771751031,1,0,2.484300137,0.0315569825,1594883479.55464
2020/07/16/16:11:19.654949,37079,1594883479,654664039,,,0,1594883456,-221.0259705,7.934358597,3.043717861,104.9724731,0.228106201,0.245291755,-0.0921680927,1,0,2.281499863,0.032094568,1594883479.65466
2020/07/16/16:11:19.754926,37080,1594883479,754638433,,,0,1594883456,-223.6567841,7.871145725,3.162677288,105.7069855,0.2423127,0.123534143,-0.0579913184,1,0,1.825199962,0.0326033272,1594883479.75464
2020/07/16/16:11:19.854949,37081,1594883479,854660272,,,0,1594883456,-226.7489166,7.791250229,3.310521126,106.5591431,0.231828973,-0.109261386,-0.0297406781,1,0,1.571699977,0.0331999324,1594883479.85466
2020/07/16/16:11:19.954925,37082,1594883479,954648494,,,0,1594883456,-229.3301239,7.722020626,3.426347733,107.2716217,0.236660227,-0.144285485,-0.0631294101,1,0,1.825199962,0.0336977653,1594883479.95465
2020/07/16/16:11:20.054989,37083,1594883480,54672241,,,0,1594883456,-233.3695984,7.604420185,3.592203856,108.3603439,0.227100849,-0.00113602541,-0.0680170581,1,0,1.774499893,0.0344772525,1594883480.05467
2020/07/16/16:11:20.154951,37084,1594883480,154647588,,,0,1594883456,-236.266449,7.512684345,3.709536076,109.1176605,0.224252298,0.0253794771,-0.0525150672,1,0,1.216799974,0.0350347273,1594883480.15465
2020/07/16/16:11:20.255017,37085,1594883480,254683971,,,0,1594883456,-238.0870667,7.452520847,3.784301758,109.5882874,0.228850782,0.0218717828,-0.0475774743,1,0,1.216799974,0.035383679,1594883480.25468
2020/07/16/16:11:20.354958,37086,1594883480,354655265,,,0,1594883456,-242.2115936,7.31013298,3.955812693,110.6361465,0.217376083,0.00349462498,-0.0434824862,1,0,1.368899941,0.0361792631,1594883480.35466
2020/07/16/16:11:20.454950,37087,1594883480,454648971,,,0,1594883456,-244.2421875,7.237140656,4.040653229,111.1464157,0.212854996,0.0181970336,-0.0422528312,1,0,1.216799974,0.0365701243,1594883480.45465
2020/07/16/16:11:20.554961,37088,1594883480,554656505,,,0,1594883456,-248.4236755,7.080156803,4.223263741,112.1541443,0.205711991,0.129753709,-0.0403527394,1,0,-0.101399995,0.0373769887,1594883480.55466
2020/07/16/16:11:20.654945,37089,1594883480,654645204,,,0,1594883456,-251.5130615,6.959488869,4.371123791,112.8895416,0.209081054,0.0331250988,-0.00891315006,1,0,-0.202799991,0.0379724689,1594883480.65465
2020/07/16/16:11:20.754960,37090,1594883480,754653930,,,0,1594883456,-254.5278473,6.840344429,4.518638611,113.5977325,0.203419805,-0.029553622,-0.0148971416,1,0,0.709799945,0.0385550819,1594883480.75465
2020/07/16/16:11:20.855056,37091,1594883480,854701519,,,0,1594883456,-257.9419861,6.703762054,4.682798862,114.3871307,0.198482871,-0.0287368502,-0.0182160847,1,0,0.506999969,0.0392129943,1594883480.85470
2020/07/16/16:11:20.955066,37092,1594883480,954732656,,,0,1594883456,-260.4224243,6.603245258,4.800048828,114.954628,0.215232342,-0.00970654469,-0.0240088943,1,0,0.912599981,0.0396912098,1594883480.95473
2020/07/16/16:11:21.055051,37093,1594883481,54723739,,,0,1594883456,-263.7806396,6.464956284,4.957746029,115.701561,0.198545039,-0.0494435951,-0.0396333449,1,0,0.506999969,0.0403384678,1594883481.05472
2020/07/16/16:11:21.154942,37094,1594883481,154637813,,,0,1594883456,-267.8392639,6.293253422,5.14842844,116.5775757,0.177797496,0.268684268,-0.0239691548,1,0,0.304199994,0.041121982,1594883481.15464
2020/07/16/16:11:21.255038,37095,1594883481,254716396,,,0,1594883456,-270.0731812,6.197435379,5.267558575,117.0237579,0.21251367,0.297747701,0.0341577269,1,0,-0.608399987,0.0415518284,1594883481.25472
2020/07/16/16:11:21.354953,37096,1594883481,354660749,,,0,1594883456,-274.272644,6.019696712,5.511070251,117.9107513,0.191212073,-0.126541376,-0.00979008991,1,0,0.912599981,0.0423606113,1594883481.35466
2020/07/16/16:11:21.454952,37097,1594883481,454646348,,,0,1594883456,-277.4188538,5.885076523,5.680253983,118.5599213,0.181733236,-0.153391346,-0.0626406446,1,0,1.166100025,0.0429672226,1594883481.45465
2020/07/16/16:11:21.554960,37098,1594883481,554654121,,,0,1594883456,-279.3944702,5.797821999,5.779017925,118.9775925,0.188678309,-0.0604980327,-0.0532756709,1,0,0.304199994,0.0433477648,1594883481.55465
2020/07/16/16:11:21.654927,37099,1594883481,654641866,,,0,1594883456,-283.5652771,5.6089921,5.984063625,119.8227539,0.192715809,0.036306791,-0.00958484877,1,0,-0.709799945,0.0441526696,1594883481.65464
2020/07/16/16:11:21.754961,37100,1594883481,754657268,,,0,1594883456,-286.8625183,5.458128452,6.149246216,120.4715652,0.191461995,0.0276976861,-0.00969137158,1,0,0.861899972,0.0447881967,1594883481.75466
2020/07/16/16:11:21.854959,37101,1594883481,854654550,,,0,1594883456,-290.4779053,5.291461468,6.333062649,120.9392014,-0.0319352709,-0.0126585402,-0.0200976264,0.124249995,0,1.216799974,0.0454871356,1594883481.85465
2020/07/16/16:11:21.954937,37102,1594883481,954636573,,,0,1594883456,-295.0941772,5.075004578,6.557002068,120.4806747,-0.0819097832,-0.188874468,-0.0224758573,0,0,1.064700007,0.0463738255,1594883481.95464
2020/07/16/16:11:22.054986,37103,1594883482,54667234,,,0,1594883456,-296.6958618,4.998668671,6.62812233,120.314682,-0.106619366,-0.0241805092,-0.0267712288,0.128900021,0,1.571699977,0.0466819555,1594883482.05467
2020/07/16/16:11:22.154955,37104,1594883482,154644727,,,0,1594883456,-301.2994995,4.77585125,6.831983089,120.7505951,0.119241469,0.0296392478,-0.0468269885,1,0,1.977299929,0.0475679226,1594883482.15464
2020/07/16/16:11:22.254980,37105,1594883482,254664897,,,0,1594883456,-302.9077454,4.696300983,6.904498577,120.9858627,0.140898138,0.0397098213,-0.0506404042,1,0,1.774499893,0.0478788018,1594883482.25466
2020/07/16/16:11:22.354963,37106,1594883482,354650020,,,0,1594883456,-307.9549866,4.438181877,7.136621952,121.8253326,0.170076832,0.00500003714,-0.0696667433,1,0,2.484300137,0.0488506034,1594883482.35465
2020/07/16/16:11:22.454924,37107,1594883482,454622030,,,0,1594883456,-310.5936279,4.297337055,7.258858681,122.3082581,0.16749382,-0.0108368956,-0.0734515637,1,0,2.991299868,0.0493605584,1594883482.45462
2020/07/16/16:11:22.554998,37108,1594883482,554649829,,,0,1594883456,-313.9577942,4.111082077,7.413733006,122.9323654,0.179828241,-0.0115362965,-0.0969665721,1,0,4.715099812,0.0500096567,1594883482.55465
2020/07/16/16:11:22.654922,37109,1594883482,654618263,,,0,1594883456,-317.0304871,3.932915449,7.554407597,123.4944534,0.172622994,-0.00312099373,-0.0863023698,1,0,3.80250001,0.0506007411,1594883482.65462
2020/07/16/16:11:22.754924,37110,1594883482,754622697,,,0,1594883456,-320.1167908,3.746681929,7.693429947,124.0628052,0.172111481,-0.114068404,-0.0824685544,1,0,3.092700005,0.0511953346,1594883482.75462
2020/07/16/16:11:22.855072,37111,1594883482,854731559,,,0,1594883456,-323.942627,3.505302668,7.853473186,124.7630157,0.184921026,-0.040794868,-0.12905705,1,0,4.005299568,0.0519304574,1594883482.85473
2020/07/16/16:11:22.955054,37112,1594883482,954712390,,,0,1594883456,-328.5191345,3.196676731,8.038378716,125.5798264,0.167600006,0.0280728806,-0.116062634,1,0,1.977299929,0.0528095774,1594883482.95471
2020/07/16/16:11:23.054901,37113,1594883483,54627895,,,0,1594883456,-330.6087036,3.048991203,8.123980522,125.9507751,0.170689106,0.0222973302,-0.101869687,1,0,1.166100025,0.05321078,1594883483.05463
2020/07/16/16:11:23.155018,37114,1594883483,154667615,,,0,1594883456,-334.805603,2.741979837,8.29725647,126.6900177,0.160901874,-0.020127384,-0.0764385015,1,0,0.861899972,0.0540208146,1594883483.15467
2020/07/16/16:11:23.255002,37115,1594883483,254683494,,,0,1594883456,-338.3916321,2.471279383,8.443318367,127.32444,0.180064574,-0.0362585969,-0.0485548489,1,0,0.45629999,0.0547126122,1594883483.25468
2020/07/16/16:11:23.354974,37116,1594883483,354663610,,,0,1594883456,-341.2518616,2.251802206,8.557398796,127.8208542,0.172920898,-0.0137660326,-0.0190749802,1,0,-2.027999878,0.0552658439,1594883483.35466
2020/07/16/16:11:23.454953,37117,1594883483,454650878,,,0,1594883456,-345.9368591,1.891338229,8.7388134,128.6451263,0.145995602,-0.0236689579,0.0298681036,1,0,-8.213399887,0.0561727956,1594883483.45465
2020/07/16/16:11:23.554947,37118,1594883483,554639577,,,0,1594883456,-348.8269043,1.672985077,8.841887474,129.1191254,0.176190585,0.0311363656,0.0695439875,1,0,-8.720398903,0.0567300543,1594883483.55464
2020/07/16/16:11:23.654948,37119,1594883483,654643058,,,0,1594883456,-351.835968,1.453923464,8.950598717,129.6031494,0.187149465,-0.0078776516,0.172438651,1,0,-7.807799816,0.057313107,1594883483.65464
2020/07/16/16:11:23.754972,37120,1594883483,754657268,,,0,1594883456,-356.15625,1.161420822,9.105714798,130.3435974,0.187384158,-0.146353811,0.215869203,1,0,-8.314800262,0.0581447035,1594883483.75466
2020/07/16/16:11:23.855013,37121,1594883483,854670524,,,0,1594883456,-360.7214661,0.88496238,9.247373581,131.0888977,0.180620134,-0.111324854,0.216662094,1,0,-6.185400009,0.0590232052,1594883483.85467
2020/07/16/16:11:23.954962,37122,1594883483,954660177,,,0,1594883456,-364.4385681,0.686223686,9.347373962,131.7212372,0.175326422,-0.0649160147,0.238123298,1,0,-5.069999695,0.0597349443,1594883483.95466
2020/07/16/16:11:24.054967,37123,1594883484,54651021,,,0,1594883456,-366.3043213,0.59535408,9.393154144,132.0245514,0.19217518,-0.0616052784,0.226988778,1,0,-4.562999725,0.0600936972,1594883484.05465
2020/07/16/16:11:24.154978,37124,1594883484,154635429,,,0,1594883456,-369.2772217,0.461709976,9.46364975,132.5244446,0.177914441,-0.0133822979,0.191867739,1,0,-5.171399593,0.0606609657,1594883484.15464
2020/07/16/16:11:24.255002,37125,1594883484,254678726,,,0,1594883456,-373.4806213,0.295110494,9.56314373,133.2013397,0.212163135,0.0268572867,0.234051839,1,0,-5.779799461,0.0614652559,1594883484.25468
2020/07/16/16:11:24.354966,37126,1594883484,354652643,,,0,1594883456,-378.0413513,0.147252038,9.671135902,133.9279785,0.180101871,-0.158985227,0.200802565,1,0,-5.171399593,0.0623398386,1594883484.35465
2020/07/16/16:11:24.454978,37127,1594883484,454670429,,,0,1594883456,-382.29245,0.0372142382,9.758970261,134.6365204,0.189436629,-0.0697157606,0.200699851,1,0,-4.765799999,0.063152656,1594883484.45467
2020/07/16/16:11:24.554947,37128,1594883484,554638862,,,0,1594883456,-385.3268433,-0.0258190148,9.816328049,135.136261,0.164122716,-0.0288690776,0.189069882,1,0,-4.055999756,0.0637331158,1594883484.55464
2020/07/16/16:11:24.654973,37129,1594883484,654664993,,,0,1594883456,-389.6168213,-0.0949263498,9.89350605,135.8416595,0.16988422,0.00225273822,0.160560325,1,0,-4.461599827,0.0645514429,1594883484.65467
2020/07/16/16:11:24.754943,37130,1594883484,754640102,,,0,1594883456,-391.0895691,-0.113786593,9.919487,136.0742645,0.19237259,0.00107287744,0.166549593,1,0,-4.461599827,0.0648335516,1594883484.75464
2020/07/16/16:11:24.854992,37131,1594883484,854783535,,,0,1594883456,-397.0064392,-0.165146992,10.02963352,137.0122375,0.181237057,-0.0725238621,0.12468788,1,0,-2.737799883,0.065965727,1594883484.85478
2020/07/16/16:11:24.955138,37132,1594883484,954750537,,,0,1594883456,-400.8974304,-0.180599973,10.09908962,137.6400604,0.184184164,-0.0049028513,0.139138281,1,0,-1.521000028,0.0667133555,1594883484.95475
2020/07/16/16:11:25.055044,37133,1594883485,54716587,,,0,1594883456,-404.4604797,-0.183599278,10.16029549,138.1982727,0.159855843,-0.00244780513,0.0992562398,1,0,-0.405599982,0.0673962831,1594883485.05472
2020/07/16/16:11:25.154946,37134,1594883485,154657125,,,0,1594883456,-408.3851929,-0.177280426,10.2245636,138.8165894,0.158437803,-0.0382438302,0.0715731233,1,0,-0.304199994,0.0681515336,1594883485.15466
2020/07/16/16:11:25.254983,37135,1594883485,254673004,,,0,1594883456,-411.6304626,-0.166628137,10.27420044,139.3228912,0.160590291,-0.0280193686,0.0512215868,1,0,-0.506999969,0.0687766895,1594883485.25467
2020/07/16/16:11:25.354966,37136,1594883485,354660034,,,0,1594883456,-416.870697,-0.142577618,10.34776783,140.1399841,0.170656651,-0.0549959652,0.0368461907,1,0,-0.811199963,0.0697853416,1594883485.35466
2020/07/16/16:11:25.454926,37137,1594883485,454627275,,,0,1594883456,-419.2095642,-0.129722759,10.37768269,140.4992218,0.155726865,-0.0708941743,0.0302452557,1,0,-0.811199963,0.0702365115,1594883485.45463
2020/07/16/16:11:25.554960,37138,1594883485,554648637,,,0,1594883456,-423.3172607,-0.104569927,10.42481518,141.1328278,0.175355092,-0.0469537899,0.0251166355,1,0,-0.709799945,0.0710253417,1594883485.55465
2020/07/16/16:11:25.654953,37139,1594883485,654624938,,,0,1594883456,-428.270752,-0.0704474896,10.47610378,141.8879089,0.158014834,-0.0198099371,0.0273743626,1,0,-0.709799945,0.0719764233,1594883485.65462
2020/07/16/16:11:25.754951,37140,1594883485,754626035,,,0,1594883456,-432.3000183,-0.0391799249,10.51649857,142.4978485,0.182063937,0.0416860729,0.0381396413,1,0,-0.709799945,0.0727515146,1594883485.75463
2020/07/16/16:11:25.855007,37141,1594883485,854663848,,,0,1594883456,-434.4400024,-0.0210260507,10.53918362,142.809433,0.15221417,0.0480882861,0.0400002338,1,0,-0.811199963,0.0731619373,1594883485.85466
2020/07/16/16:11:25.954975,37142,1594883485,954644203,,,0,1594883456,-440.2892761,0.0346185118,10.60492134,143.6672363,0.16299209,-0.0465644747,0.0441909917,1,0,-1.419599891,0.0742846653,1594883485.95464
2020/07/16/16:11:26.055013,37143,1594883486,54675102,,,0,1594883456,-443.2871094,0.0666133836,10.63571453,144.1052246,0.171361342,-0.0777040422,0.049943421,1,0,-2.129400015,0.0748599097,1594883486.05468
2020/07/16/16:11:26.154966,37144,1594883486,154632806,,,0,1594883456,-448.3439941,0.127024963,10.67876625,144.8391113,0.162680924,-0.0739510581,0.0697387531,1,0,-2.940599918,0.0758270621,1594883486.15463
2020/07/16/16:11:26.254997,37145,1594883486,254651069,,,0,1594883456,-451.7295227,0.17345731,10.70082855,145.3332062,0.154488549,-0.100673258,0.0882684514,1,0,-3.143399954,0.0764746964,1594883486.25465
2020/07/16/16:11:26.354988,37146,1594883486,354653835,,,0,1594883456,-454.2762146,0.212309569,10.7132988,145.7012939,0.154275656,-0.0163769405,0.100137629,1,0,-3.042000055,0.0769626275,1594883486.35465
2020/07/16/16:11:26.455023,37147,1594883486,454670429,,,0,1594883456,-459.3884583,0.30211699,10.7374382,146.4235535,0.162789643,-0.00537671102,0.107353956,1,0,-2.433599949,0.0779414177,1594883486.45467
2020/07/16/16:11:26.554986,37148,1594883486,554656028,,,0,1594883456,-464.0353394,0.398278058,10.75759125,147.0801392,0.161618009,-0.0503512025,0.11425329,1,0,-2.534999847,0.0788308606,1594883486.55466
2020/07/16/16:11:26.654960,37149,1594883486,654633283,,,0,1594883456,-468.3334351,0.500184774,10.77040291,147.6832275,0.167685106,-0.0566017553,0.116599649,1,0,-2.534999847,0.0796542689,1594883486.65463
2020/07/16/16:11:26.754959,37150,1594883486,754633426,,,0,1594883456,-472.6488037,0.615148544,10.77682972,148.2830811,0.173345134,-0.0782622546,0.116510548,1,0,-2.433599949,0.0804809332,1594883486.75463
2020/07/16/16:11:26.855052,37151,1594883486,854707956,,,0,1594883456,-474.3797913,0.664779067,10.77725315,148.5272675,0.142241687,-0.069301635,0.116405562,1,0,-2.534999847,0.0808126107,1594883486.85471
2020/07/16/16:11:26.955101,37152,1594883486,954734086,,,0,1594883456,-480.0867615,0.842462897,10.77192974,149.3222046,0.149027884,-0.000505206641,0.117289558,1,0,-2.433599949,0.0819078684,1594883486.95473
2020/07/16/16:11:27.055087,37153,1594883487,54709196,,,0,1594883456,-485.8232117,1.043062568,10.76543522,150.1054077,0.147238806,0.0310407244,0.122578546,1,0,-2.433599949,0.0830089524,1594883487.05471
2020/07/16/16:11:27.154971,37154,1594883487,154661417,,,0,1594883456,-489.4546204,1.181671143,10.76442146,150.5930634,0.153729886,0.0747852474,0.118139476,1,0,-2.433599949,0.0837069675,1594883487.15466
2020/07/16/16:11:27.254996,37155,1594883487,254670143,,,0,1594883456,-493.4748535,1.345513344,10.76941299,151.1224976,0.147902474,0.0866795629,0.115364499,1,0,-2.230799913,0.0844797492,1594883487.25467
2020/07/16/16:11:27.354957,37156,1594883487,354644536,,,0,1594883456,-495.742218,1.442559958,10.7755022,151.4159698,0.152584508,0.0758453906,0.110021725,1,0,-2.027999878,0.0849156901,1594883487.35464
2020/07/16/16:11:27.454799,37157,1594883487,454643487,,,0,1594883456,-501.9360657,1.723532796,10.79797363,152.2200317,0.134669036,-0.0471047834,0.105267242,1,0,-2.129400015,0.0861063004,1594883487.45464
2020/07/16/16:11:27.554929,37158,1594883487,554630756,,,0,1594883456,-504.6003113,1.851253033,10.80566502,152.5670319,0.136493906,-0.017047273,0.107329413,1,0,-2.129400015,0.0866186395,1594883487.55463
2020/07/16/16:11:27.654934,37159,1594883487,654628753,,,0,1594883456,-510.4564209,2.14657402,10.82317543,153.3063965,0.151518226,0.0753507614,0.103318162,1,0,-1.92659986,0.0877463073,1594883487.65463
2020/07/16/16:11:27.754919,37160,1594883487,754613161,,,0,1594883456,-514.5462036,2.364297867,10.84121037,153.8145142,0.144044757,-0.0227510836,0.0928079858,1,0,-1.825199962,0.0885313228,1594883487.75461
2020/07/16/16:11:27.854900,37161,1594883487,854603052,,,0,1594883456,-518.2639771,2.569612026,10.85608578,154.2822723,0.146696895,-0.0512484647,0.0905679092,1,0,-1.92659986,0.089246206,1594883487.85460
2020/07/16/16:11:27.954904,37162,1594883487,954606056,,,0,1594883456,-521.8638916,2.774856329,10.86720181,154.7294006,0.154383495,-0.00594392046,0.0895317942,1,0,-1.723799944,0.089938648,1594883487.95461
2020/07/16/16:11:28.055054,37163,1594883488,54698228,,,0,1594883456,-528.3171387,3.157968521,10.88614273,155.5240021,0.165950283,0.041104801,0.0703774244,1,0,-0.405599982,0.0911798999,1594883488.05470
2020/07/16/16:11:28.154933,37164,1594883488,154627084,,,0,1594883456,-530.6479492,3.300684452,10.89340496,155.8058014,0.155783728,0.0126084443,0.0710094795,1,0,-0.101399995,0.0916283354,1594883488.15463
2020/07/16/16:11:28.255126,37165,1594883488,254748582,,,0,1594883456,-536.2329712,3.650736094,10.90819931,156.4761353,0.144025043,0.017836174,0.0528118052,1,0,0.253499985,0.0927032605,1594883488.25475
2020/07/16/16:11:28.354977,37166,1594883488,354657649,,,0,1594883456,-540.40448,3.917970657,10.92034531,156.9742737,0.136399522,0.0499476641,0.0269544255,1,0,0.912599981,0.0935062468,1594883488.35466
2020/07/16/16:11:28.454940,37167,1594883488,454635381,,,0,1594883456,-542.7565918,4.069843769,10.92909813,157.2501678,0.168087929,0.0580267012,0.0101980194,1,0,0.659099996,0.0939591974,1594883488.45464
2020/07/16/16:11:28.554962,37168,1594883488,554653644,,,0,1594883456,-548.2607422,4.426342964,10.95445347,157.8896179,0.132015854,-0.0314531364,-0.0012724055,1,0,0.253499985,0.0950192064,1594883488.55465
2020/07/16/16:11:28.654945,37169,1594883488,654643058,,,0,1594883456,-553.9192505,4.79197073,10.97882652,158.5440826,0.145478874,-0.0161631983,-0.0168110617,1,0,0.861899972,0.0961110741,1594883488.65464
2020/07/16/16:11:28.754925,37170,1594883488,754624366,,,0,1594883456,-557.7487793,5.038052082,10.99307156,158.9902039,0.156420335,-0.00396930194,-0.0104985191,1,0,0.709799945,0.0968478546,1594883488.75462
2020/07/16/16:11:28.855076,37171,1594883488,854738235,,,0,1594883456,-561.5889282,5.283930302,11.00790787,159.416153,0.116947979,0.0856739581,-0.0146428794,1,0,0.253499985,0.0975882411,1594883488.85474
2020/07/16/16:11:28.955079,37172,1594883488,954731464,,,0,1594883456,-565.4394531,5.529479504,11.02751732,159.8482513,0.133602276,0.0217261389,-0.0127819423,1,0,-0.101399995,0.0983306691,1594883488.95473
2020/07/16/16:11:29.054992,37173,1594883489,54667234,,,0,1594883456,-571.1677246,5.892854214,11.06021404,160.4835205,0.177495778,-0.00366944331,-0.0183676258,1,0,0.253499985,0.0994352251,1594883489.05467
2020/07/16/16:11:29.154943,37174,1594883489,154631853,,,0,1594883456,-574.5085449,6.103669643,11.079566,160.8470154,0.153357759,-0.0214382224,-0.0129890945,1,0,0.45629999,0.100079767,1594883489.15463
2020/07/16/16:11:29.254934,37175,1594883489,254629611,,,0,1594883456,-580.2727661,6.465944767,11.10920048,161.4745789,0.148364201,-0.0280119423,-0.00767765567,1,0,0.45629999,0.10119199,1594883489.25463
2020/07/16/16:11:29.355000,37176,1594883489,354671001,,,0,1594883456,-583.6343384,6.676621437,11.12481594,161.8365631,0.131243482,0.0111522544,-0.0104706734,1,0,0.506999969,0.101839013,1594883489.35467
2020/07/16/16:11:29.454949,37177,1594883489,454636335,,,0,1594883456,-589.0286255,7.01320076,11.1499939,162.4072571,0.129525706,-0.0838865936,-0.00883883517,1,0,0.506999969,0.102878168,1594883489.45464
2020/07/16/16:11:29.554964,37178,1594883489,554655075,,,0,1594883456,-592.9517212,7.256752014,11.16234398,162.8317261,0.138442203,-0.0906623676,-0.0162336379,1,0,0.659099996,0.103634633,1594883489.55466
2020/07/16/16:11:29.654942,37179,1594883489,654637098,,,0,1594883456,-596.8850708,7.499817848,11.16948032,163.2504272,0.116670191,0.0456140563,-0.0227039903,1,0,0.659099996,0.104393043,1594883489.65464
2020/07/16/16:11:29.754938,37180,1594883489,754629135,,,0,1594883456,-602.3265991,7.833449364,11.18688297,163.8062592,0.126253441,0.0908510983,-0.0273433775,1,0,0.659099996,0.105441786,1594883489.75463
2020/07/16/16:11:29.854926,37181,1594883489,854623317,,,0,1594883456,-607.2398071,8.131669998,11.21178913,164.306427,0.140794665,-0.0555798784,-0.0192662105,1,0,0.709799945,0.106388934,1594883489.85462
2020/07/16/16:11:29.954945,37182,1594883489,954633712,,,0,1594883456,-609.7022095,8.280203819,11.22271156,164.5576782,0.113851421,-0.0775840878,-0.0165791586,0.998299956,0,0.861899972,0.10686297,1594883489.95463
2020/07/16/16:11:30.055038,37183,1594883490,54700136,,,0,1594883456,-616.6908569,8.69862175,11.24863243,164.6184692,-0.120491669,-0.00669854879,-0.0260182079,0,0,1.368899941,0.108211212,1594883490.05470
2020/07/16/16:11:30.154948,37184,1594883490,154633998,,,0,1594883456,-619.1534424,8.844686508,11.25788021,164.3518829,-0.137099773,0.0433299467,-0.0423572361,0,0,1.622399926,0.108686022,1594883490.15463
2020/07/16/16:11:30.254972,37185,1594883490,254656553,,,0,1594883456,-626.1066284,9.25025177,11.29005051,163.219162,-0.480687171,-0.0787238851,-0.0603530481,0,0.3995924,2.078700066,0.110026717,1594883490.25466
2020/07/16/16:11:30.354977,37186,1594883490,354656934,,,0,1594883456,-628.5419312,9.389266014,11.3000803,162.2369843,-0.449607521,-0.0146328993,-0.0708844662,0,0.273513377,2.078700066,0.110497124,1594883490.35466
2020/07/16/16:11:30.454957,37187,1594883490,454641103,,,0,1594883456,-633.8981934,9.687623024,11.32232571,159.3373566,-1.079096556,-0.031333115,-0.0623922609,0,0.991859496,0.912599981,0.111529343,1594883490.45464
2020/07/16/16:11:30.554959,37188,1594883490,554637908,,,0,1594883456,-637.6972046,9.89387989,11.33937073,155.8505402,-1.200612068,-0.0217558332,-0.0414014421,0,1,-0.709799945,0.112260729,1594883490.55464
2020/07/16/16:11:30.654940,37189,1594883490,654637098,,,0,1594883456,-641.9192505,10.11937904,11.35847759,152.0664673,-1.08758533,-0.142336339,-0.0345189273,0,0.991859496,-0.202799991,0.113075905,1594883490.65464
2020/07/16/16:11:30.754964,37190,1594883490,754651308,,,0,1594883456,-647.7523804,10.42335224,11.37959766,146.7050476,-0.787685931,-0.000141748111,-0.109783158,0,0.448980927,0.304199994,0.114200659,1594883490.75465
2020/07/16/16:11:30.855017,37191,1594883490,854692459,,,0,1594883456,-650.425415,10.55656242,11.39160442,145.6194611,-0.208615363,0.0254074633,-0.122977965,0,0.0635382533,-0.608399987,0.114715531,1594883490.85469
2020/07/16/16:11:30.955077,37192,1594883490,954736471,,,0,1594883456,-654.0537109,10.72873783,11.41154766,145.1120911,-0.0847230703,0.080841355,-0.143579483,0,0,-0.202799991,0.11541453,1594883490.95474
2020/07/16/16:11:31.055002,37193,1594883491,54678678,,,0,1594883456,-659.4832764,10.96640778,11.45288849,144.8056641,-0.022527447,0.0449860618,-0.11093086,0,0,0.45629999,0.116459504,1594883491.05468
2020/07/16/16:11:31.154935,37194,1594883491,154626607,,,0,1594883456,-663.09375,11.11379623,11.48528862,144.0038452,-0.679425299,-0.0174404029,-0.0551164523,0,0.3995924,0.304199994,0.117154844,1594883491.15463
2020/07/16/16:11:31.254972,37195,1594883491,254660606,,,0,1594883456,-666.1834106,11.23673916,11.51250267,141.6108856,-0.903861284,-0.0856568068,-0.00940930098,0,0.625824988,-1.216799974,0.117750041,1594883491.25466
2020/07/16/16:11:31.354997,37196,1594883491,354676723,,,0,1594883456,-671.4002686,11.44343185,11.55069256,136.9789429,-1.043939114,-0.0843859315,-0.0132271536,0,0.995924771,2.484300137,0.118754975,1594883491.35468
2020/07/16/16:11:31.454952,37197,1594883491,454637289,,,0,1594883456,-673.0980835,11.51037407,11.56157684,135.2306671,-1.146571159,-0.074537605,-0.0126013048,0,1,3.092700005,0.119082272,1594883491.45464
2020/07/16/16:11:31.554969,37198,1594883491,554659366,,,0,1594883456,-677.5181274,11.68281364,11.58819389,130.54216,-1.116959572,-0.0833148286,-0.0231394954,0,0.957693934,4.715099812,0.119934358,1594883491.55466
2020/07/16/16:11:31.654947,37199,1594883491,654640674,,,0,1594883456,-681.9897461,11.85289955,11.61417198,125.4966049,-1.154906154,-0.0446601957,-0.0555412658,0,0.980788708,5.830500126,0.120797068,1594883491.65464
2020/07/16/16:11:31.754968,37200,1594883491,754657268,,,0,1594883456,-685.3776855,11.97724628,11.63714314,121.4846725,-1.111509681,-0.0651835576,-0.0298031941,0,1,3.396899939,0.121450819,1594883491.75466
2020/07/16/16:11:31.854963,37201,1594883491,854652881,,,0,1594883456,-686.881897,12.03122807,11.6475935,119.708168,-1.062907457,-0.0540745854,-0.0396278016,0,1,1.368899941,0.121740848,1594883491.85465
2020/07/16/16:11:31.954936,37202,1594883491,954629659,,,0,1594883456,-691.263855,12.1851511,11.67577744,114.4464035,-1.151116729,-0.0231447853,-0.0361213535,0,1,1.419599891,0.122585878,1594883491.95463
2020/07/16/16:11:32.055042,37203,1594883492,54683923,,,0,1594883456,-694.1663208,12.28270626,11.69486332,110.7209778,-1.123564363,-0.0161321852,-0.0711316168,0,0.969201267,3.447599888,0.123145655,1594883492.05468
2020/07/16/16:11:32.154959,37204,1594883492,154651403,,,0,1594883456,-696.8829346,12.36813354,11.71490765,107.1161957,-1.042003155,0.00573468301,-0.129556388,0,0.646563351,5.222100258,0.123669118,1594883492.15465
2020/07/16/16:11:32.254940,37205,1594883492,254634380,,,0,1594883456,-700.9264526,12.47374058,11.75175667,104.8628769,-0.134435832,0.0865071267,-0.224425003,0,0.00564937014,9.328800201,0.124447003,1594883492.25463
2020/07/16/16:11:32.354976,37206,1594883492,354659795,,,0,1594883456,-703.5424805,12.51996422,11.78392601,104.560524,-0.0432718508,0.160193354,-0.335198998,0,0,17.44079781,0.12494722,1594883492.35466
2020/07/16/16:11:32.454930,37207,1594883492,454619407,,,0,1594883456,-706.5011597,12.54069424,11.83339691,104.3438568,-0.0384222753,0.144278675,-0.391649455,0,0,20.17860031,0.125512213,1594883492.45462
2020/07/16/16:11:32.554963,37208,1594883492,554648399,,,0,1594883456,-709.1066284,12.52691746,11.88527489,104.1570282,-0.0667544976,0.027798919,-0.391149163,0,0,17.03520012,0.126008347,1594883492.55465
2020/07/16/16:11:32.654941,37209,1594883492,654640674,,,0,1594883456,-712.4854126,12.46241665,11.9545002,103.8683243,-0.0844037682,-0.0674463287,-0.414754301,0,0,19.77300072,0.126648754,1594883492.65464
2020/07/16/16:11:32.754933,37210,1594883492,754627466,,,0,1594883456,-713.7821045,12.4227581,11.97960854,103.7583237,-0.10678874,-0.0382185765,-0.464260787,0,0.0189086571,21.39539909,0.126893774,1594883492.75463
2020/07/16/16:11:32.855122,37211,1594883492,854755640,,,0,1594883456,-718.3742676,12.21952629,12.05738735,99.82209015,-0.898473203,-0.0236731581,-0.506866753,0,0.345533252,31.73820114,0.127756923,1594883492.85476
2020/07/16/16:11:32.955067,37212,1594883492,954738140,,,0,1594883456,-720.5892944,12.08019257,12.09288025,97.80412292,-0.630285144,0.0591902137,-0.616202533,0,0.341159374,33.15779877,0.128169209,1594883492.95474
2020/07/16/16:11:33.054983,37213,1594883493,54677724,,,0,1594883456,-723.9498291,11.78972721,12.15259552,95.25636291,-0.490281463,-0.0730856508,-0.720449388,0,0.255670011,33.7661972,0.128793344,1594883493.05468
2020/07/16/16:11:33.154933,37214,1594883493,154642343,,,0,1594883456,-726.1384888,11.53898907,12.19283485,93.86917114,-0.298686296,-0.0300062802,-0.832732141,0,0.0385538451,36.40259933,0.129199028,1594883493.15464
2020/07/16/16:11:33.254922,37215,1594883493,254637002,,,0,1594883456,-727.2973633,11.38263226,12.2141571,93.36883545,-0.263777614,-0.00905954745,-0.916615903,0,0.00797159784,37.92359924,0.129411981,1594883493.25464
2020/07/16/16:11:33.354985,37216,1594883493,354682207,,,0,1594883456,-730.8757324,10.78218365,12.28002739,92.01943207,-0.238228276,0.0815162212,-1.015292406,0,0,41.979599,0.130072922,1594883493.35468
2020/07/16/16:11:33.454921,37217,1594883493,454634428,,,0,1594883456,-733.1869507,10.28857708,12.32796097,91.073349,-0.20689705,0.0861666054,-1.039412498,0,0,39.2417984,0.130504012,1594883493.45463
2020/07/16/16:11:33.554939,37218,1594883493,554629087,,,0,1594883456,-735.3823853,9.736255646,12.38030052,90.18204498,-0.245800018,0.0339572877,-1.006916523,0,0,36.40259933,0.130913883,1594883493.55463
2020/07/16/16:11:33.654942,37219,1594883493,654629468,,,0,1594883456,-738.9478149,8.662424088,12.47089577,88.70941162,-0.192001343,0.035539683,-0.975098372,0,0,39.14039612,0.131580129,1594883493.65463
2020/07/16/16:11:33.754777,37220,1594883493,754637002,,,0,1594883456,-740.062561,8.279601097,12.49994183,88.23188782,-0.241609544,-0.00687948987,-0.991219878,0,0,40.66139984,0.131792739,1594883493.75464
2020/07/16/16:11:33.854932,37221,1594883493,854644060,,,0,1594883456,-742.9238281,7.184743404,12.57783413,87.02567291,-0.181705058,0.0725649074,-1.047245145,0.263450027,0,45.02159882,0.132337734,1594883493.85464
2020/07/16/16:11:33.954950,37222,1594883493,954647064,,,0,1594883456,-745.1734009,6.200452805,12.64544106,86.48323822,-0.0589588284,0.0676261261,-1.062686443,0.530849993,0,50.69999695,0.132774219,1594883493.95465
2020/07/16/16:11:34.055000,37223,1594883494,54676532,,,0,1594883456,-746.9209595,5.354349613,12.70211411,86.22974396,-0.00391176343,-0.00583850965,-0.977700472,0.530849993,0,56.17559814,0.133120298,1594883494.05468
2020/07/16/16:11:34.154957,37224,1594883494,154647111,,,0,1594883456,-749.074646,4.210486889,12.77266884,86.02597046,0.00166329741,-0.0336773582,-0.959057391,0.531799972,0,60.33299637,0.133547381,1594883494.15465
2020/07/16/16:11:34.254939,37225,1594883494,254628419,,,0,1594883456,-751.3604126,2.871144533,12.84342194,85.92305756,0.0173115134,-0.0288856532,-0.943373144,0.535950005,0,61.14419937,0.134015635,1594883494.25463
2020/07/16/16:11:34.355012,37226,1594883494,354687690,,,0,1594883456,-752.930481,1.872588873,12.88907814,85.90300751,0.070163995,0.0338160209,-0.962344289,0.551599979,0,60.13019943,0.134338349,1594883494.35469
2020/07/16/16:11:34.454968,37227,1594883494,454656600,,,0,1594883456,-755.1671143,0.326657683,12.95832539,85.89395142,0.0472118556,0.113162063,-0.966761827,0.499249995,0,59.11619949,0.134807721,1594883494.45466
2020/07/16/16:11:34.554954,37228,1594883494,554653406,,,0,1594883456,-756.8812866,-0.963718414,13.01849556,85.75686646,-0.146292627,0.035992112,-0.932326257,0,0,61.75259781,0.135177389,1594883494.55465
2020/07/16/16:11:34.654940,37229,1594883494,654644966,,,0,1594883456,-758.7033691,-2.441367149,13.08462715,84.97370148,-0.194484264,-0.0469294377,-0.862052917,0,0,63.57779694,0.135584742,1594883494.65465
2020/07/16/16:11:34.754925,37230,1594883494,754638910,,,0,1594883456,-760.607605,-4.111543655,13.14900684,84.03244781,-0.208693653,-0.0774075016,-0.899497569,0,0,66.31559753,0.136020005,1594883494.75464
2020/07/16/16:11:34.855197,37231,1594883494,854814052,,,0,1594883456,-762.8068237,-6.232428074,13.21825027,82.74716949,-0.251538843,0.0678139478,-1.035240293,0,0,69.86459351,0.136543259,1594883494.85481
2020/07/16/16:11:34.955054,37232,1594883494,954717874,,,0,1594883456,-763.7072754,-7.175889015,13.24977303,82.14876556,-0.255657703,0.0984670743,-1.053673387,0,0,69.86459351,0.136765406,1594883494.95472
2020/07/16/16:11:35.055069,37233,1594883495,54725408,,,0,1594883456,-765.326355,-9.008261681,13.31660843,81.03630829,-0.24015224,0.0455691367,-1.070305943,0,0,70.77719879,0.137180045,1594883495.05473
2020/07/16/16:11:35.154962,37234,1594883495,154659986,,,0,1594883456,-767.2568359,-11.4812994,13.42208004,79.40283966,-0.273603588,0.0360941999,-1.152563334,0,0,70.37159729,0.137705162,1594883495.15466
2020/07/16/16:11:35.254906,37235,1594883495,254614591,,,0,1594883456,-767.9389038,-12.44971275,13.46786118,78.75888062,-0.271722376,0.172707334,-1.236572385,0,0,70.47299957,0.137900203,1594883495.25461
2020/07/16/16:11:35.354979,37236,1594883495,354672908,,,0,1594883456,-768.9729614,-14.03077698,13.54633904,77.8073349,-0.258604407,-0.0047898991,-1.084791303,0,0,69.15480041,0.138221845,1594883495.35467
2020/07/16/16:11:35.454957,37237,1594883495,454648733,,,0,1594883456,-770.0524902,-15.85536766,13.63566399,76.69970703,-0.174691737,0.00514537655,-1.040997624,0.470450014,0,63.88199997,0.138572037,1594883495.45465
2020/07/16/16:11:35.554956,37238,1594883495,554651737,,,0,1594883456,-771.5263672,-18.73970032,13.77297115,76.18878174,0.109821856,0.0110494737,-1.049450636,1,0,60.43439865,0.139117226,1594883495.55465
2020/07/16/16:11:35.654941,37239,1594883495,654638051,,,0,1594883456,-772.069397,-19.95687485,13.82849598,76.28093719,0.144586742,-0.0163126234,-1.023996353,1,0,63.27359772,0.139342591,1594883495.65464
2020/07/16/16:11:35.754945,37240,1594883495,754638195,,,0,1594883456,-773.1742554,-22.80789948,13.95397758,76.77669525,0.183529854,0.0253316574,-1.014115095,1,0,66.01139832,0.139862642,1594883495.75464
2020/07/16/16:11:35.854942,37241,1594883495,854635953,,,0,1594883456,-773.4007568,-23.47463608,13.98286343,76.94379425,0.235987782,0.0119892368,-1.00413394,1,0,65.20020294,0.13997592,1594883495.85464
2020/07/16/16:11:35.954951,37242,1594883495,954646348,,,0,1594883456,-774.1954346,-26.12806892,14.095294,77.81375122,0.263496518,-0.0211607404,-0.879213989,1,0,63.27359772,0.140447304,1594883495.95465
2020/07/16/16:11:36.055039,37243,1594883496,54702997,,,0,1594883456,-774.8182373,-28.66371346,14.19794941,78.98552704,0.326325893,0.0396986455,-0.763588071,1,0,63.98339462,0.140888587,1594883496.05470
2020/07/16/16:11:36.154949,37244,1594883496,154635667,,,0,1594883456,-775.1183472,-30.08719254,14.25584316,79.73497009,0.311966658,0.0458733141,-0.752787948,1,0,64.69319916,0.141134173,1594883496.15464
2020/07/16/16:11:36.254957,37245,1594883496,254640102,,,0,1594883456,-775.7026367,-33.4516449,14.39631844,80.75774384,-0.0268867314,0.0385346189,-0.763431847,0,0,71.99399567,0.141713306,1594883496.25464
2020/07/16/16:11:36.355002,37246,1594883496,354673147,,,0,1594883456,-775.9573975,-35.3771019,14.47732639,80.12762451,-0.214266777,-0.0034159252,-0.794764638,0,0,69.2562027,0.142050624,1594883496.35467
2020/07/16/16:11:36.454948,37247,1594883496,454634904,,,0,1594883456,-776.102356,-36.76508331,14.53560543,79.58735657,-0.248078883,0.039056208,-0.875682294,0,0,67.12679291,0.142287642,1594883496.45463
2020/07/16/16:11:36.554971,37248,1594883496,554655551,,,0,1594883456,-776.3000488,-39.84740448,14.66462994,78.33685303,-0.234522656,0.0142989252,-0.926240504,0,0,66.82260132,0.142821208,1594883496.55466
2020/07/16/16:11:36.654932,37249,1594883496,654627561,,,0,1594883456,-776.3266602,-41.98513031,14.75374126,77.37120056,-0.200124636,0.0749950185,-1.010181665,0,0,66.92399597,0.143187329,1594883496.65463
2020/07/16/16:11:36.754946,37250,1594883496,754634141,,,0,1594883456,-776.2902222,-43.39526367,14.81366348,76.74018097,-0.244071931,-0.0101992525,-1.042414665,0,0,66.92399597,0.143429816,1594883496.75463
2020/07/16/16:11:36.855095,37251,1594883496,854761123,,,0,1594883456,-776.0614624,-46.42311478,14.93901539,75.36994171,-0.126738071,0.0455947481,-1.097877145,0.512250006,0,61.04279709,0.143953919,1594883496.85476
2020/07/16/16:11:36.955057,37252,1594883496,954713344,,,0,1594883456,-775.8217773,-48.22182846,15.01273155,75.09130096,0.0502105802,0.0720811412,-1.114206195,1,0,48.67200089,0.144258931,1594883496.95471
2020/07/16/16:11:37.054978,37253,1594883497,54669857,,,0,1594883456,-775.6661377,-49.1472702,15.05157948,75.18502808,0.140273839,0.0965037569,-1.119053602,1,0,43.29780197,0.144424424,1594883497.05467
2020/07/16/16:11:37.154946,37254,1594883497,154648542,,,0,1594883456,-775.0222778,-52.09313965,15.18535709,75.78175354,0.220284015,0.0496309549,-1.069924116,1,0,36.40259933,0.144945666,1594883497.15465
2020/07/16/16:11:37.254937,37255,1594883497,254626274,,,0,1594883456,-774.7766724,-53.00888824,15.22904491,76.03515625,0.208548814,0.0369201265,-0.980186105,1,0,35.99699783,0.145110264,1594883497.25463
2020/07/16/16:11:37.355017,37256,1594883497,354687690,,,0,1594883456,-773.864624,-55.92906952,15.36405659,77.18325806,0.358901083,0.0070645893,-0.829389215,1,0,34.78020096,0.145641446,1594883497.35469
2020/07/16/16:11:37.454949,37257,1594883497,454638957,,,0,1594883456,-773.0169067,-58.24248123,15.46726036,78.47831726,0.362045944,0.0801481381,-0.660352588,1,0,26.51609993,0.146081612,1594883497.45464
2020/07/16/16:11:37.554957,37258,1594883497,554647207,,,0,1594883456,-772.3070068,-60.01401901,15.55052757,79.51167297,0.331026822,0.118505597,-0.541163921,1,0,25.75559998,0.146420181,1594883497.55465
2020/07/16/16:11:37.654934,37259,1594883497,654632091,,,0,1594883456,-771.4180908,-62.10019684,15.6558876,80.64823914,0.297532082,0.0751218423,-0.452807546,1,0,31.94099998,0.14682509,1594883497.65463
2020/07/16/16:11:37.754937,37260,1594883497,754636287,,,0,1594883456,-770.3867188,-64.38185883,15.77693558,81.84140778,0.298450768,-0.0100151636,-0.484607071,1,0,40.35720062,0.147273973,1594883497.75464
2020/07/16/16:11:37.854969,37261,1594883497,854655265,,,0,1594883456,-769.5891113,-66.05091858,15.86824989,82.67416382,0.284071743,0.0844760165,-0.584344864,1,0,44.3117981,0.147614121,1594883497.85466
2020/07/16/16:11:37.954948,37262,1594883497,954638957,,,0,1594883456,-768.5571289,-68.08987427,15.98396969,83.6596756,0.265778542,0.102889031,-0.669647396,1,0,49.38179779,0.148029402,1594883497.95464
2020/07/16/16:11:38.055022,37263,1594883498,54693460,,,0,1594883456,-767.3179932,-70.36766052,16.11726379,84.68079376,0.261844784,0.049501881,-0.747721672,1,0,51.10559845,0.148503095,1594883498.05469
2020/07/16/16:11:38.154953,37264,1594883498,154646873,,,0,1594883456,-766.3920288,-71.95864868,16.21294785,85.3840332,0.274021268,0.0518206879,-0.763876915,1,0,49.99020004,0.148843423,1594883498.15465
2020/07/16/16:11:38.254935,37265,1594883498,254635334,,,0,1594883456,-764.9926758,-74.20272827,16.35458565,86.32120514,0.276471108,0.0698985308,-0.817767084,1,0,49.78739929,0.149328008,1594883498.25464
2020/07/16/16:11:38.354964,37266,1594883498,354666471,,,0,1594883456,-763.1589355,-76.88999939,16.53931808,87.39744568,0.254749358,0.0698129833,-0.844077766,1,0,50.29439926,0.149930418,1594883498.35467
2020/07/16/16:11:38.454930,37267,1594883498,454638004,,,0,1594883456,-762.2095947,-78.18393707,16.63471794,87.91370392,0.228990465,0.109834157,-0.847834826,1,0,49.88879776,0.150225312,1594883498.45464
2020/07/16/16:11:38.554924,37268,1594883498,554643154,,,0,1594883456,-760.0200195,-80.95511627,16.8552494,88.97042847,0.168472499,0.0619641766,-0.798545837,1,0,49.78739929,0.150883719,1594883498.55464
2020/07/16/16:11:38.654915,37269,1594883498,654629468,,,0,1594883456,-758.7684326,-82.42473602,16.97978783,89.53278351,0.201827794,0.0696474463,-0.847017527,1,0,49.99020004,0.151241079,1594883498.65463
2020/07/16/16:11:38.754919,37270,1594883498,754635810,,,0,1594883456,-758.0259399,-83.2615509,17.05299377,89.79202271,0.135727823,0.0380500816,-0.82661885,1,0,49.78739929,0.151452348,1594883498.75464
2020/07/16/16:11:38.855070,37271,1594883498,854746818,,,0,1594883456,-755.5026855,-85.9299469,17.29826546,90.39842224,0.111356854,0.0660252422,-0.857186556,1,0,48.16500092,0.152135447,1594883498.85475
2020/07/16/16:11:38.955037,37272,1594883498,954707860,,,0,1594883456,-753.2849121,-88.07567596,17.5110817,90.64252472,0.0344377756,0.00394909829,-0.794118941,1,0,48.46919632,0.152713284,1594883498.95471
2020/07/16/16:11:39.055065,37273,1594883499,54703950,,,0,1594883456,-751.8326416,-89.39247131,17.64659309,90.71008301,-0.131137192,0.0193417035,-0.852076292,0.577250004,0,49.38179779,0.153080836,1594883499.05470
2020/07/16/16:11:39.154931,37274,1594883499,154647588,,,0,1594883456,-750.1193237,-90.86260223,17.80244827,90.32403564,-0.257044375,0.0576956421,-0.862390578,0,0,48.5705986,0.153503105,1594883499.15465
2020/07/16/16:11:39.254938,37275,1594883499,254647970,,,0,1594883456,-748.1990967,-92.40703583,17.97553444,89.39112091,-0.224290133,0.0199716389,-0.866554499,0,0,49.48320007,0.153968021,1594883499.25465
2020/07/16/16:11:39.355000,37276,1594883499,354694843,,,0,1594883456,-746.4871826,-93.69630432,18.1274128,88.50424194,-0.238629892,-0.0149499979,-0.875066936,0,0,49.38179779,0.15436992,1594883499.35469
2020/07/16/16:11:39.454928,37277,1594883499,454642534,,,0,1594883456,-744.5108643,-95.08574677,18.29713058,87.7646637,-0.11462608,-0.0387819037,-0.89694488,0,0,49.07759857,0.154824555,1594883499.45464
2020/07/16/16:11:39.554946,37278,1594883499,554658889,,,0,1594883456,-742.0092163,-96.69741821,18.50209236,86.92780304,-0.161075711,-0.0850016773,-0.914384305,0.0658999979,0,47.96220016,0.155387416,1594883499.55466
2020/07/16/16:11:39.654919,37279,1594883499,654638051,,,0,1594883456,-740.4603271,-97.61585999,18.62326622,86.40365601,-0.188331112,-0.0406687483,-0.931777775,0.813799977,0,46.23839569,0.155728251,1594883499.65464
2020/07/16/16:11:39.754926,37280,1594883499,754643917,,,0,1594883456,-737.4272461,-99.24623108,18.85231018,86.61540222,0.197768986,0.017424101,-0.916565657,1,0,48.5705986,0.156380102,1594883499.75464
2020/07/16/16:11:39.854913,37281,1594883499,854632377,,,0,1594883456,-736.5214844,-99.69241333,18.92006302,86.81808472,0.147646368,0.0496120974,-0.990593314,1,0,49.88879776,0.156571686,1594883499.85463
2020/07/16/16:11:39.954936,37282,1594883499,954652309,,,0,1594883456,-733.6162109,-101.0027084,19.1385994,87.42358398,0.164731175,0.00761287101,-0.863377988,1,0,41.67539978,0.157175809,1594883499.95465
2020/07/16/16:11:40.054965,37283,1594883500,54667711,,,0,1594883456,-730.9033813,-102.0847931,19.34025764,88.25112915,0.283639789,0.00166511536,-0.735734105,1,0,31.83959961,0.157732144,1594883500.05467
2020/07/16/16:11:40.154940,37284,1594883500,154644489,,,0,1594883456,-729.9379883,-102.4428635,19.41103172,88.60419464,0.242676854,-0.000156711787,-0.669746459,1,0,28.59479904,0.157929882,1594883500.15464
2020/07/16/16:11:40.254923,37285,1594883500,254642248,,,0,1594883456,-726.6414185,-103.5792847,19.65314865,89.81617737,0.268675238,-0.00559305958,-0.493231535,1,0,20.9897995,0.158594444,1594883500.25464
2020/07/16/16:11:40.354983,37286,1594883500,354685544,,,0,1594883456,-724.2803955,-104.3303909,19.82314491,90.71157837,0.269586146,-0.0856737942,-0.416679591,1,0,20.68559837,0.159069106,1594883500.35469
2020/07/16/16:11:40.454923,37287,1594883500,454641103,,,0,1594883456,-721.8840942,-105.0515747,19.98656654,91.59928131,0.285218954,-0.0316595323,-0.40503791,1,0,19.36739922,0.159549385,1594883500.45464
2020/07/16/16:11:40.554927,37288,1594883500,554638862,,,0,1594883456,-719.52771,-105.7231522,20.14266777,92.44316101,0.252093732,0.0536885634,-0.398066282,1,0,16.62960052,0.160019204,1594883500.55464
2020/07/16/16:11:40.654919,37289,1594883500,654633283,,,0,1594883456,-716.314209,-106.5817719,20.36157036,93.5536499,0.280291736,0.0875647813,-0.370215178,1,0,13.68899918,0.160658449,1594883500.65463
2020/07/16/16:11:40.754918,37290,1594883500,754630327,,,0,1594883456,-714.3452148,-107.0780106,20.49800301,94.22364807,0.218881324,-0.0108460011,-0.346099049,1,0,13.58759975,0.161049023,1594883500.75463
2020/07/16/16:11:40.855131,37291,1594883500,854780197,,,0,1594883456,-711.895874,-107.6665344,20.66698647,95.05241394,0.262224972,0.0186389815,-0.310510963,1,0,11.55959892,0.161534026,1594883500.85478
