time,.header.seq,.header.stamp.secs,.header.stamp.nsecs,.header.frame_id,.identifier.data,.size.data,.TimeStamp.data,PosLocalX,PosLocalY,Height,GPS_Speed,AccelX,AccelY,AccelZ,PedalPosAcc,PedalPosBrk,AngleSteer,carPositionNormalized,TimeStamp
2020/06/24/21:38:57.288651,10032,1593002337,288233757,,,0,1593002368,-305.1410522,-726.1524048,21.59401512,0.00739005907,0,0,0,0,0,-19.67159843,0.0176129919,1593002337.28823
2020/06/24/21:38:57.297843,10033,1593002337,297515153,,,0,1593002368,-305.1410522,-726.1524048,21.59401512,0.00587558793,0,0,0,0,0,-19.67159843,0.0176129919,1593002337.29752
2020/06/24/21:38:57.389223,10034,1593002337,388944387,,,0,1593002368,-305.1410522,-726.1524048,21.59402275,0.00294317887,0,0,0,0,0,-19.67159843,0.0176129919,1593002337.38894
2020/06/24/21:38:57.489193,10035,1593002337,488933324,,,0,1593002368,-305.1410522,-726.1524048,21.59403229,0.00564129371,0,0,0,0,0,-19.67159843,0.0176129919,1593002337.48893
2020/06/24/21:38:57.589233,10036,1593002337,588949680,,,0,1593002368,-305.1410522,-726.1524048,21.59403419,0.00314278738,0,0,0,0,0,-19.67159843,0.0176129919,1593002337.58895
2020/06/24/21:38:57.689382,10037,1593002337,689036130,,,0,1593002368,-305.1410522,-726.1524048,21.59407234,0.00273423805,0,0,0,0,0,-19.67159843,0.0176129919,1593002337.68904
2020/06/24/21:38:57.789258,10038,1593002337,788970232,,,0,1593002368,-305.1410522,-726.1524048,21.59412003,0.00385329244,0,0,0,0,0,-19.67159843,0.0176129919,1593002337.78897
2020/06/24/21:38:57.889286,10039,1593002337,888956785,,,0,1593002368,-305.1410522,-726.1524048,21.59413147,0.00560580008,0,0,0,0,0,-19.67159843,0.0176129919,1593002337.88896
2020/06/24/21:38:57.989287,10040,1593002337,988957405,,,0,1593002368,-305.1410522,-726.1524048,21.59413528,0.0066540665,0,0,0,0,0,-19.67159843,0.0176129919,1593002337.98896
2020/06/24/21:38:58.089289,10041,1593002338,88959932,,,0,1593002368,-305.1410522,-726.1524048,21.59413528,0.00616385415,0,0,0,0,0,-19.67159843,0.0176129919,1593002338.08896
2020/06/24/21:38:58.189304,10042,1593002338,188971519,,,0,1593002368,-305.1410522,-726.1524048,21.59413719,0.0017455183,0,0,0,0,0,-19.67159843,0.0176129919,1593002338.18897
2020/06/24/21:38:58.289287,10043,1593002338,288944244,,,0,1593002368,-305.1410522,-726.1524048,21.59413338,0.00502757123,0,0,0,0,0,-19.67159843,0.0176129919,1593002338.28894
2020/06/24/21:38:58.389283,10044,1593002338,388953685,,,0,1593002368,-305.1410522,-726.1524048,21.59412575,0.00123254664,0,0,0,0,0,-19.67159843,0.0176129919,1593002338.38895
2020/06/24/21:38:58.489282,10045,1593002338,488955974,,,0,1593002368,-305.1410522,-726.1524048,21.59410858,0.00366435223,0,0,0,0,0,-19.67159843,0.0176129919,1593002338.48896
2020/06/24/21:38:58.589282,10046,1593002338,588955163,,,0,1593002368,-305.1410522,-726.1524048,21.59410667,0.00538738305,0,0,0,0,0,-19.67159843,0.0176129919,1593002338.58896
2020/06/24/21:38:58.689242,10047,1593002338,688961505,,,0,1593002368,-305.1410522,-726.1524048,21.59410477,0.0030454942,0,0,0,0,0,-19.67159843,0.0176129919,1593002338.68896
2020/06/24/21:38:58.789262,10048,1593002338,788959026,,,0,1593002368,-305.1410522,-726.1524048,21.59411049,0.00621573022,0,0,0,0,0,-19.67159843,0.0176129919,1593002338.78896
2020/06/24/21:38:58.889276,10049,1593002338,888956308,,,0,1593002368,-305.1410522,-726.1524048,21.59411049,0.00245090597,0,0,0,0,0,-19.67159843,0.0176129919,1593002338.88896
2020/06/24/21:38:58.989240,10050,1593002338,988948106,,,0,1593002368,-305.1410522,-726.1524048,21.59409523,0.0107502965,0,0,0,0,0,-19.67159843,0.0176129919,1593002338.98895
2020/06/24/21:38:59.089240,10051,1593002339,88953256,,,0,1593002368,-305.1410522,-726.1524048,21.5940876,0.00661286712,0,0,0,0,0,-19.67159843,0.0176129919,1593002339.08895
2020/06/24/21:38:59.189454,10052,1593002339,189070701,,,0,1593002368,-305.1410522,-726.1524048,21.59408569,0.0171513557,0,0,0,0,0,-19.67159843,0.0176129919,1593002339.18907
2020/06/24/21:38:59.289248,10053,1593002339,288939237,,,0,1593002368,-305.1410522,-726.1524048,21.59407997,0.003210278,0,0,0,0,0,-19.67159843,0.0176129919,1593002339.28894
2020/06/24/21:38:59.389212,10054,1593002339,388919830,,,0,1593002368,-305.1410522,-726.1524048,21.59410286,0.00311654876,0,0,0,0,0,-19.67159843,0.0176129919,1593002339.38892
2020/06/24/21:38:59.489272,10055,1593002339,488956928,,,0,1593002368,-305.145752,-726.1595459,21.59449577,1.043028951,0.237506837,0.00222343206,-0.0385302082,0.255850017,0,-19.77300072,0.0176144913,1593002339.48896
2020/06/24/21:38:59.589257,10056,1593002339,588937044,,,0,1593002368,-305.1508179,-726.1672974,21.59512901,0.442561477,0.786890686,0.0177382063,0.0212955475,0.76275003,0,-19.77300072,0.0176162031,1593002339.58894
2020/06/24/21:38:59.689321,10057,1593002339,688965797,,,0,1593002368,-305.1750488,-726.2039185,21.59662056,1.3746382,-0.150355577,-0.00788926892,-0.00959314406,0.792050004,0,-19.67159843,0.017622197,1593002339.68897
2020/06/24/21:38:59.789301,10058,1593002339,788947105,,,0,1593002368,-305.1842346,-726.2176514,21.59698677,1.692133904,0.22369802,0.00671222853,0.0678565651,0.564050019,0,-19.77300072,0.0176230539,1593002339.78895
2020/06/24/21:38:59.889295,10059,1593002339,888941049,,,0,1593002368,-305.2209778,-726.2727051,21.59851074,1.813730121,0.191326737,0.011535868,0.0260238126,0,0,-19.77300072,0.0176348276,1593002339.88894
2020/06/24/21:38:59.989288,10060,1593002339,988948583,,,0,1593002368,-305.2466736,-726.3111572,21.59976578,1.803011775,-0.0473312102,0.000655686716,-0.133594036,0,0,-19.97579956,0.0176414642,1593002339.98895
2020/06/24/21:39:00.089314,10061,1593002340,88960409,,,0,1593002368,-305.2853394,-726.3692017,21.60141945,1.837959409,0.0219877064,0.00278449804,0.0484470241,0,0,-19.87440109,0.0176517405,1593002340.08896
2020/06/24/21:39:00.189305,10062,1593002340,188952922,,,0,1593002368,-305.2981873,-726.3884277,21.60178185,1.853001714,0.0496452972,0.00228242856,0.043512065,0,0,-19.97579956,0.0176547375,1593002340.18895
2020/06/24/21:39:00.289259,10063,1593002340,288961172,,,0,1593002368,-305.3383484,-726.447937,21.60306549,1.907940865,0.0938474536,0.00437227124,-0.00900293142,0,0,-19.87440109,0.0176635142,1593002340.28896
2020/06/24/21:39:00.389292,10064,1593002340,388949394,,,0,1593002368,-305.3686523,-726.4934692,21.60403061,1.925905228,0.0415554382,0.0072192126,0.0584434271,0,0,-20.07719994,0.0176703651,1593002340.38895
2020/06/24/21:39:00.489267,10065,1593002340,488946437,,,0,1593002368,-305.3940735,-726.5310669,21.60481453,1.969219446,0.0338256136,0.00540137663,0.0249152295,0,0,-20.17860031,0.017679356,1593002340.48895
2020/06/24/21:39:00.589302,10066,1593002340,588957071,,,0,1593002368,-305.4225159,-726.5736694,21.60583687,1.992414117,0.0173261557,0.00290228357,0.0069719418,0,0,-20.07719994,0.0176859926,1593002340.58896
2020/06/24/21:39:00.689294,10067,1593002340,688968420,,,0,1593002368,-305.4657288,-726.6380005,21.60753059,2.047355652,0.0397016704,0.00384017569,0.0197385661,0,0,-20.27999878,0.0176975522,1593002340.68897
2020/06/24/21:39:00.789303,10068,1593002340,788954734,,,0,1593002368,-305.4953308,-726.6819458,21.60853386,2.072039366,0.0157040693,0.0017121837,-0.00821742788,0,0,-20.27999878,0.0177052598,1593002340.78895
2020/06/24/21:39:00.889273,10069,1593002340,888930082,,,0,1593002368,-305.513855,-726.7095947,21.60907936,2.089964151,0.130961105,0.00793132465,-0.0759699196,0,0,-20.07719994,0.017710397,1593002340.88893
2020/06/24/21:39:00.989306,10070,1593002340,988960742,,,0,1593002368,-305.556427,-726.772583,21.61036301,2.155063391,0.0477669314,0.0101534929,-0.0507794991,0,0,-20.38139915,0.0177200306,1593002340.98896
2020/06/24/21:39:01.089273,10071,1593002341,88931083,,,0,1593002368,-305.587616,-726.8189087,21.61153221,2.184259415,0.132098615,0.00500474637,-0.128851935,0,0,-20.07719994,0.0177285988,1593002341.08893
2020/06/24/21:39:01.189337,10072,1593002341,188996791,,,0,1593002368,-305.6224365,-726.8705444,21.61314011,2.200126886,0.106174342,0.00519770384,-0.042590946,0,0,-20.17860031,0.0177380312,1593002341.18900
2020/06/24/21:39:01.289238,10073,1593002341,288931608,,,0,1593002368,-305.6671143,-726.9364624,21.61500359,2.247569561,-0.0243864134,-0.00315840403,0.143711194,0,0,-19.97579956,0.0177498218,1593002341.28893
2020/06/24/21:39:01.389213,10074,1593002341,388907194,,,0,1593002368,-305.7010803,-726.9867554,21.61591911,2.280855179,0.00766421156,0.00322252023,0.0218126941,0,0,-20.17860031,0.0177560393,1593002341.38891
2020/06/24/21:39:01.489264,10075,1593002341,488949298,,,0,1593002368,-305.7204895,-727.0153198,21.6164341,2.312585354,-0.0263103154,0.00964927021,-0.105226368,0,0,-20.17860031,0.0177618284,1593002341.48895
2020/06/24/21:39:01.589280,10076,1593002341,588960409,,,0,1593002368,-305.7720947,-727.0907593,21.61836433,2.363876104,0.0817475766,0.00175640476,-0.0360216126,0,0,-20.58419991,0.0177770481,1593002341.58896
2020/06/24/21:39:01.689301,10077,1593002341,688953399,,,0,1593002368,-305.7854614,-727.1104126,21.61893845,2.368487597,0.00889029447,-0.00962952338,0.034670867,0,0,-20.48279953,0.0177796204,1593002341.68895
2020/06/24/21:39:01.789283,10078,1593002341,788939476,,,0,1593002368,-305.8384705,-727.1879883,21.62092781,2.437428713,0.0725255013,0.0124792242,-0.0518817604,0,0,-20.38139915,0.0177929122,1593002341.78894
2020/06/24/21:39:01.889309,10079,1593002341,888948917,,,0,1593002368,-305.8729248,-727.2383423,21.62232399,2.457722664,0.14386268,-0.00138082297,-0.146581084,0,0,-20.58419991,0.0178008452,1593002341.88895
2020/06/24/21:39:01.989306,10080,1593002341,988960504,,,0,1593002368,-305.9277954,-727.3185425,21.62423706,2.508171558,-0.0856841803,-0.00955109484,-0.0280906558,0,0,-20.68559837,0.0178149939,1593002341.98896
2020/06/24/21:39:02.089293,10081,1593002342,88948249,,,0,1593002368,-305.9491882,-727.3496094,21.62487221,2.532544136,0.0297839213,0.00347282691,-0.0288577899,0,0,-20.58419991,0.0178212095,1593002342.08895
2020/06/24/21:39:02.189317,10082,1593002342,188965797,,,0,1593002368,-306.0058594,-727.432312,21.62666321,2.574008465,-0.0912349969,-0.0111223059,-0.0624611005,0,0,-20.78699875,0.0178349297,1593002342.18897
2020/06/24/21:39:02.289304,10083,1593002342,288947105,,,0,1593002368,-306.0205078,-727.4535522,21.62709618,2.601190567,0.00761908386,-0.00570475589,0.00215334981,0,0,-20.68559837,0.017839646,1593002342.28895
2020/06/24/21:39:02.389280,10084,1593002342,388955116,,,0,1593002368,-306.0785217,-727.5383301,21.62886047,2.645580053,-0.026209224,-0.00125449628,0.0116621871,0,0,-20.38139915,0.0178533662,1593002342.38896
2020/06/24/21:39:02.489283,10085,1593002342,488939046,,,0,1593002368,-306.1223755,-727.602417,21.63070488,2.68027854,0.0062796548,-0.00554636354,-0.116584793,0,0,-20.78699875,0.017865371,1593002342.48894
2020/06/24/21:39:02.589273,10086,1593002342,588931560,,,0,1593002368,-306.1581726,-727.6538086,21.63213348,2.706576586,-0.0399282947,-0.0144411242,-0.00829515606,0,0,-20.9897995,0.017873304,1593002342.58893
2020/06/24/21:39:02.689293,10087,1593002342,688961029,,,0,1593002368,-306.1983643,-727.711792,21.63345718,2.740849495,0.0494003445,0.00458950968,-0.0503766201,0,0,-21.39539909,0.0178846661,1593002342.68896
2020/06/24/21:39:02.789253,10088,1593002342,788962841,,,0,1593002368,-306.2601013,-727.8010864,21.63543892,2.805400372,0.00847715884,-0.00329355407,-0.0508070067,0,0,-21.09119987,0.0178992432,1593002342.78896
2020/06/24/21:39:02.889243,10089,1593002342,888941764,,,0,1593002368,-306.2814026,-727.8319702,21.63611603,2.801575184,-0.0442122445,-0.00306555862,-0.0211007185,0,0,-21.09119987,0.0179071762,1593002342.88894
2020/06/24/21:39:02.989260,10090,1593002342,988960742,,,0,1593002368,-306.3451233,-727.923645,21.6383152,2.869935513,0.0124501567,-0.00753490534,-0.0296470802,0,0,-21.69959831,0.017921539,1593002342.98896
2020/06/24/21:39:03.089258,10091,1593002343,88954687,,,0,1593002368,-306.3877563,-727.9844971,21.63975334,2.896964073,-0.107998028,-0.0129894745,-0.0311526656,0,0,-21.69959831,0.017932687,1593002343.08895
2020/06/24/21:39:03.189437,10092,1593002343,189077138,,,0,1593002368,-306.4280701,-728.0424194,21.64097023,2.941422224,0.0818756372,0.00872372836,0.0153315514,0,0,-21.49679947,0.017942762,1593002343.18908
2020/06/24/21:39:03.289212,10093,1593002343,288927793,,,0,1593002368,-306.4759827,-728.1109619,21.64249611,2.975105762,0.010709174,0.00331012625,0.181355163,0,0,-21.80099869,0.0179545674,1593002343.28893
2020/06/24/21:39:03.389190,10094,1593002343,388918876,,,0,1593002368,-306.5259399,-728.1821289,21.64427567,3.012025118,0.162365854,0.00415527914,-0.0263676643,0,0,-21.39539909,0.0179674476,1593002343.38892
2020/06/24/21:39:03.489273,10095,1593002343,488952875,,,0,1593002368,-306.5853271,-728.2670288,21.64636993,3.065823078,0.0950605199,-0.00162310782,-0.0814309567,0,0,-21.80099869,0.0179824736,1593002343.48895
2020/06/24/21:39:03.589301,10096,1593002343,588948726,,,0,1593002368,-306.6087646,-728.3002319,21.64713478,3.063976288,-0.0217459965,0.00138409925,-0.0500162132,0,0,-21.90239906,0.0179865528,1593002343.58895
2020/06/24/21:39:03.689294,10097,1593002343,688963890,,,0,1593002368,-306.6783142,-728.399292,21.64972305,3.120592117,0.119304813,0.000382490514,0.0248268507,0,0,-21.80099869,0.0180052295,1593002343.68896
2020/06/24/21:39:03.789293,10098,1593002343,788948774,,,0,1593002368,-306.7023621,-728.4332886,21.65070724,3.129567385,0.162487566,0.00807811692,-0.165082321,0,0,-22.20660019,0.018012099,1593002343.78895
2020/06/24/21:39:03.889291,10099,1593002343,888939857,,,0,1593002368,-306.7737732,-728.5337524,21.65351868,3.173182249,0.0238420963,3.11E-05,-0.0242261514,0,0,-22.40939903,0.0180275552,1593002343.88894
2020/06/24/21:39:03.989247,10100,1593002343,988947868,,,0,1593002368,-306.8213501,-728.6010132,21.65500641,3.205775738,0.0491914116,0.00282606948,0.0935956687,0,0,-22.00379944,0.0180410799,1593002343.98895
2020/06/24/21:39:04.089261,10101,1593002344,88958740,,,0,1593002368,-306.875824,-728.6777954,21.65685844,3.241326094,0.0427836664,0.00283559039,-0.110972859,0,0,-22.30800056,0.0180539601,1593002344.08896
2020/06/24/21:39:04.189282,10102,1593002344,188976049,,,0,1593002368,-306.9451599,-728.7750244,21.65958023,3.279478073,-0.0318210162,0.00316241081,-0.0321128294,0,0,-22.40939903,0.018070275,1593002344.18898
2020/06/24/21:39:04.289260,10103,1593002344,288952827,,,0,1593002368,-306.994812,-728.8446655,21.66118622,3.317744493,0.0270839985,-0.00243861158,0.0655253381,0,0,-22.81499863,0.0180831552,1593002344.28895
2020/06/24/21:39:04.389248,10104,1593002344,388951301,,,0,1593002368,-307.0256042,-728.8875122,21.66213417,3.326544762,-0.0928988308,0.00109676877,0.0197835509,0,0,-22.81499863,0.0180915259,1593002344.38895
2020/06/24/21:39:04.489271,10105,1593002344,488967895,,,0,1593002368,-307.0925598,-728.9805908,21.66424179,3.380451441,0.101278201,0.00902101118,-0.133650422,0,0,-23.22060013,0.0181063395,1593002344.48897
2020/06/24/21:39:04.589268,10106,1593002344,588968753,,,0,1593002368,-307.150238,-729.0612793,21.66611481,3.397115707,-0.0711896941,0.00117200706,0.0627771392,0,0,-23.3220005,0.0181224383,1593002344.58897
2020/06/24/21:39:04.689270,10107,1593002344,688968420,,,0,1593002368,-307.1968689,-729.1262207,21.66789055,3.415913105,0.0927088633,0.0057476419,-0.0384404361,0,0,-23.22060013,0.0181342456,1593002344.68897
2020/06/24/21:39:04.789265,10108,1593002344,788966178,,,0,1593002368,-307.2506714,-729.2005615,21.67004013,3.459535599,-0.103532948,0.00347828632,0.0455557331,0,0,-23.11919785,0.0181477703,1593002344.78897
2020/06/24/21:39:04.889265,10109,1593002344,888966560,,,0,1593002368,-307.3305359,-729.310791,21.67323685,3.506360769,0.0519290678,-0.00497082993,-0.0240293071,0,0,-23.52479935,0.0181679558,1593002344.88897
2020/06/24/21:39:04.989258,10110,1593002344,988960981,,,0,1593002368,-307.3836975,-729.3843384,21.67508888,3.529259682,0.0426153839,0.00672372058,-0.00165601261,0,0,-22.71359825,0.0181806404,1593002344.98896
2020/06/24/21:39:05.089252,10111,1593002345,88958024,,,0,1593002368,-307.4164734,-729.4295654,21.67608643,3.539865971,-0.018346034,-0.00293223583,-0.179643795,0,0,-22.00379944,0.018190315,1593002345.08896
2020/06/24/21:39:05.189369,10112,1593002345,189011573,,,0,1593002368,-307.4981689,-729.5425415,21.67824936,3.592741489,0.0376392752,-0.00209506135,-0.0788532645,0,0,-22.916399,0.0182075147,1593002345.18901
2020/06/24/21:39:05.289260,10113,1593002345,288922309,,,0,1593002368,-307.5210571,-729.5742798,21.67875481,3.625026941,0.0286660437,0.00382018369,-0.0263568312,0,0,-22.916399,0.0182128903,1593002345.28892
2020/06/24/21:39:05.389299,10114,1593002345,388955116,,,0,1593002368,-307.6050415,-729.6901855,21.68059731,3.683432817,0.0787277073,-0.00282687368,-0.00458914787,0,0,-26.46539879,0.0182354636,1593002345.38896
2020/06/24/21:39:05.489254,10115,1593002345,488941669,,,0,1593002368,-307.6565857,-729.7601318,21.68150139,3.713101625,-0.0162381958,-0.0047919713,0.0161371715,0,0,-34.07040024,0.0182475038,1593002345.48894
2020/06/24/21:39:05.589290,10116,1593002345,588969707,,,0,1593002368,-307.7208862,-729.8452148,21.6824894,3.757926702,-0.0302771274,0.00423163781,0.0284666233,0,0,-50.29439926,0.0182614792,1593002345.58897
2020/06/24/21:39:05.689290,10117,1593002345,688974857,,,0,1593002368,-307.8132629,-729.9622803,21.6845417,3.819558144,-0.0156052168,0.00261683599,-0.0105851525,0,0,-78.38219452,0.0182864182,1593002345.68897
2020/06/24/21:39:05.789294,10118,1593002345,788956880,,,0,1593002368,-307.839447,-729.9945679,21.68519402,3.840351582,0.00372676272,0.00416243356,0.03290461,0,0,-86.59560394,0.0182879232,1593002345.78896
2020/06/24/21:39:05.889291,10119,1593002345,888952970,,,0,1593002368,-307.9365845,-730.1102295,21.68800163,3.892021656,0.0323024951,0.00232328661,0.017662365,0,0,-111.5906982,0.0183104966,1593002345.88895
2020/06/24/21:39:05.989290,10120,1593002345,988954544,,,0,1593002368,-308.0113525,-730.1957397,21.69034767,3.933667183,-0.00381244812,-0.00304151839,0.015754085,0,0,-125.7360001,0.0183287729,1593002345.98895
2020/06/24/21:39:06.089308,10121,1593002346,88955402,,,0,1593002368,-308.0724792,-730.2640991,21.6922245,3.941805124,0.0325872786,0.00361696701,0.00994734466,0,0,-133.4423981,0.0183412414,1593002346.08896
2020/06/24/21:39:06.189279,10122,1593002346,188960790,,,0,1593002368,-308.141571,-730.3397827,21.69435501,3.978111506,0.0175004639,-0.0023929649,0.0194068216,0.150649995,0,-138.2588959,0.0183545724,1593002346.18896
2020/06/24/21:39:06.289307,10123,1593002346,288969039,,,0,1593002368,-308.2472229,-730.4522095,21.69764519,4.237140179,0.0357149988,0.00121330528,-0.00428154971,0.421149999,0,-141.5037079,0.018377576,1593002346.28897
2020/06/24/21:39:06.389259,10124,1593002346,388941764,,,0,1593002368,-308.2919617,-730.4991455,21.6990757,4.375997543,0.0707315132,0.00110035867,0.000350851566,0.432150006,0,-142.3148956,0.0183855332,1593002346.38894
2020/06/24/21:39:06.489302,10125,1593002346,488967657,,,0,1593002368,-308.4182739,-730.6294556,21.70302963,4.662194729,0.0446909592,-0.00494856434,-0.0199192241,0.169699997,0,-142.7204895,0.0184107255,1593002346.48897
2020/06/24/21:39:06.589259,10126,1593002346,588945388,,,0,1593002368,-308.4511414,-730.663147,21.70399475,4.691669464,0.0435400978,-0.00474089338,0.0257602278,0.198000014,0,-142.8218994,0.0184193384,1593002346.58895
2020/06/24/21:39:06.689332,10127,1593002346,688977956,,,0,1593002368,-308.5767212,-730.7888794,21.70736694,4.973877907,0.0740199909,0.00435960852,0.0355565213,0.362800002,0,-142.9232941,0.0184410848,1593002346.68898
2020/06/24/21:39:06.789274,10128,1593002346,788956403,,,0,1593002368,-308.6737061,-730.8840332,21.70994377,5.206318855,0.118404731,0.00439313939,0.0183189996,0.406500012,0,-143.0246887,0.0184611101,1593002346.78896
2020/06/24/21:39:06.889302,10129,1593002346,888961315,,,0,1593002368,-308.8158875,-731.0206909,21.71392059,5.535810471,0.0639298707,0.00311753131,0.014571337,0.421649992,0,-143.7344971,0.018489318,1593002346.88896
2020/06/24/21:39:06.989255,10130,1593002346,988935232,,,0,1593002368,-308.8806763,-731.0817261,21.71578598,5.687044144,0.072798498,-0.000197210902,0.0166269671,0.43384999,0,-144.2415009,0.018503312,1593002346.98894
2020/06/24/21:39:07.089311,10131,1593002347,88968038,,,0,1593002368,-309.0429382,-731.2315674,21.72015381,6.063196182,0.0634632707,-0.00111777871,0.0417778268,0.390850008,0,-144.3429108,0.018534964,1593002347.08897
2020/06/24/21:39:07.189388,10132,1593002347,189029455,,,0,1593002368,-309.1617432,-731.3384399,21.72299957,6.281774521,0.0757992342,-0.00258724857,0.0283223465,0.348650008,0,-144.4442902,0.0185532663,1593002347.18903
2020/06/24/21:39:07.289233,10133,1593002347,288931608,,,0,1593002368,-309.3025818,-731.4625244,21.72610283,6.558611393,0.0683930814,-0.00512726139,0.00319796801,0.355700016,0,-144.2415009,0.0185812581,1593002347.28893
2020/06/24/21:39:07.389187,10134,1593002347,388921499,,,0,1593002368,-309.4078064,-731.5531616,21.72815895,6.746898174,0.073075518,0.00165901042,0.0322684497,0.356700003,0,-143.2274933,0.0185993444,1593002347.38892
2020/06/24/21:39:07.489196,10135,1593002347,488929748,,,0,1593002368,-309.6163635,-731.7282104,21.73204422,7.12198019,0.0712906718,0.00374543178,0.00127436966,0.356700003,0,-133.4423981,0.0186387822,1593002347.48893
2020/06/24/21:39:07.589272,10136,1593002347,588959217,,,0,1593002368,-309.7658081,-731.8517456,21.73491478,7.385586262,0.116739757,0.00898840372,0.00355358794,0.33495,0,-117.8774948,0.0186639987,1593002347.58896
2020/06/24/21:39:07.689280,10137,1593002347,688959121,,,0,1593002368,-309.8425598,-731.9152832,21.73655891,7.517710686,0.068398878,0.00207691034,-0.0177700892,0.299300015,0,-107.7881927,0.0186784398,1593002347.68896
2020/06/24/21:39:07.789336,10138,1593002347,788995742,,,0,1593002368,-310.0786743,-732.1136475,21.74177933,7.87048769,0.0459068641,-0.00330248941,-0.0393330418,0.2412,0,-69.2562027,0.0187202524,1593002347.78900
2020/06/24/21:39:07.889275,10139,1593002347,888959646,,,0,1593002368,-310.2196045,-732.2352905,21.74482155,8.062746048,0.0637522712,0.00261795428,-0.054503683,0.2412,0,-42.28379822,0.0187469777,1593002347.88896
2020/06/24/21:39:07.989300,10140,1593002347,988964319,,,0,1593002368,-310.4645691,-732.4556885,21.75063324,8.387600899,0.0362185985,-0.00101185532,-0.0100549301,0.239250004,0,-1.419599891,0.018792456,1593002347.98896
2020/06/24/21:39:08.089293,10141,1593002348,88953495,,,0,1593002368,-310.6092529,-732.5911255,21.75424957,8.573478699,0.0215352364,-0.00351985358,-0.0269175153,0.239250004,0,19.11389923,0.0188204739,1593002348.08895
2020/06/24/21:39:08.189274,10142,1593002348,188951969,,,0,1593002368,-310.7237244,-732.7011719,21.75707054,8.727183342,0.0651428401,-0.0042368453,-0.0505606271,0.23635,0,31.78889847,0.0188424829,1593002348.18895
2020/06/24/21:39:08.289310,10143,1593002348,288953781,,,0,1593002368,-310.8757935,-732.8508301,21.76072502,8.918020248,0.070077911,0.00235899561,-0.00615143776,0.2051,0,44.0582962,0.0188724827,1593002348.28895
2020/06/24/21:39:08.389293,10144,1593002348,388956308,,,0,1593002368,-311.1250916,-733.1036987,21.76646042,9.183391571,0.071463488,0.00250150519,-0.0619969442,0.0840000212,0,61.90469742,0.0189223383,1593002348.38896
2020/06/24/21:39:08.489301,10145,1593002348,488948822,,,0,1593002368,-311.2259827,-733.2089233,21.76871681,9.218245506,-0.00314412825,-0.00351978,-0.0533780754,0.0466500223,0,70.32089996,0.0189437047,1593002348.48895
2020/06/24/21:39:08.589290,10146,1593002348,588948488,,,0,1593002368,-311.4397888,-733.4390259,21.77378273,9.147174835,-0.0195748396,0.000322756678,-0.0636900589,0,0,80.35949707,0.0189875178,1593002348.58895
2020/06/24/21:39:08.689274,10147,1593002348,688949823,,,0,1593002368,-311.6163025,-733.6360474,21.7782402,9.0530653,-0.0109686404,-0.000512921484,-0.00449973997,0.0664000213,0,82.38749695,0.0190261509,1593002348.68895
2020/06/24/21:39:08.789283,10148,1593002348,788966417,,,0,1593002368,-311.7619019,-733.8016968,21.78195763,9.199725151,0.0053549204,0.00185150665,0.0202700831,0.286150008,0,82.38749695,0.0190570336,1593002348.78897
2020/06/24/21:39:08.889302,10149,1593002348,888960361,,,0,1593002368,-311.9251709,-733.9896851,21.7863636,9.446675301,0.046463035,0.0068062814,-0.000104850158,0.306649983,0,79.54829407,0.0190927126,1593002348.88896
2020/06/24/21:39:08.989275,10150,1593002348,988958835,,,0,1593002368,-312.1020203,-734.1960449,21.79158401,9.695575714,0.0558836758,0.00231821975,-0.039178405,0.136450022,0,75.18809509,0.0191309843,1593002348.98896
2020/06/24/21:39:09.089281,10151,1593002349,88959932,,,0,1593002368,-312.3397522,-734.4780273,21.79854012,9.939399719,0.0671274215,-0.00503596384,-0.0243920274,0.0810500085,0,70.62509918,0.0191839598,1593002349.08896
2020/06/24/21:39:09.189384,10152,1593002349,189033269,,,0,1593002368,-312.4884033,-734.6572266,21.80246353,9.956562042,-0.0225235336,-0.00622756174,-0.00791570544,0.0295500159,0,68.79990387,0.0192170441,1593002349.18903
2020/06/24/21:39:09.289205,10153,1593002349,288928747,,,0,1593002368,-312.5728455,-734.7597656,21.80452538,9.950702667,-0.01711284,-0.00366936135,-0.0370200202,0.0305000246,0,70.01670074,0.0192378014,1593002349.28893
2020/06/24/21:39:09.389197,10154,1593002349,388928174,,,0,1593002368,-312.8226318,-735.0673828,21.8104248,9.875341415,-0.0730653256,0.0018737145,-0.0171708781,0,0,66.67049408,0.0192929748,1593002349.38893
2020/06/24/21:39:09.489177,10155,1593002349,488906383,,,0,1593002368,-312.9648132,-735.246582,21.81417274,9.751455307,-0.0160896536,0.005565851,-0.0588854924,0,0,67.07609558,0.0193267558,1593002349.48891
2020/06/24/21:39:09.589242,10156,1593002349,588949680,,,0,1593002368,-313.1383972,-735.4689331,21.81932068,9.617441177,-0.0395315774,0.00327888667,0.0125531619,0,0,61.80329895,0.01936768,1593002349.58895
2020/06/24/21:39:09.689248,10157,1593002349,688951015,,,0,1593002368,-313.2602539,-735.6263428,21.82300186,9.526117325,-0.0343580805,0.00139205554,-0.0200189613,0,0,60.78929901,0.01939518,1593002349.68895
2020/06/24/21:39:09.789261,10158,1593002349,788966894,,,0,1593002368,-313.4895935,-735.925415,21.82997131,9.348315239,-0.0570989698,0.00122775661,0.00335002504,0,0,52.47449493,0.019448448,1593002349.78897
2020/06/24/21:39:09.889253,10159,1593002349,888957977,,,0,1593002368,-313.6070251,-736.0791626,21.83373261,9.251996994,-0.00146880222,0.00273209671,-0.00398672139,0,0,49.02689743,0.0194765963,1593002349.88896
2020/06/24/21:39:09.989248,10160,1593002349,988955974,,,0,1593002368,-313.8009949,-736.3345337,21.84003067,9.104715347,-0.0662438869,-0.00269418489,-0.0245011393,0,0,47.70869827,0.0195231959,1593002349.98896
2020/06/24/21:39:10.089257,10161,1593002350,88964700,,,0,1593002368,-313.9141846,-736.4852295,21.84364128,9.010749817,-0.0230663233,-0.00153187267,-0.0316097699,0,0,46.79610062,0.0195502993,1593002350.08896
2020/06/24/21:39:10.189261,10162,1593002350,188966512,,,0,1593002368,-314.122406,-736.7652588,21.8502121,8.859708786,-0.0251603909,-0.000314459088,-0.027475236,0,0,47.91149902,0.0196012501,1593002350.18897
2020/06/24/21:39:10.289251,10163,1593002350,288959264,,,0,1593002368,-314.191803,-736.8599854,21.85240173,8.782204628,-0.011324333,-0.00275585474,0.0214497335,0,0,47.10029984,0.0196177289,1593002350.28896
2020/06/24/21:39:10.389260,10164,1593002350,388965129,,,0,1593002368,-314.3959656,-737.1416626,21.85879898,8.623617172,9.69E-05,0.0034548447,0.0326446518,0,0,48.21570206,0.0196675975,1593002350.38897
2020/06/24/21:39:10.489248,10165,1593002350,488956451,,,0,1593002368,-314.462738,-737.2344971,21.86096573,8.582853317,-0.0548948422,-0.00195984379,-0.046753224,0,0,49.12829971,0.0196842924,1593002350.48896
2020/06/24/21:39:10.589257,10166,1593002350,588963031,,,0,1593002368,-314.6547852,-737.5056763,21.86721992,8.425146103,-0.0470276289,-0.0020491553,-0.0141676329,0,0,48.51989746,0.0197320189,1593002350.58896
2020/06/24/21:39:10.689254,10167,1593002350,688960075,,,0,1593002368,-314.7706909,-737.6712646,21.87089539,8.335802078,-0.0443202406,-0.00218511187,0.000323444605,0,0,47.10029984,0.0197615437,1593002350.68896
2020/06/24/21:39:10.789246,10168,1593002350,788953781,,,0,1593002368,-314.8963318,-737.852356,21.87491798,8.233872414,-0.0159974992,0.000348419911,0.00562843541,0,0,45.17369843,0.0197928045,1593002350.78895
2020/06/24/21:39:10.889251,10169,1593002350,888955116,,,0,1593002368,-315.0657959,-738.0983887,21.88040924,8.094408035,-0.00865604449,0.00207185163,-0.0244331937,0,0,39.39389801,0.0198347028,1593002350.88896
2020/06/24/21:39:10.989246,10170,1593002350,988952398,,,0,1593002368,-315.1870422,-738.2747803,21.88453865,7.987748623,-0.0533966646,0.00216918741,0.0353404284,0,0,33.6140976,0.0198670495,1593002350.98895
2020/06/24/21:39:11.089248,10171,1593002351,88953256,,,0,1593002368,-315.3068237,-738.4487305,21.88882828,7.865992546,-0.0445234776,0.00247439928,0.0172718391,0,0,28.84829903,0.0198974423,1593002351.08895
2020/06/24/21:39:11.189371,10172,1593002351,189020395,,,0,1593002368,-315.4104919,-738.598938,21.89267731,7.783849239,0.0251580551,-0.000667147629,-0.0226887781,0,0,26.11050034,0.0199237112,1593002351.18902
2020/06/24/21:39:11.289206,10173,1593002351,288932561,,,0,1593002368,-315.5382996,-738.7843018,21.89734268,7.694940567,0.0118192751,0.00228775153,0.0243045837,0,0,21.64890099,0.0199567396,1593002351.28893
2020/06/24/21:39:11.389177,10174,1593002351,388910055,,,0,1593002368,-315.6647644,-738.967041,21.90179825,7.597263813,-0.0408411101,-0.000855507969,-0.000249907374,0,0,14.24669933,0.0199886933,1593002351.38891
2020/06/24/21:39:11.489198,10175,1593002351,488927602,,,0,1593002368,-315.7685852,-739.116394,21.90532112,7.512928963,-0.0442659743,0.000306462694,-0.00298142433,0,0,6.540299892,0.0200136919,1593002351.48893
2020/06/24/21:39:11.589253,10176,1593002351,588963031,,,0,1593002368,-315.882843,-739.2788696,21.90915108,7.43362999,0.00696723629,0.00193442684,0.00598454615,0,0,-2.027999878,0.0200443417,1593002351.58896
2020/06/24/21:39:11.689266,10177,1593002351,688972711,,,0,1593002368,-316.0083008,-739.454895,21.91336823,7.42323494,0.0409973264,0.00205664639,0.000548094511,0,0,-9.328800201,0.0200745557,1593002351.68897
2020/06/24/21:39:11.789259,10178,1593002351,788961172,,,0,1593002368,-316.1567993,-739.6602783,21.91838455,7.477374554,0.0745119154,-0.00019091717,0.00350370258,0.18235001,0,-18.04920006,0.020108467,1593002351.78896
2020/06/24/21:39:11.889242,10179,1593002351,888945579,,,0,1593002368,-316.2762451,-739.8237915,21.92226791,7.704292774,0.0930399001,0.00182402052,-0.00380773842,0.424050003,0,-13.9932003,0.0201391168,1593002351.88895
2020/06/24/21:39:11.989249,10180,1593002351,988957166,,,0,1593002368,-316.3374023,-739.9077759,21.92423439,7.859445572,0.109828167,0.00195112033,0.00159638375,0.586300015,0,-11.4581995,0.0201536808,1593002351.98896
2020/06/24/21:39:12.089264,10181,1593002352,88970899,,,0,1593002368,-316.5266418,-740.1692505,21.93070221,8.64484787,0.171403512,0.00490437821,-0.00338024646,0.899099946,0,-3.447599888,0.0201998297,1593002352.08897
2020/06/24/21:39:12.189262,10182,1593002352,188968181,,,0,1593002368,-316.6534729,-740.3459473,21.93547821,9.296847343,0.237896979,0.00670538843,0.0179895386,0.902999997,0,-1.622399926,0.0202305242,1593002352.18897
2020/06/24/21:39:12.289262,10183,1593002352,288968801,,,0,1593002368,-316.8186646,-740.5769653,21.94189644,10.10229874,0.18963486,-0.00263151154,-0.0264785141,0.836050034,0,3.092700005,0.020272322,1593002352.28897
2020/06/24/21:39:12.389271,10184,1593002352,388952255,,,0,1593002368,-317.051239,-740.9044189,21.9503212,11.29592037,0.267076671,-0.00633335207,0.010546647,1,0,7.65569973,0.0203295778,1593002352.38895
2020/06/24/21:39:12.489250,10185,1593002352,488958358,,,0,1593002368,-317.1405945,-741.0307617,21.95337868,11.8226347,0.315262914,-0.00179032702,-0.0304708183,1,0,7.65569973,0.0203533061,1593002352.48896
2020/06/24/21:39:12.589261,10186,1593002352,588971853,,,0,1593002368,-317.433075,-741.4464111,21.96387863,13.5442009,0.367432028,0.00775981089,-0.00981549919,0.995350003,0,9.480899811,0.0204245541,1593002352.58897
2020/06/24/21:39:12.689255,10187,1593002352,688961982,,,0,1593002368,-317.5394897,-741.5983887,21.96800804,14.17940235,0.377995282,0.00191960717,0.00896009803,1,0,10.69769955,0.0204524565,1593002352.68896
2020/06/24/21:39:12.789264,10188,1593002352,788972139,,,0,1593002368,-317.8813782,-742.0895996,21.98118019,16.31291962,0.44338882,-0.00045649102,-0.0195039064,1,0,14.04389954,0.0205389988,1593002352.78897
2020/06/24/21:39:12.889251,10189,1593002352,888956069,,,0,1593002368,-318.1421509,-742.4679565,21.99112892,18.03061104,0.530039907,-0.0080731865,-0.0138333738,1,0,13.89179993,0.0206050538,1593002352.88896
2020/06/24/21:39:12.989253,10190,1593002352,988961935,,,0,1593002368,-318.4299622,-742.8876343,22.00204468,19.99703598,0.598564863,-0.00198040344,-0.00402614474,1,0,13.13129902,0.0206781812,1593002352.98896
2020/06/24/21:39:13.089226,10191,1593002353,88931322,,,0,1593002368,-318.7687378,-743.3840942,22.01550484,22.26707459,0.657315791,0.00513946079,-0.0560931861,1,0,13.0298996,0.0207639709,1593002353.08893
2020/06/24/21:39:13.189386,10192,1593002353,189048767,,,0,1593002368,-319.0742188,-743.8345947,22.02835083,24.19213676,0.61582607,-0.0185375772,-0.0344320536,1,0,13.48619938,0.0208399575,1593002353.18905
2020/06/24/21:39:13.289319,10193,1593002353,288980245,,,0,1593002368,-319.6283875,-744.6594849,22.05059433,27.49187088,0.726177752,-0.0426581576,-0.0176704526,1,0,9.98789978,0.0209844578,1593002353.28898
2020/06/24/21:39:13.389264,10194,1593002353,388945341,,,0,1593002368,-319.8772888,-745.0321045,22.05932236,28.90796471,0.73521775,-0.012653417,-0.0418789387,1,0,9.27809906,0.021049168,1593002353.38895
2020/06/24/21:39:13.489304,10195,1593002353,488968133,,,0,1593002368,-320.4849854,-745.9456787,22.08159447,32.10172272,0.694019377,-0.000345923007,-0.0318955779,1,0,6.895199776,0.0212069638,1593002353.48897
2020/06/24/21:39:13.589259,10196,1593002353,588946104,,,0,1593002368,-321.0074158,-746.7352905,22.10164261,34.52878571,0.693912208,-0.0427285358,-0.045462817,1,0,6.641700268,0.0213427395,1593002353.58895
2020/06/24/21:39:13.689298,10197,1593002353,688961267,,,0,1593002368,-321.2492371,-747.1022949,22.11021233,35.60307693,0.719673991,-0.0221211948,-0.0219197571,1,0,5.424899578,0.0214049686,1593002353.68896
2020/06/24/21:39:13.789300,10198,1593002353,788962602,,,0,1593002368,-322.0534363,-748.3256226,22.13861847,38.9521637,0.669267058,-0.0136391576,-0.00108614564,1,0,0.253499985,0.0216159541,1593002353.78896
2020/06/24/21:39:13.889283,10199,1593002353,888938188,,,0,1593002368,-322.7363281,-749.3653564,22.16310501,41.50815201,0.635788381,-0.0110430801,-0.00695362687,1,0,0.304199994,0.0217957962,1593002353.88894
2020/06/24/21:39:13.989280,10200,1593002353,988946914,,,0,1593002368,-323.2612,-750.1644287,22.18166542,43.28533173,0.615745783,-0.036290668,-0.0147354901,1,0,0,0.0219329204,1593002353.98895
2020/06/24/21:39:14.089270,10201,1593002354,88933706,,,0,1593002368,-323.9527283,-751.2172852,22.20497894,45.4351387,0.546386123,-0.00473165512,0.0190401375,1,0,-0.101399995,0.0221141875,1593002354.08893
2020/06/24/21:39:14.189279,10202,1593002354,188959836,,,0,1593002368,-324.7421265,-752.4191895,22.23129272,47.65890121,0.56651777,0.00506253168,-0.0103089213,1,0,0,0.0223200694,1593002354.18896
2020/06/24/21:39:14.289304,10203,1593002354,288965702,,,0,1593002368,-325.363739,-753.3660278,22.25224876,49.26804733,0.599223077,-0.00746086054,0.00741031766,1,0,-0.304199994,0.02248298,1593002354.28897
2020/06/24/21:39:14.389289,10204,1593002354,388951778,,,0,1593002368,-326.1459961,-754.5571289,22.27858543,51.17286301,0.5415622,0.00632861163,0.00242447853,1,0,-0.506999969,0.022686014,1593002354.38895
2020/06/24/21:39:14.489280,10205,1593002354,488961696,,,0,1593002368,-327.2750549,-756.2764893,22.31722641,53.69724274,0.486948311,0.014444516,0.00281988084,1,0,-0.608399987,0.0229837019,1593002354.48896
2020/06/24/21:39:14.589274,10206,1593002354,588956117,,,0,1593002368,-327.5718994,-756.7283936,22.32772064,54.31025696,0.484074414,0.00895985588,0.0113445073,1,0,-0.709799945,0.0230626501,1593002354.58896
2020/06/24/21:39:14.689292,10207,1593002354,688974857,,,0,1593002368,-328.5849915,-758.2702637,22.36455154,56.16970062,0.300783217,-0.0134925861,-0.00286452472,1,0,-1.115399957,0.0233275164,1593002354.68897
2020/06/24/21:39:14.789293,10208,1593002354,788976192,,,0,1593002368,-329.7794189,-760.0862427,22.40729523,57.0373764,0.117500171,-0.0313893966,0.0180482082,1,0,-1.216799974,0.0236389711,1593002354.78898
2020/06/24/21:39:14.889295,10209,1593002354,888957738,,,0,1593002368,-330.5910339,-761.3179932,22.43398857,57.14732742,0.00905257557,-0.00526831858,0.0385812782,1,0,-1.115399957,0.0238528717,1593002354.88896
2020/06/24/21:39:14.989267,10210,1593002354,988948106,,,0,1593002368,-330.9840698,-761.9140015,22.44644737,57.10403061,-0.0783022717,-0.0177198555,0.0184718482,0.81279999,0,-1.013999939,0.0239546727,1593002354.98895
2020/06/24/21:39:15.089311,10211,1593002355,88970661,,,0,1593002368,-332.2132874,-763.7761841,22.48546791,56.87158585,-0.0659719706,0.0381226912,0.000983033329,0.580200016,0,-0.608399987,0.0242758542,1593002355.08897
2020/06/24/21:39:15.189401,10212,1593002355,189031839,,,0,1593002368,-333.0999146,-765.1182251,22.51592636,56.71329117,-0.0361490324,0.000710678753,-0.0091397129,1,0,-0.709799945,0.024508357,1593002355.18903
2020/06/24/21:39:15.289234,10213,1593002355,288939476,,,0,1593002368,-333.8286743,-766.2203979,22.54127884,56.59237289,-0.0237279013,0.01646851,0.0116924709,1,0,-0.608399987,0.024698928,1593002355.28894
2020/06/24/21:39:15.389281,10214,1593002355,388945102,,,0,1593002368,-334.7899475,-767.6727905,22.57478905,56.42971039,-0.0272469167,0.00508674467,0.00926664658,1,0,-0.811199963,0.0249489509,1593002355.38895
2020/06/24/21:39:15.489274,10215,1593002355,488955736,,,0,1593002368,-335.5158081,-768.769043,22.59966469,56.3069725,-0.034152776,-0.000466052676,-0.00461853202,1,0,-1.419599891,0.0251379516,1593002355.48896
2020/06/24/21:39:15.589305,10216,1593002355,588970661,,,0,1593002368,-336.4731445,-770.2133789,22.63297081,56.13685608,-0.0531968214,0.00572085707,0.0175242983,1,0,-2.230799913,0.0253883246,1593002355.58897
2020/06/24/21:39:15.689276,10217,1593002355,688965797,,,0,1593002368,-337.584137,-771.8853149,22.67251205,55.94376373,-0.0493383892,0.00556929922,0.0560015701,1,0,-2.129400015,0.0256776307,1593002355.68897
2020/06/24/21:39:15.789299,10218,1593002355,788963794,,,0,1593002368,-338.3846436,-773.0856323,22.70149803,55.80891037,-0.0201833304,-0.0311536174,-0.0157492049,0.761250019,0,-2.230799913,0.0258862358,1593002355.78896
2020/06/24/21:39:15.889261,10219,1593002355,888942480,,,0,1593002368,-338.8496399,-773.7805786,22.71794128,55.72928619,-0.0619819313,0.00772994105,0.0166484918,0.367700011,0,-2.230799913,0.0260051284,1593002355.88894
2020/06/24/21:39:15.989299,10220,1593002355,988961458,,,0,1593002368,-340.0742493,-775.604187,22.76149178,56.15513992,-0.0433993153,-0.000598755723,0.0310825203,0.507149994,0,-3.346199989,0.026322376,1593002355.98896
2020/06/24/21:39:16.089291,10221,1593002356,88955163,,,0,1593002368,-340.8863525,-776.8081055,22.78980446,56.64101791,0.61490047,0.000515060499,0.0116732121,1,0,-2.129400015,0.0265316684,1593002356.08896
2020/06/24/21:39:16.189277,10222,1593002356,188959598,,,0,1593002368,-341.8053894,-778.1677856,22.82181358,59.12613678,0.720783114,0.026464887,0.048304826,1,0,-5.982599735,0.026768053,1593002356.18896
2020/06/24/21:39:16.289271,10223,1593002356,288939237,,,0,1593002368,-342.6760559,-779.4517212,22.85388756,60.72787476,0.437853098,0.0301024914,0.00306154788,1,0,-3.650399923,0.0269900188,1593002356.28894
2020/06/24/21:39:16.389244,10224,1593002356,388931035,,,0,1593002368,-343.5700073,-780.7659912,22.88869095,62.2233696,0.462034762,-0.0371858813,0.0291373432,1,0,-3.244799852,0.0272169746,1593002356.38893
2020/06/24/21:39:16.489272,10225,1593002356,488964319,,,0,1593002368,-344.4879456,-782.1107788,22.92387009,63.7130928,0.456119299,-0.0216039494,0.0274181068,1,0,-4.968600273,0.0274523534,1593002356.48896
2020/06/24/21:39:16.589308,10226,1593002356,588971853,,,0,1593002368,-345.9259644,-784.2049561,22.97692299,65.88559723,0.428019881,-0.0180447809,0.0353488177,1,0,-5.374199867,0.0278184321,1593002356.58897
2020/06/24/21:39:16.689282,10227,1593002356,688949823,,,0,1593002368,-346.4282837,-784.932312,22.99495697,66.60051727,0.402235866,-0.0231795851,0.0658199191,1,0,-5.475599766,0.0279455092,1593002356.68895
2020/06/24/21:39:16.789288,10228,1593002356,788953304,,,0,1593002368,-347.712738,-786.7817993,23.03984261,68.38573456,0.40497607,0.0175385717,0.073742196,1,0,-5.577000141,0.0282692499,1593002356.78895
2020/06/24/21:39:16.889248,10229,1593002356,888953924,,,0,1593002368,-349.1055298,-788.7692871,23.08926964,70.19818878,0.408330083,0.01705168,0.063236922,1,0,-3.042000055,0.0286185201,1593002356.88895
2020/06/24/21:39:16.989255,10230,1593002356,988962888,,,0,1593002368,-350.2648926,-790.4122314,23.13071442,71.64214325,0.383296132,0.00112013076,0.0515986532,1,0,-2.534999847,0.0289084259,1593002356.98896
2020/06/24/21:39:17.089284,10231,1593002357,88945388,,,0,1593002368,-351.0644531,-791.5409546,23.1597023,72.59355927,0.356273621,-0.0021663704,0.0147741884,1,0,-1.622399926,0.0291078296,1593002357.08895
2020/06/24/21:39:17.189281,10232,1593002357,188967227,,,0,1593002368,-352.3031616,-793.2854004,23.20480919,74.02824402,0.383875817,0.0161527023,-0.0308875293,1,0,1.216799974,0.0294151064,1593002357.18897
2020/06/24/21:39:17.289362,10233,1593002357,289035320,,,0,1593002368,-353.8941956,-795.5256958,23.26290703,75.76657867,0.365240514,-0.0180076864,-0.0331686437,1,0,1.977299929,0.0298109408,1593002357.28904
2020/06/24/21:39:17.389205,10234,1593002357,388931512,,,0,1593002368,-355.0730591,-797.1885376,23.30431175,77.01087952,0.346117824,-0.0302788951,-0.0300379097,1,0,2.737799883,0.0301031545,1593002357.38893
2020/06/24/21:39:17.489189,10235,1593002357,488921880,,,0,1593002368,-355.7810059,-798.189209,23.32803535,77.73744965,0.374318093,-0.043759834,-0.0309085399,1,0,2.737799883,0.0302802622,1593002357.48892
2020/06/24/21:39:17.589251,10236,1593002357,588925600,,,0,1593002368,-357.4801331,-800.5995483,23.38325119,79.44827271,0.328429013,-0.000521578128,-0.0475627184,1,0,2.534999847,0.0307043381,1593002357.58893
2020/06/24/21:39:17.689243,10237,1593002357,688915252,,,0,1593002368,-358.206604,-801.6341553,23.40676308,80.1669693,0.393723309,0.0168480761,-0.0687813759,1,0,2.534999847,0.0308856443,1593002357.68892
2020/06/24/21:39:17.789297,10238,1593002357,788944959,,,0,1593002368,-359.7917175,-803.9011841,23.46029091,81.67969513,0.340025872,0.0324964561,-0.0588698313,1,0,2.281499863,0.0312820859,1593002357.78895
2020/06/24/21:39:17.889297,10239,1593002357,888947963,,,0,1593002368,-361.2025452,-805.9299927,23.51097679,82.98212433,0.34270829,0.0181800909,-0.0333706439,1,0,1.419599891,0.0316394791,1593002357.88895
2020/06/24/21:39:17.989294,10240,1593002357,988945484,,,0,1593002368,-362.3123169,-807.5318604,23.55209923,83.98561859,0.342262864,-0.00309033459,-0.0460417718,1,0,1.216799974,0.0319200009,1593002357.98895
2020/06/24/21:39:18.089299,10241,1593002358,88949441,,,0,1593002368,-363.7559509,-809.6212769,23.60527611,85.25108337,0.323816031,-0.00540928543,-0.0463352203,1,0,0.506999969,0.0322851241,1593002358.08895
2020/06/24/21:39:18.189313,10242,1593002358,188963174,,,0,1593002368,-365.4230347,-812.0404053,23.66488266,86.65636444,0.313499719,0.0218974687,-0.0525140017,1,0,1.064700007,0.0327074304,1593002358.18896
2020/06/24/21:39:18.289295,10243,1593002358,288944959,,,0,1593002368,-366.8647461,-814.1380615,23.71673584,87.81446075,0.301259279,-0.00726355985,0.00882041454,1,0,0.304199994,0.0330749452,1593002358.28895
2020/06/24/21:39:18.389281,10244,1593002358,388931035,,,0,1593002368,-367.9467163,-815.7151489,23.75604057,88.66361237,0.302699268,-0.0347676948,-0.018859908,1,0,1.064700007,0.0333488546,1593002358.38893
2020/06/24/21:39:18.489294,10245,1593002358,488945722,,,0,1593002368,-368.9953918,-817.2462769,23.79277992,89.425354,0.301722229,-0.00734488061,-0.0119496882,1,0,0.506999969,0.0336174369,1593002358.48895
2020/06/24/21:39:18.589311,10246,1593002358,588960886,,,0,1593002368,-371.0186768,-820.2067261,23.85931969,89.60210419,-0.0521395579,0.0232264735,-0.0377546251,1,0,0.304199994,0.0341321304,1593002358.58896
2020/06/24/21:39:18.689301,10247,1593002358,688950061,,,0,1593002368,-371.5651855,-821.0081177,23.87714958,89.52051544,-0.0504902676,-0.0128820669,-0.012299085,1,0,0.45629999,0.0342734382,1593002358.68895
2020/06/24/21:39:18.789292,10248,1593002358,788953781,,,0,1593002368,-373.5997009,-823.9968872,23.94396019,91.03897095,0.0338050202,-0.0471298993,-0.0233604088,0.188950002,0,1.216799974,0.0347922854,1593002358.78895
2020/06/24/21:39:18.889285,10249,1593002358,888957500,,,0,1593002368,-374.9648132,-826.0057983,23.98834419,91.14889526,0.0893484503,0.00757749192,-0.0409395024,0.6347,0,1.977299929,0.0351434313,1593002358.88896
2020/06/24/21:39:18.989253,10250,1593002358,988943576,,,0,1593002368,-376.5917969,-828.4064941,24.04471779,92.08082581,0.249251083,0.100485854,-0.0293041542,1,0,1.419599891,0.0355590209,1593002358.98894
2020/06/24/21:39:19.089274,10251,1593002359,88954448,,,0,1593002368,-377.7130737,-830.0671997,24.08953857,92.84690857,0.316976786,0.0840159059,-0.0626493245,1,0,0.709799945,0.0358486846,1593002359.08895
2020/06/24/21:39:19.189354,10252,1593002359,189018726,,,0,1593002368,-379.3649597,-832.5224609,24.16179466,94.02216339,0.307019085,-0.00770954695,-0.0374834239,1,0,1.166100025,0.0362755023,1593002359.18902
2020/06/24/21:39:19.289291,10253,1593002359,288959264,,,0,1593002368,-380.4612122,-834.1560059,24.20975876,94.79481506,0.296899438,-0.0448509753,-0.0330910087,1,0,0.506999969,0.0365584046,1593002359.28896
2020/06/24/21:39:19.389265,10254,1593002359,388932943,,,0,1593002368,-382.2755737,-836.8658447,24.2872467,96.05123901,0.277369142,0.0153481252,-0.0527977347,1,0,2.180099726,0.0370292515,1593002359.38893
2020/06/24/21:39:19.489297,10255,1593002359,488945960,,,0,1593002368,-383.8388062,-839.2098389,24.35355377,97.11029816,0.293551385,-0.00397130102,-0.0585305393,1,0,2.484300137,0.0374333784,1593002359.48895
2020/06/24/21:39:19.589185,10256,1593002359,588890552,,,0,1593002368,-384.9631042,-840.9014893,24.40042114,97.85185242,0.313858867,0.0239924546,-0.0650319755,1,0,2.687099934,0.0377262644,1593002359.58889
2020/06/24/21:39:19.689286,10257,1593002359,688953161,,,0,1593002368,-387.0011597,-843.9830322,24.48960114,99.1490097,0.238005295,0.0249090157,-0.0598009452,1,0,3.194099903,0.0382593162,1593002359.68895
2020/06/24/21:39:19.789296,10258,1593002359,788946151,,,0,1593002368,-387.5473938,-844.8127441,24.51511002,99.5094223,0.30036658,0.0986233428,-0.0910551846,1,0,3.447599888,0.0384008028,1593002359.78895
2020/06/24/21:39:19.889287,10259,1593002359,888937234,,,0,1593002368,-389.7423401,-848.1652832,24.62980461,100.8471222,0.272700846,0.104681551,-0.0496474057,1,0,-0.608399987,0.0389779545,1593002359.88894
2020/06/24/21:39:19.989621,10260,1593002359,989324092,,,0,1593002368,-391.0316772,-850.1439819,24.70623398,101.6150284,0.241887942,0.0608195327,-0.0322592184,1,0,-0.506999969,0.0393194184,1593002359.98932
2020/06/24/21:39:20.089586,10261,1593002360,89290380,,,0,1593002368,-392.6541138,-852.6404419,24.80572319,102.5640564,0.219339103,-0.00889821164,-0.0119751617,1,0,-0.101399995,0.0397486389,1593002360.08929
2020/06/24/21:39:20.189612,10262,1593002360,189320802,,,0,1593002368,-394.5710144,-855.5958862,24.92183113,103.6691971,0.255418807,0.0322619081,0.0066402927,1,0,-0.709799945,0.0402563512,1593002360.18932
2020/06/24/21:39:20.289548,10263,1593002360,289256811,,,0,1593002368,-395.3243103,-856.7579346,24.9675312,104.0847092,0.225752994,-0.00698424969,0.00449776649,1,0,-0.608399987,0.0404549018,1593002360.28926
2020/06/24/21:39:20.389273,10264,1593002360,388938665,,,0,1593002368,-397.5541382,-860.1982422,25.10672951,105.3026581,0.210951015,0.0747719705,0.0174547061,1,0,-0.101399995,0.0410458408,1593002360.38894
2020/06/24/21:39:20.489267,10265,1593002360,488939046,,,0,1593002368,-399.3267517,-862.9346924,25.22294235,106.244194,0.26174885,0.0565655679,-0.0250887424,1,0,0,0.0415165462,1593002360.48894
2020/06/24/21:39:20.589611,10266,1593002360,589265346,,,0,1593002368,-401.1623535,-865.7706299,25.34674644,107.1958466,0.218446702,0.0448329784,-0.0135328025,1,0,1.216799974,0.0420032069,1593002360.58927
2020/06/24/21:39:20.689598,10267,1593002360,689306259,,,0,1593002368,-402.2314148,-867.4246216,25.42022896,107.728096,0.225604296,0.0398829803,-0.0346002132,1,0,0.506999969,0.0422877744,1593002360.68931
2020/06/24/21:39:20.789611,10268,1593002360,789327383,,,0,1593002368,-404.3833313,-870.7581177,25.57577133,108.7831955,0.212621003,0.103692457,0.0195321292,1,0,-5.069999695,0.0428589843,1593002360.78933
2020/06/24/21:39:20.889266,10269,1593002360,888908147,,,0,1593002368,-405.9133301,-873.1248169,25.69168663,109.5187836,0.250196934,0.0302343033,0.0397861376,1,0,-5.374199867,0.043264322,1593002360.88891
2020/06/24/21:39:20.989263,10270,1593002360,988956928,,,0,1593002368,-407.0074463,-874.8126831,25.7749939,110.0285645,0.224734649,-0.0356742814,0.0438434035,1,0,-3.447599888,0.0435544029,1593002360.98896
2020/06/24/21:39:21.089253,10271,1593002361,88942527,,,0,1593002368,-409.2167664,-878.2080078,25.94686699,111.0467072,0.27014932,0.064791292,0.0558481067,1,0,-2.737799883,0.0441403463,1593002361.08894
2020/06/24/21:39:21.189338,10272,1593002361,189013242,,,0,1593002368,-410.6380615,-880.3811035,26.06345558,111.667305,0.214869291,-0.00831307191,0.0939707533,1,0,-3.447599888,0.0445137471,1593002361.18901
2020/06/24/21:39:21.289283,10273,1593002361,288991689,,,0,1593002368,-412.5865479,-883.3452759,26.22605324,112.5273438,0.229754925,-0.0484844148,0.0632320493,1,0,-2.534999847,0.0450244695,1593002361.28899
2020/06/24/21:39:21.389272,10274,1593002361,388991832,,,0,1593002368,-414.0366211,-885.5406494,26.34583855,113.1400528,0.212017879,-0.104016878,0.0606012419,1,0,-2.027999878,0.045404613,1593002361.38899
2020/06/24/21:39:21.489293,10275,1593002361,488962411,,,0,1593002368,-415.6557922,-887.9823608,26.47802544,113.8223877,0.20826444,-0.0861511305,0.0353024527,1,0,-0.304199994,0.0458258167,1593002361.48896
2020/06/24/21:39:21.589292,10276,1593002361,588955879,,,0,1593002368,-417.6579895,-890.9928589,26.63941956,114.6721115,0.225094721,-0.0486361831,0.0142077431,1,0,0,0.046347864,1593002361.58896
2020/06/24/21:39:21.689274,10277,1593002361,688960790,,,0,1593002368,-419.1440735,-893.2242432,26.75942993,115.2730255,0.195108771,0.0411729477,-9.58E-05,1,0,0.304199994,0.046736557,1593002361.68896
2020/06/24/21:39:21.789272,10278,1593002361,788960456,,,0,1593002368,-420.8516846,-895.788269,26.90501595,115.9524384,0.213506937,0.0285948627,-0.00489871204,1,0,0.912599981,0.0471799225,1593002361.78896
2020/06/24/21:39:21.889266,10279,1593002361,888963222,,,0,1593002368,-423.0515137,-899.0960083,27.09951019,116.7759552,0.206996515,-0.0472547263,-0.0548797771,0.902500033,0,2.534999847,0.0477507152,1593002361.88896
2020/06/24/21:39:21.989229,10280,1593002361,988946199,,,0,1593002368,-424.7207947,-901.6137695,27.24308395,117.300415,0.176745802,-0.101196952,-0.0381784663,0.792549968,0,1.977299929,0.0481873602,1593002361.98895
2020/06/24/21:39:22.089237,10281,1593002362,88958263,,,0,1593002368,-426.2839355,-903.9790649,27.37139893,117.4407578,-0.0947903544,-0.0820526779,-0.088585414,0,0,1.419599891,0.0485957041,1593002362.08896
2020/06/24/21:39:22.189272,10282,1593002362,188964843,,,0,1593002368,-427.9465332,-906.5046387,27.50382233,116.9160919,-0.161722094,-0.0688847974,-0.103779897,0,0,2.484300137,0.0490300879,1593002362.18896
2020/06/24/21:39:22.289310,10283,1593002362,288956642,,,0,1593002368,-430.4828796,-910.3803711,27.70318222,114.1714859,-1.036933541,0.0604313239,-0.0603822172,0,1,5.424899578,0.0496975891,1593002362.28896
2020/06/24/21:39:22.389247,10284,1593002362,388945817,,,0,1593002368,-431.9119873,-912.5791016,27.81626701,111.0565033,-1.127117395,-0.0390086882,-0.137913853,0,1,11.50889969,0.0500746295,1593002362.38895
2020/06/24/21:39:22.489266,10285,1593002362,488960027,,,0,1593002368,-433.3434753,-914.7991333,27.92439461,107.9871216,-1.080532074,-0.110063598,-0.177884579,0,1,13.89179993,0.0504558347,1593002362.48896
2020/06/24/21:39:22.589288,10286,1593002362,588950634,,,0,1593002368,-435.2802429,-917.8375854,28.06029892,103.3338394,-1.204807162,-0.0300280172,-0.116563439,0.442849994,1,4.512300015,0.0509769581,1593002362.58895
2020/06/24/21:39:22.689312,10287,1593002362,688958406,,,0,1593002368,-436.5884705,-919.9104614,28.14987183,99.93713379,-1.222944975,-0.000462491065,-0.141050518,0,1,10.29209995,0.0513329022,1593002362.68896
2020/06/24/21:39:22.789259,10288,1593002362,788955450,,,0,1593002368,-437.9683533,-922.1228027,28.24611092,96.10287476,-1.17949903,-0.0183439199,-0.212413341,0,1,13.89179993,0.0517086163,1593002362.78896
2020/06/24/21:39:22.889259,10289,1593002362,888950109,,,0,1593002368,-439.5178833,-924.6497803,28.35632133,91.670784,-1.095382094,-0.0746800676,-0.229939371,0,1,13.23269939,0.0521457307,1593002362.88895
2020/06/24/21:39:22.989289,10290,1593002362,988951444,,,0,1593002368,-440.5233154,-926.3192139,28.42634773,88.75053406,-0.992656887,-0.137341782,-0.209698617,0,1,12.42149925,0.0524359122,1593002362.98895
2020/06/24/21:39:23.089309,10291,1593002363,88957548,,,0,1593002368,-441.7380066,-928.3719482,28.50549698,85.13126373,-1.007472396,-0.0944677293,-0.229134142,0,1,15.15929985,0.0527894087,1593002363.08896
2020/06/24/21:39:23.189265,10292,1593002363,188970088,,,0,1593002368,-442.8510132,-930.2932739,28.57087708,81.69790649,-1.09519732,-0.0427871086,-0.268299907,0,1,17.54220009,0.0531124845,1593002363.18897
2020/06/24/21:39:23.289296,10293,1593002363,288959026,,,0,1593002368,-443.8962708,-932.1418457,28.63024902,78.01581573,-1.090751171,-0.0602319576,-0.285129517,0,1,23.47409821,0.053407982,1593002363.28896
2020/06/24/21:39:23.389282,10294,1593002363,388945579,,,0,1593002368,-445.2731323,-934.6708984,28.71408081,72.79747772,-0.974830151,-0.0795836747,-0.431041658,0,1,40.6106987,0.0537836477,1593002363.38895
2020/06/24/21:39:23.489305,10295,1593002363,488951444,,,0,1593002368,-445.7979736,-935.675354,28.74692917,70.77962494,-1.011328697,-0.0122583844,-0.378904879,0,1,44.36249924,0.0539241061,1593002363.48895
2020/06/24/21:39:23.589288,10296,1593002363,588951349,,,0,1593002368,-447.0307922,-938.1640015,28.82597733,65.68093872,-0.966013253,-0.041844178,-0.494870424,0,1,58.35569763,0.0542444885,1593002363.58895
2020/06/24/21:39:23.689291,10297,1593002363,688951969,,,0,1593002368,-447.4174194,-938.9943848,28.85094452,63.98844528,-0.917378783,0.00940881111,-0.45792082,0,1,61.29629898,0.0543446466,1593002363.68895
2020/06/24/21:39:23.789341,10298,1593002363,788988828,,,0,1593002368,-448.3962097,-941.2502441,28.91533279,59.26770782,-0.958616376,-0.0164962355,-0.469401002,0,1,53.89409637,0.0546024442,1593002363.78899
2020/06/24/21:39:23.889256,10299,1593002363,888948917,,,0,1593002368,-448.6328125,-941.8371582,28.93123054,57.91459274,-0.946185112,0.0292141847,-0.535926282,0,0.806939363,49.73669815,0.0546676964,1593002363.88895
2020/06/24/21:39:23.989306,10300,1593002363,988951921,,,0,1593002368,-449.3464661,-943.7539673,28.98408699,54.18122864,-0.517964721,0.0113154557,-0.629098058,0,0.271602035,54.19829941,0.0548623651,1593002363.98895
2020/06/24/21:39:24.089256,10301,1593002364,88944911,,,0,1593002368,-449.7852478,-945.1108398,29.01932144,53.08512115,-0.186768845,-0.0194823164,-0.688783467,0,0.0397135131,68.49569702,0.0549985208,1593002364.08894
2020/06/24/21:39:24.189276,10302,1593002364,188963651,,,0,1593002368,-450.1596375,-946.4661865,29.05103683,52.48443222,-0.169895723,-0.00583053613,-0.728307188,0,0.0174378846,80.86650085,0.0551336333,1593002364.18896
2020/06/24/21:39:24.289315,10303,1593002364,288960456,,,0,1593002368,-450.4931335,-947.9506226,29.08146667,51.94163513,-0.180208459,-0.0235953871,-0.756279111,0,0.000996413641,92.7303009,0.0552763976,1593002364.28896
2020/06/24/21:39:24.389302,10304,1593002364,388951778,,,0,1593002368,-450.7953186,-949.8165283,29.11260223,51.27549744,-0.158531696,-0.054369051,-0.774115384,0,0,106.2164993,0.0554480515,1593002364.38895
2020/06/24/21:39:24.489295,10305,1593002364,488957166,,,0,1593002368,-450.9281311,-951.1271362,29.12767601,50.78258514,-0.171731323,-0.0388829745,-0.788404703,0,0,112.6046982,0.0555692539,1593002364.48896
2020/06/24/21:39:24.589290,10306,1593002364,588954448,,,0,1593002368,-450.9919128,-952.4716187,29.13730812,50.21975327,-0.227040693,0.0109023899,-0.889777243,0,0,117.1676941,0.0556902811,1593002364.58895
2020/06/24/21:39:24.689269,10307,1593002364,688956975,,,0,1593002368,-450.9754639,-953.8014526,29.14482689,49.58799744,-0.239489689,0.0794102103,-0.961115181,0,0,122.8460922,0.0558095165,1593002364.68896
2020/06/24/21:39:24.789258,10308,1593002364,788948774,,,0,1593002368,-450.8565674,-955.2728882,29.15521049,48.92148972,-0.196318164,-0.0224444047,-0.965256155,0,0,130.4510956,0.0559402481,1593002364.78895
2020/06/24/21:39:24.889257,10309,1593002364,888951539,,,0,1593002368,-450.7876892,-955.7967529,29.15803909,48.68152237,-0.193054587,0.0211986303,-0.968150258,0,0,134.5070953,0.0559841134,1593002364.88895
2020/06/24/21:39:24.989290,10310,1593002364,988955020,,,0,1593002368,-450.4033508,-957.7264404,29.16621208,47.77546692,-0.198110342,-0.0523203239,-0.935811877,0,0,138.2588959,0.0561491214,1593002364.98896
2020/06/24/21:39:25.089274,10311,1593002365,88924169,,,0,1593002368,-450.0513916,-958.9411011,29.16559601,47.14706802,-0.246197641,0.00188976293,-0.958453476,0,0,137.346283,0.0562564619,1593002365.08892
2020/06/24/21:39:25.189256,10312,1593002365,188965320,,,0,1593002368,-449.6210327,-960.1126099,29.1630764,46.54105759,-0.242670029,-0.0172982961,-0.955268264,0,0,138.3602905,0.0563596077,1593002365.18897
2020/06/24/21:39:25.289294,10313,1593002365,288956642,,,0,1593002368,-448.9248352,-961.6107788,29.15641212,45.7507515,-0.185848355,-0.00437885895,-0.977564931,0,0,140.3882904,0.0565033518,1593002365.28896
2020/06/24/21:39:25.389296,10314,1593002365,388957500,,,0,1593002368,-448.3228455,-962.6618042,29.15040016,45.16210938,-0.213149577,-0.0123309381,-0.961472631,0,0,141.402298,0.0566059053,1593002365.38896
2020/06/24/21:39:25.489299,10315,1593002365,488947868,,,0,1593002368,-447.9761047,-963.1965942,29.14622879,44.85931396,-0.200765431,-0.0528239533,-0.950397968,0,0,142.3148956,0.0566525608,1593002365.48895
2020/06/24/21:39:25.589312,10316,1593002365,588961601,,,0,1593002368,-446.9733276,-964.5269775,29.13009262,44.086483,-0.141787201,0.018713396,-0.938926816,0,0,142.7204895,0.0568038709,1593002365.58896
2020/06/24/21:39:25.689263,10317,1593002365,688951015,,,0,1593002368,-446.0364685,-965.5516357,29.11302376,43.76475525,-0.0411730409,-0.0278452486,-0.960376024,0.615649998,0,142.213501,0.056925606,1593002365.68895
2020/06/24/21:39:25.789289,10318,1593002365,788952827,,,0,1593002368,-445.3455505,-966.204834,29.098423,44.07359695,0.174800098,0.0312783271,-0.952780604,1,0,142.3148956,0.0570046715,1593002365.78895
2020/06/24/21:39:25.889274,10319,1593002365,888940095,,,0,1593002368,-444.314209,-967.0537109,29.07857132,44.97454834,0.215099543,0.0132009918,-0.884451985,1,0,143.0246887,0.0571252704,1593002365.88894
2020/06/24/21:39:25.989257,10320,1593002365,988953113,,,0,1593002368,-443.5460815,-967.6062012,29.06544876,45.7829895,0.274678797,0.0763614923,-0.923626304,1,0,142.6190948,0.057210587,1593002365.98895
2020/06/24/21:39:26.089315,10321,1593002366,88962793,,,0,1593002368,-442.2984924,-968.3869019,29.04931259,47.10545731,0.31482181,0.0416803546,-0.836378455,0.954550028,0,143.8358917,0.0573444329,1593002366.08896
2020/06/24/21:39:26.189324,10322,1593002366,188968420,,,0,1593002368,-440.7419739,-969.199646,29.03433228,48.59011841,0.300844461,0.0110867275,-0.834935665,0.867300034,0,139.0700836,0.0575061738,1593002366.18897
2020/06/24/21:39:26.289308,10323,1593002366,288954734,,,0,1593002368,-439.5397949,-969.7265015,29.0246563,49.7351265,0.297201335,0.00543110818,-0.830442965,0.922299981,0,139.2728882,0.0576283224,1593002366.28895
