time,.header.seq,.header.stamp.secs,.header.stamp.nsecs,.header.frame_id,.identifier.data,.size.data,.TimeStamp.data,PosLocalX,PosLocalY,Height,GPS_Speed,AccelX,AccelY,AccelZ,PedalPosAcc,PedalPosBrk,AngleSteer,carPositionNormalized,TimeStamp
2020/06/24/22:54:04.142835,38809,1593006844,142443418,,,0,1593006848,168.9499817,-388.4255066,-84.54676056,68.19142914,0.397144079,0.00716849696,-0.219378158,1,0,19.11389923,0.00796886161,1593006844.14244
2020/06/24/22:54:04.152024,38810,1593006844,151723146,,,0,1593006848,168.7792511,-388.4309692,-84.54616547,68.32524872,0.429193467,0.0138054686,-0.215612218,1,0,18.70829964,0.00799953565,1593006844.15172
2020/06/24/22:54:04.243447,38811,1593006844,243143081,,,0,1593006848,167.228302,-388.4885559,-84.54026031,69.49851227,0.405238062,0.018307006,-0.214823112,1,0,17.79569817,0.00849651545,1593006844.24314
2020/06/24/22:54:04.343469,38812,1593006844,343146800,,,0,1593006848,165.7106323,-388.5588074,-84.53369141,70.62026978,0.413511336,0.0186596289,-0.22955896,1,0,17.54220009,0.0085784113,1593006844.34315
2020/06/24/22:54:04.443497,38813,1593006844,443167448,,,0,1593006848,163.9302216,-388.6583557,-84.5246048,71.90100098,0.404186726,-0.000560299493,-0.231371835,1,0,14.24669933,0.00898787659,1593006844.44317
2020/06/24/22:54:04.543520,38814,1593006844,543193578,,,0,1593006848,161.9364624,-388.7893372,-84.51329041,73.28059387,0.402349114,0.0197127163,-0.206871644,1,0,12.57359982,0.00939826854,1593006844.54319
2020/06/24/22:54:04.643530,38815,1593006844,643198728,,,0,1593006848,159.4095764,-388.9822693,-84.49629974,74.94277191,0.38089186,0.0138721718,-0.185970247,1,0,12.77639961,0.00991764944,1593006844.64320
2020/06/24/22:54:04.743500,38816,1593006844,743170499,,,0,1593006848,158.5971069,-389.0503235,-84.49039459,75.46076202,0.386754811,-0.000690990768,-0.185284808,1,0,13.0298996,0.0100845555,1593006844.74317
2020/06/24/22:54:04.843493,38817,1593006844,843186140,,,0,1593006848,155.6155853,-389.3240356,-84.46979523,77.3082962,0.362711877,-0.0226045139,-0.188568726,1,0,12.11729908,0.0106996391,1593006844.84319
2020/06/24/22:54:04.943479,38818,1593006844,943150520,,,0,1593006848,153.4815674,-389.5420837,-84.45688629,78.59424591,0.381040454,-0.00735561643,-0.19313246,1,0,9.582300186,0.0111354394,1593006844.94315
2020/06/24/22:54:05.043485,38819,1593006845,43178796,,,0,1593006848,151.2482452,-389.7880249,-84.44409943,79.89713287,0.390207738,0.000381396268,-0.153055251,1,0,8.365499496,0.0115964692,1593006845.04318
2020/06/24/22:54:05.143470,38820,1593006845,143164873,,,0,1593006848,149.4500732,-389.9978943,-84.43400574,80.91493988,0.341938257,-0.00683010463,-0.147947699,1,0,8.213399887,0.011966452,1593006845.14316
2020/06/24/22:54:05.243600,38821,1593006845,243241786,,,0,1593006848,146.2682037,-390.3926086,-84.41624451,82.73722839,0.365997076,-0.00236132275,-0.148555517,1,0,6.743099689,0.0126204118,1593006845.24324
2020/06/24/22:54:05.343495,38822,1593006845,343169689,,,0,1593006848,144.893692,-390.5713806,-84.40859222,83.48361206,0.351499438,0.0037454376,-0.144847542,1,0,5.931900024,0.0129062869,1593006845.34317
2020/06/24/22:54:05.443482,38823,1593006845,443154096,,,0,1593006848,141.8287506,-390.9851685,-84.39165497,85.09791565,0.333952695,-0.00190952932,-0.112500504,1,0,5.272799969,0.0135418018,1593006845.44315
2020/06/24/22:54:05.543513,38824,1593006845,543182373,,,0,1593006848,140.4172821,-391.1822205,-84.38402557,85.81550598,0.330318689,-0.0048726378,-0.100831121,1,0,5.069999695,0.0138307959,1593006845.54318
2020/06/24/22:54:05.643510,38825,1593006845,643172502,,,0,1593006848,137.3449249,-391.6234436,-84.36775208,87.28703308,0.274727881,-0.00201918371,-0.0829057395,1,0,3.599699974,0.0144665604,1593006845.64317
2020/06/24/22:54:05.743513,38826,1593006845,743173599,,,0,1593006848,134.9620056,-391.9755554,-84.3553772,87.61076355,-0.0317049026,-0.0159411225,-0.0713622123,1,0,2.484300137,0.0149589106,1593006845.74317
2020/06/24/22:54:05.843499,38827,1593006845,843169212,,,0,1593006848,132.5094757,-392.3451233,-84.34399414,87.47494507,-0.0253102537,-0.00849728845,-0.0517772138,1,0,1.977299929,0.0154663892,1593006845.84317
2020/06/24/22:54:05.943475,38828,1593006845,943146467,,,0,1593006848,130.556488,-392.6437073,-84.33543396,88.36347198,0.570681512,0.0225823149,-0.0397012308,1,0,1.622399926,0.0158737525,1593006845.94315
2020/06/24/22:54:06.043506,38829,1593006846,43181896,,,0,1593006848,127.8331528,-393.0654297,-84.3221283,89.97711182,0.299491346,0.0175780021,-0.064360559,1,0,2.889899731,0.0164361335,1593006846.04318
2020/06/24/22:54:06.143543,38830,1593006846,143182754,,,0,1593006848,124.8474121,-393.5352783,-84.30522919,91.28918457,0.33228153,0.0134853264,-0.065808937,1,0,3.447599888,0.0170550011,1593006846.14318
2020/06/24/22:54:06.243499,38831,1593006846,243158817,,,0,1593006848,123.5656128,-393.7394104,-84.29741669,91.85720825,0.335896015,0.00336971646,-0.062319912,1,0,3.80250001,0.0173202027,1593006846.24316
2020/06/24/22:54:06.343533,38832,1593006846,343178272,,,0,1593006848,119.751091,-394.3561707,-84.27362823,93.51556396,0.310844809,-0.0057893903,-0.065856494,1,0,4.106699944,0.0181131773,1593006846.34318
2020/06/24/22:54:06.443465,38833,1593006846,443131208,,,0,1593006848,118.1295624,-394.6229553,-84.26393127,94.19494629,0.294224054,-0.0297312792,-0.07575804,1,0,3.650399923,0.0184515417,1593006846.44313
2020/06/24/22:54:06.543527,38834,1593006846,543183803,,,0,1593006848,115.0097046,-395.144165,-84.24864197,95.50263214,0.281621933,0.0710788965,-0.0722825825,1,0,2.991299868,0.0190969333,1593006846.54318
2020/06/24/22:54:06.643491,38835,1593006846,643170833,,,0,1593006848,112.0880966,-395.6420898,-84.23603058,96.64871216,0.332178891,-0.021055961,-0.0532089025,1,0,2.33220005,0.0197055861,1593006846.64317
2020/06/24/22:54:06.743483,38836,1593006846,743165969,,,0,1593006848,110.9736252,-395.8342896,-84.23036194,97.10551453,0.256065309,0.134823665,-0.063367635,1,0,2.281499863,0.0199396778,1593006846.74317
2020/06/24/22:54:06.843489,38837,1593006846,843179702,,,0,1593006848,106.9542923,-396.5362244,-84.20417023,98.6649704,0.250334084,0.257686019,-0.0553118549,1,0,3.244799852,0.0207748897,1593006846.84318
2020/06/24/22:54:06.943454,38838,1593006846,943145751,,,0,1593006848,104.1871338,-397.0271912,-84.18313599,99.72181702,0.327290267,0.0858133808,-0.0946167782,1,0,3.903899908,0.0213513803,1593006846.94315
2020/06/24/22:54:07.043489,38839,1593006847,43176651,,,0,1593006848,101.391777,-397.530365,-84.16844177,100.7125702,0.218275025,0.0775313526,-0.0947948396,1,0,3.903899908,0.0219331421,1593006847.04318
2020/06/24/22:54:07.143490,38840,1593006847,143172025,,,0,1593006848,99.15265656,-397.939209,-84.1599884,101.5148697,0.27009359,0.0300731268,-0.0556021258,1,0,-0.405599982,0.0224022642,1593006847.14317
2020/06/24/22:54:07.243594,38841,1593006847,243238449,,,0,1593006848,95.46661377,-398.6185608,-84.14035034,102.8018265,0.232981578,-0.000834756065,-0.0258622505,1,0,0.861899972,0.0231706705,1593006847.24324
2020/06/24/22:54:07.343485,38842,1593006847,343176126,,,0,1593006848,92.67234802,-399.1362305,-84.11698914,103.7405701,0.270828366,-0.0733819753,0.00192932785,1,0,-1.825199962,0.0237524956,1593006847.34318
2020/06/24/22:54:07.443455,38843,1593006847,443145036,,,0,1593006848,89.76722717,-399.6736755,-84.08443451,104.7254562,0.260519117,-0.0798400789,0.0298247337,1,0,-0.709799945,0.0243624318,1593006847.44315
2020/06/24/22:54:07.543485,38844,1593006847,543173551,,,0,1593006848,88.56300354,-399.8959961,-84.07124329,105.1241913,0.258658826,-0.0883671865,0.0194862131,1,0,0.861899972,0.0246114563,1593006847.54317
2020/06/24/22:54:07.643484,38845,1593006847,643177747,,,0,1593006848,84.13778687,-400.7131653,-84.03349304,106.5565872,0.266034693,-0.0124774333,0.0293482337,1,0,-3.244799852,0.0255358983,1593006847.64318
2020/06/24/22:54:07.743474,38846,1593006847,743165016,,,0,1593006848,82.38600159,-401.0354309,-84.02051544,107.1067886,0.251466244,-0.000592443743,0.0563850887,1,0,-4.765799999,0.025903156,1593006847.74317
2020/06/24/22:54:07.843497,38847,1593006847,843178272,,,0,1593006848,78.14377594,-401.8080139,-83.98960876,108.4132309,0.248920113,-0.0142813921,0.0804446489,1,0,-4.360199451,0.0267860331,1593006847.84318
2020/06/24/22:54:07.943501,38848,1593006847,943137168,,,0,1593006848,76.98557281,-402.016449,-83.98144531,108.7638397,0.25306806,0.00120124512,0.0892563611,1,0,-4.461599827,0.0270276386,1593006847.94314
2020/06/24/22:54:08.043542,38849,1593006848,43176412,,,0,1593006848,73.03697205,-402.7164612,-83.9539032,109.9137039,0.237456217,-0.00160471827,0.136774853,1,0,-7.503600121,0.027854586,1593006848.04318
2020/06/24/22:54:08.143524,38850,1593006848,143160343,,,0,1593006848,69.9543457,-403.2480164,-83.93271637,110.8163071,0.238146573,0.00136219442,0.149815485,1,0,-7.300799847,0.0284952279,1593006848.14316
2020/06/24/22:54:08.243529,38851,1593006848,243165254,,,0,1593006848,67.39489746,-403.6771545,-83.91533661,111.5520172,0.240956038,0.000641140039,0.174666733,1,0,-6.084000111,0.0290276147,1593006848.24317
2020/06/24/22:54:08.343522,38852,1593006848,343159914,,,0,1593006848,63.98399353,-404.230896,-83.89251709,112.516777,0.247135207,-0.000407749438,0.148907483,1,0,-4.055999756,0.0297407378,1593006848.34316
2020/06/24/22:54:08.443502,38853,1593006848,443139076,,,0,1593006848,60.26023102,-404.8132935,-83.86764526,113.5510559,0.234798908,-0.00605083909,0.112632707,1,0,0.659099996,0.0305131562,1593006848.44314
2020/06/24/22:54:08.543527,38854,1593006848,543165683,,,0,1593006848,58.66648865,-405.0570984,-83.85706329,113.9916687,0.228622004,0.00855157804,0.0956366956,1,0,2.484300137,0.0308457259,1593006848.54317
2020/06/24/22:54:08.643529,38855,1593006848,643165588,,,0,1593006848,54.13212967,-405.7414551,-83.8272934,115.2209015,0.227602139,-0.0109701976,0.0274838693,1,0,1.368899941,0.0317892618,1593006848.64317
2020/06/24/22:54:08.743515,38856,1593006848,743151187,,,0,1593006848,51.55984497,-406.1268921,-83.81079865,115.9092636,0.228293598,-0.000871320372,0.0192120988,1,0,0.659099996,0.0323244445,1593006848.74315
2020/06/24/22:54:08.843532,38857,1593006848,843170166,,,0,1593006848,48.01016998,-406.6590271,-83.78833008,116.8444138,0.270028383,0.0105855642,-0.0264461972,1,0,1.166100025,0.0330619365,1593006848.84317
2020/06/24/22:54:08.943461,38858,1593006848,943139791,,,0,1593006848,44.04411697,-407.2564087,-83.76292419,117.8639374,0.226552919,0.00907577109,0.00265808776,1,0,-1.419599891,0.033887919,1593006848.94314
2020/06/24/22:54:09.043484,38859,1593006849,43157815,,,0,1593006848,42.38963318,-407.506134,-83.7520752,118.2851944,0.23834388,-0.00127681578,-0.00167829916,1,0,-0.912599981,0.0342303328,1593006849.04316
2020/06/24/22:54:09.143504,38860,1593006849,143182754,,,0,1593006848,37.39094925,-408.2601318,-83.72002411,119.5349274,0.234530091,-0.0284322444,0.00640216656,1,0,-0.608399987,0.0352734774,1593006849.14318
2020/06/24/22:54:09.243561,38861,1593006849,243182897,,,0,1593006848,34.02920151,-408.7653198,-83.70068359,120.3562088,0.218443587,-0.0103606721,0.0357931145,1,0,-1.419599891,0.0359710306,1593006849.24318
2020/06/24/22:54:09.343508,38862,1593006849,343144655,,,0,1593006848,31.94114494,-409.0773621,-83.68898773,120.857666,0.2245913,-0.00177702156,0.0210379586,1,0,-2.027999878,0.0364059992,1593006849.34314
2020/06/24/22:54:09.443484,38863,1593006849,443120956,,,0,1593006848,29.2434063,-409.4775696,-83.6738205,121.4970551,0.218704551,0.00918991957,0.0626828372,1,0,-2.129400015,0.0369665734,1593006849.44312
2020/06/24/22:54:09.543541,38864,1593006849,543173551,,,0,1593006848,24.10778427,-410.2290955,-83.64448547,122.6840057,0.205401078,-0.0023634925,0.0828693435,1,0,-2.433599949,0.0380328111,1593006849.54317
2020/06/24/22:54:09.643527,38865,1593006849,643166065,,,0,1593006848,20.96078491,-410.6817322,-83.62684631,123.3968658,0.224991456,0.00411145529,0.0887795091,1,0,-2.534999847,0.0386868455,1593006849.64317
2020/06/24/22:54:09.743520,38866,1593006849,743158102,,,0,1593006848,19.53332138,-410.8848877,-83.61895752,123.7111435,0.198087767,-0.01237984,0.0820863545,1,0,-2.534999847,0.0389856398,1593006849.74316
2020/06/24/22:54:09.843536,38867,1593006849,843175649,,,0,1593006848,14.71297359,-411.5601501,-83.59296417,124.7680588,0.210744455,-0.00798835419,0.0819941908,1,0,-2.839199781,0.0399835855,1593006849.84318
2020/06/24/22:54:09.943465,38868,1593006849,943143129,,,0,1593006848,11.40638351,-412.0131226,-83.57569122,125.4703903,0.135739893,0.0187352933,0.0951348245,1,0,-3.143399954,0.0406728461,1593006849.94314
2020/06/24/22:54:10.043492,38869,1593006850,43169260,,,0,1593006848,7.14580822,-412.5830994,-83.55156708,125.8911209,-0.0434386171,0.0146020669,0.094457902,1,0,-2.636399984,0.0415577069,1593006850.04317
2020/06/24/22:54:10.143499,38870,1593006850,143155574,,,0,1593006848,4.235229492,-412.9633179,-83.53424072,125.7259293,-0.0651746094,-0.00680494402,0.083733663,1,0,-1.92659986,0.0421611145,1593006850.14316
2020/06/24/22:54:10.243508,38871,1593006850,243161916,,,0,1593006848,1.323633432,-413.3366699,-83.51747131,126.1259003,0.430615216,0.00814091228,0.0976051986,1,0,-1.419599891,0.0427626334,1593006850.24316
2020/06/24/22:54:10.343521,38872,1593006850,343178033,,,0,1593006848,-2.660385132,-413.8372498,-83.4947052,127.181221,0.174847469,0.00312099117,0.0506793,1,0,2.180099726,0.0435888544,1593006850.34318
2020/06/24/22:54:10.443495,38873,1593006850,443131446,,,0,1593006848,-5.5070014,-414.190033,-83.47833252,127.7366867,0.204979911,0.00173503347,0.0266389493,1,0,4.309499741,0.044182241,1593006850.44313
2020/06/24/22:54:10.543524,38874,1593006850,543159008,,,0,1593006848,-8.791196823,-414.5960083,-83.45941162,128.4032898,0.216499493,-0.00179115951,-0.0123935118,1,0,2.484300137,0.0448608063,1593006850.54316
2020/06/24/22:54:10.643489,38875,1593006850,643167734,,,0,1593006848,-12.5196991,-415.0583496,-83.43952942,129.1680298,0.19785285,0.058935836,-0.0562977567,1,0,1.571699977,0.0456334203,1593006850.64317
2020/06/24/22:54:10.743503,38876,1593006850,743182659,,,0,1593006848,-17.5593586,-415.6914978,-83.41065216,130.1515656,0.187816158,0.0262023825,-0.0536785647,1,0,1.571699977,0.046679616,1593006850.74318
2020/06/24/22:54:10.843487,38877,1593006850,843165397,,,0,1593006848,-19.06765366,-415.8830261,-83.40083313,130.4355774,0.190976292,0.0116219874,-0.0613771491,1,0,0.861899972,0.0469935723,1593006850.84317
2020/06/24/22:54:10.943465,38878,1593006850,943143129,,,0,1593006848,-24.26422882,-416.5477905,-83.36837006,131.4459229,0.173402101,0.0987394303,-0.00708104484,1,0,-1.92659986,0.0480723567,1593006850.94314
2020/06/24/22:54:11.043490,38879,1593006851,43165445,,,0,1593006848,-27.64100647,-416.9813538,-83.34685516,132.0890961,0.238729313,-0.0613737442,0.022386644,1,0,-1.825199962,0.0487738624,1593006851.04317
2020/06/24/22:54:11.143481,38880,1593006851,143162250,,,0,1593006848,-31.03461647,-417.4155884,-83.32718658,132.724472,0.190703824,0.0309503227,0.0542676523,1,0,-1.622399926,0.0494788177,1593006851.14316
2020/06/24/22:54:11.243579,38881,1593006851,243236303,,,0,1593006848,-34.77587891,-417.8904419,-83.30636597,133.4261627,0.19206816,0.0123823434,0.0563392118,1,0,-0.202799991,0.0502552502,1593006851.24324
2020/06/24/22:54:11.343476,38882,1593006851,343161821,,,0,1593006848,-39.64723969,-418.5023499,-83.27921295,134.317276,0.186882436,-0.0513808541,0.0579742789,1,0,-0.202799991,0.0512644909,1593006851.34316
2020/06/24/22:54:11.443458,38883,1593006851,443150043,,,0,1593006848,-43.09943008,-418.9316711,-83.26232147,134.9463501,0.177622542,0.014311891,0.0552599654,1,0,-0.202799991,0.05197943,1593006851.44315
2020/06/24/22:54:11.543511,38884,1593006851,543154954,,,0,1593006848,-46.90443802,-419.4006653,-83.24266815,135.6165924,0.176317781,-0.0113917841,0.0366939567,1,0,-0.912599981,0.0527665503,1593006851.54316
2020/06/24/22:54:11.643531,38885,1593006851,643171310,,,0,1593006848,-50.84172058,-419.8807678,-83.21770477,136.2906342,0.193635628,0.0338503569,0.0520711243,1,0,-2.027999878,0.0535820723,1593006851.64317
2020/06/24/22:54:11.743517,38886,1593006851,743156433,,,0,1593006848,-53.55323791,-420.2075806,-83.19411469,136.7647858,0.170213655,0.0257955901,0.0647033453,1,0,-2.534999847,0.0541450195,1593006851.74316
2020/06/24/22:54:11.843509,38887,1593006851,843153953,,,0,1593006848,-57.41083145,-420.6672058,-83.15744019,137.4361877,0.192189679,0.031200327,0.0456888527,1,0,-2.534999847,0.0549426749,1593006851.84315
2020/06/24/22:54:11.943490,38888,1593006851,943135976,,,0,1593006848,-60.60204697,-421.0424194,-83.1295929,137.9530945,0.19939132,-0.0431883708,0.0840960443,1,0,-2.636399984,0.0556045584,1593006851.94314
2020/06/24/22:54:12.043499,38889,1593006852,43139696,,,0,1593006848,-65.75853729,-421.6355286,-83.0917511,138.8221893,0.148010895,0.121269174,0.13168928,1,0,-4.25880003,0.0566717722,1593006852.04314
2020/06/24/22:54:12.143509,38890,1593006852,143152952,,,0,1593006848,-68.17651367,-421.9065552,-83.07514954,139.2167511,0.168885812,0.136136457,0.14139837,1,0,-4.968600273,0.0571720228,1593006852.14315
2020/06/24/22:54:12.243516,38891,1593006852,243159294,,,0,1593006848,-73.15063477,-422.4461365,-83.03575134,139.9933167,0.177284449,0.0140849464,0.170347735,1,0,-4.765799999,0.0582007468,1593006852.24316
2020/06/24/22:54:12.343499,38892,1593006852,343142747,,,0,1593006848,-75.94033051,-422.7373352,-83.0111618,140.43573,0.194914237,-0.0502386093,0.162732273,1,0,-5.678399563,0.058777608,1593006852.34314
2020/06/24/22:54:12.443473,38893,1593006852,443116188,,,0,1593006848,-80.37700653,-423.1809082,-82.97288513,141.1246338,0.163027525,-0.0387426093,0.217997715,1,0,-7.402199745,0.0596945845,1593006852.44312
2020/06/24/22:54:12.543535,38894,1593006852,543164491,,,0,1593006848,-85.19103241,-423.6313782,-82.93703461,141.8452301,0.165793672,-0.0727891251,0.224748313,1,0,-7.503600121,0.0606883764,1593006852.54316
2020/06/24/22:54:12.643498,38895,1593006852,643164634,,,0,1593006848,-88.84952545,-423.9485474,-82.91062927,142.3978119,0.154705524,0.0159139987,0.307650656,1,0,-7.199399948,0.0614449419,1593006852.64316
2020/06/24/22:54:12.743468,38896,1593006852,743154525,,,0,1593006848,-92.88014984,-424.2702332,-82.87953186,142.9877319,0.180825233,0.0393206403,0.320101708,1,0,-8.314800262,0.062275283,1593006852.74315
2020/06/24/22:54:12.843520,38897,1593006852,843157052,,,0,1593006848,-96.45223236,-424.5299683,-82.85270691,143.4993896,0.194345847,0.00166118611,0.340592057,1,0,-9.328800201,0.0630116686,1593006852.84316
2020/06/24/22:54:12.943529,38898,1593006852,943161249,,,0,1593006848,-98.96128845,-424.6974487,-82.83517456,143.8479309,0.159678593,0.00175554538,0.333927631,1,0,-8.213399887,0.0635289699,1593006852.94316
2020/06/24/22:54:13.043505,38899,1593006853,43164014,,,0,1593006848,-103.8799057,-424.9894714,-82.80010986,144.5320587,0.153035343,-0.0201896634,0.284776658,1,0,-4.055999756,0.0645417646,1593006853.04316
2020/06/24/22:54:13.143477,38900,1593006853,143150568,,,0,1593006848,-107.6160049,-425.1815186,-82.77324677,145.0497589,0.154420301,-0.0512927957,0.273830235,1,0,-5.171399593,0.0653106868,1593006853.14315
2020/06/24/22:54:13.243520,38901,1593006853,243163347,,,0,1593006848,-112.7010651,-425.4038086,-82.73949432,145.7605896,0.158162162,0.0870836377,0.271403402,1,0,-5.272799969,0.0663570911,1593006853.24316
2020/06/24/22:54:13.343461,38902,1593006853,343129873,,,0,1593006848,-117.3241196,-425.5698853,-82.70536804,146.3761749,0.141637862,0.0263743363,0.24708131,1,0,-5.069999695,0.067308329,1593006853.34313
2020/06/24/22:54:13.443413,38903,1593006853,443122625,,,0,1593006848,-120.7439499,-425.6729736,-82.68003845,146.8471375,0.181286439,-0.0708186254,0.239132345,1,0,-5.881199837,0.0680118799,1593006853.44312
2020/06/24/22:54:13.543444,38904,1593006853,543133974,,,0,1593006848,-124.0524597,-425.7573242,-82.66028595,147.2922668,0.161856234,-0.0303705726,0.229711682,1,0,-6.185400009,0.0686926097,1593006853.54313
2020/06/24/22:54:13.643451,38905,1593006853,643137454,,,0,1593006848,-128.2334137,-425.8424377,-82.63725281,147.8506622,0.142751917,0.00271427678,0.21037288,1,0,-5.171399593,0.0695523471,1593006853.64314
2020/06/24/22:54:13.743453,38906,1593006853,743146181,,,0,1593006848,-132.9253845,-425.9103394,-82.61181641,148.4748077,0.175838768,-0.050194215,0.229690045,1,0,-5.069999695,0.070517242,1593006853.74315
2020/06/24/22:54:13.843421,38907,1593006853,843130111,,,0,1593006848,-136.7678833,-425.944519,-82.59279633,148.9727173,0.147100404,0.0507326387,0.223993704,1,0,-4.867199898,0.0713074282,1593006853.84313
2020/06/24/22:54:13.943436,38908,1593006853,943145275,,,0,1593006848,-141.4955292,-425.9586792,-82.56446075,149.5781403,0.13645114,0.014277502,0.245713696,1,0,-6.084000111,0.0722792298,1593006853.94315
2020/06/24/22:54:14.043531,38909,1593006854,43178796,,,0,1593006848,-143.242157,-425.9561462,-82.55330658,149.8027954,0.147373706,0.0133800562,0.258672923,1,0,-7.706399441,0.0726385191,1593006854.04318
2020/06/24/22:54:14.143448,38910,1593006854,143154144,,,0,1593006848,-149.7519073,-425.9089966,-82.51875305,150.6190796,0.148716643,-0.233600751,0.258403718,1,0,-9.63299942,0.0739765093,1593006854.14315
2020/06/24/22:54:14.243448,38911,1593006854,243141889,,,0,1593006848,-153.1460419,-425.8600769,-82.51558685,151.0676117,0.158002555,-0.0420300215,0.325878829,1,0,-9.328800201,0.0746744424,1593006854.24314
2020/06/24/22:54:14.343446,38912,1593006854,343141317,,,0,1593006848,-157.6858673,-425.762146,-82.51198578,151.6152802,0.15648444,0.120268852,0.291230321,1,0,-0.811199963,0.0756088123,1593006854.34314
2020/06/24/22:54:14.443475,38913,1593006854,443143129,,,0,1593006848,-161.2278442,-425.662384,-82.50095367,152.0521545,0.158533573,0.0927488729,0.281791896,1,0,-3.143399954,0.0763378069,1593006854.44314
2020/06/24/22:54:14.543471,38914,1593006854,543156385,,,0,1593006848,-165.1603088,-425.5287781,-82.48149872,152.5311584,0.152953774,0.0348201245,0.255044162,1,0,-5.982599735,0.077146776,1593006854.54316
2020/06/24/22:54:14.643471,38915,1593006854,643151760,,,0,1593006848,-171.5270996,-425.2662048,-82.44585419,153.3001099,0.150702447,-0.128815711,0.211571991,1,0,-4.461599827,0.0784570351,1593006854.64315
2020/06/24/22:54:14.743453,38916,1593006854,743138313,,,0,1593006848,-174.7219696,-425.1165466,-82.4342041,153.6993256,0.143910557,-0.0769045427,0.220381916,1,0,-5.475599766,0.0791145116,1593006854.74314
2020/06/24/22:54:14.843455,38917,1593006854,843141794,,,0,1593006848,-179.3360748,-424.8801575,-82.42485046,154.2643433,0.160318986,-0.0021267666,0.196513772,1,0,-4.461599827,0.0800645128,1593006854.84314
2020/06/24/22:54:14.943458,38918,1593006854,943139076,,,0,1593006848,-182.9355774,-424.6790771,-82.41763306,154.6985931,0.138713777,-0.00985414255,0.192175165,1,0,-4.562999725,0.0808054134,1593006854.94314
2020/06/24/22:54:15.043463,38919,1593006855,43144702,,,0,1593006848,-187.1897583,-424.4223328,-82.40863037,155.2136993,0.176699132,-0.000684550498,0.225033969,1,0,-4.664400101,0.0816817731,1593006855.04314
2020/06/24/22:54:15.143469,38920,1593006855,143138647,,,0,1593006848,-191.8451233,-424.1171875,-82.39846039,155.7654877,0.133705765,0.0134677701,0.220588192,1,0,-4.664400101,0.0826402754,1593006855.14314
2020/06/24/22:54:15.243566,38921,1593006855,243217229,,,0,1593006848,-196.5152588,-423.7857666,-82.38873291,156.315033,0.150213569,-0.0117477179,0.212573588,1,0,-4.562999725,0.0836020559,1593006855.24322
2020/06/24/22:54:15.343445,38922,1593006855,343143463,,,0,1593006848,-200.2879334,-423.4997253,-82.38195038,156.7562103,0.12485715,-0.0204660706,0.211777613,1,0,-4.25880003,0.0843802541,1593006855.34314
2020/06/24/22:54:15.443466,38923,1593006855,443132162,,,0,1593006848,-205.8992157,-423.0447388,-82.37477875,157.4140625,0.15084514,-0.0117361611,0.20875217,1,0,-4.157400131,0.0855371878,1593006855.44313
2020/06/24/22:54:15.543468,38924,1593006855,543131828,,,0,1593006848,-209.6950989,-422.7172241,-82.37193298,157.855545,0.14144659,-0.00572607061,0.214261442,1,0,-4.360199451,0.0863196403,1593006855.54313
2020/06/24/22:54:15.643461,38925,1593006855,643126487,,,0,1593006848,-213.5001831,-422.3732605,-82.3702774,158.294693,0.149199843,0.0388142653,0.219903022,1,0,-4.25880003,0.0871068016,1593006855.64313
2020/06/24/22:54:15.743488,38926,1593006855,743155241,,,0,1593006848,-219.2906952,-421.8198853,-82.36826324,158.9504395,0.141279638,0.0161683466,0.205762863,1,0,-4.25880003,0.0883006528,1593006855.74316
2020/06/24/22:54:15.843457,38927,1593006855,843120813,,,0,1593006848,-222.193634,-421.5286865,-82.36698151,159.2795715,0.138414294,0.019722119,0.210440531,1,0,-4.360199451,0.0889005661,1593006855.84312
2020/06/24/22:54:15.943478,38928,1593006855,943145751,,,0,1593006848,-226.0279846,-421.1302795,-82.3655777,159.7107086,0.156646565,-0.00356463669,0.202510342,1,0,-4.360199451,0.0896943137,1593006855.94315
2020/06/24/22:54:16.043473,38929,1593006856,43138504,,,0,1593006848,-231.8621063,-420.4938049,-82.36371613,160.3605347,0.129867315,0.0395007841,0.208367139,1,0,-4.360199451,0.0908994898,1593006856.04314
2020/06/24/22:54:16.143459,38930,1593006856,143124580,,,0,1593006848,-235.8510742,-420.0376892,-82.36093903,160.7949982,0.137559325,-0.00139330409,0.214331016,1,0,-4.461599827,0.0917251036,1593006856.14312
2020/06/24/22:54:16.243476,38931,1593006856,243141651,,,0,1593006848,-239.7155762,-419.5799255,-82.35827637,161.2227936,0.142223537,0.0166701432,0.231517598,1,0,-4.765799999,0.0925249532,1593006856.24314
2020/06/24/22:54:16.343466,38932,1593006856,343135118,,,0,1593006848,-244.2567902,-419.0216675,-82.35560608,161.7094727,0.150821194,-0.00505112251,0.199376494,1,0,-4.664400101,0.093465291,1593006856.34314
2020/06/24/22:54:16.443461,38933,1593006856,443125963,,,0,1593006848,-248.138916,-418.5269775,-82.35418701,162.1242218,0.140522063,-0.00603822572,0.217407897,1,0,-4.461599827,0.0942687094,1593006856.44313
2020/06/24/22:54:16.543466,38934,1593006856,543131113,,,0,1593006848,-252.1631622,-417.9971924,-82.3531723,162.5543976,0.132855162,0.0193826985,0.232331753,1,0,-4.157400131,0.0951032341,1593006856.54313
2020/06/24/22:54:16.643464,38935,1593006856,643129110,,,0,1593006848,-257.1377258,-417.3182678,-82.35256958,163.0724335,0.154717311,-0.0541553497,0.210904673,1,0,-4.157400131,0.0961362794,1593006856.64313
2020/06/24/22:54:16.743458,38936,1593006856,743142366,,,0,1593006848,-263.7444153,-416.3754883,-82.35388184,163.7595367,0.163682237,-0.016886007,0.225215301,1,0,-3.75180006,0.0975072086,1593006856.74314
2020/06/24/22:54:16.843452,38937,1593006856,843142747,,,0,1593006848,-266.7175293,-415.9361877,-82.35424042,164.0584717,0.110745102,-0.00271519739,0.200780675,1,0,-3.244799852,0.0981256738,1593006856.84314
2020/06/24/22:54:16.943455,38938,1593006856,943150043,,,0,1593006848,-271.862854,-415.1551209,-82.35456848,164.5869293,0.120343998,0.0186254904,0.185828686,1,0,-2.737799883,0.0991948023,1593006856.94315
2020/06/24/22:54:17.043478,38939,1593006857,43167114,,,0,1593006848,-274.4402771,-414.7546387,-82.35451508,164.8427887,0.130648673,-0.021613678,0.170576036,1,0,-2.839199781,0.0997310057,1593006857.04317
2020/06/24/22:54:17.143457,38940,1593006857,143154621,,,0,1593006848,-280.6936035,-413.7592468,-82.35575867,165.4766693,0.106164418,0.00599416345,0.175731838,1,0,-2.636399984,0.101032794,1593006857.14315
2020/06/24/22:54:17.243578,38941,1593006857,243232488,,,0,1593006848,-284.3728027,-413.1590576,-82.35660553,165.8448181,0.144354358,0.0110047441,0.151776567,1,0,-2.230799913,0.101798587,1593006857.24323
2020/06/24/22:54:17.343433,38942,1593006857,343140840,,,0,1593006848,-290.3827209,-412.1583557,-82.36022949,166.4443512,0.0865363181,-0.00639559608,0.134808466,1,0,-2.129400015,0.103051506,1593006857.34314
2020/06/24/22:54:17.443436,38943,1593006857,443112134,,,0,1593006848,-294.2165527,-411.5078735,-82.36445618,166.8221436,0.143179744,-0.000462548225,0.119234748,1,0,-1.825199962,0.103850164,1593006857.44311
2020/06/24/22:54:17.543437,38944,1593006857,543118953,,,0,1593006848,-299.1564026,-410.6574402,-82.36949921,167.3025818,0.125214279,0.00812133495,0.0899571031,1,0,1.064700007,0.1048804,1593006857.54312
2020/06/24/22:54:17.643452,38945,1593006857,643128871,,,0,1593006848,-301.7685547,-410.2035217,-82.37171173,167.5593719,0.141716555,-0.0304018483,0.0333048962,1,0,2.889899731,0.105426326,1593006857.64313
2020/06/24/22:54:17.743442,38946,1593006857,743130445,,,0,1593006848,-309.0752563,-408.9283142,-82.37875366,168.2631073,0.106968872,0.0368906856,-0.0281023066,1,0,1.368899941,0.10694997,1593006857.74313
2020/06/24/22:54:17.843444,38947,1593006857,843123674,,,0,1593006848,-312.8092041,-408.2768555,-82.3802948,168.6139679,0.103214167,-0.0113369189,-0.0243467446,1,0,-1.115399957,0.107730716,1593006857.84312
2020/06/24/22:54:17.943429,38948,1593006857,943117141,,,0,1593006848,-316.9673767,-407.5526733,-82.37966156,169.0032654,0.102959178,0.01770005,-0.0406778976,1,0,-1.216799974,0.108597912,1593006857.94312
2020/06/24/22:54:18.043568,38949,1593006858,43176889,,,0,1593006848,-321.6918335,-406.7319031,-82.37728882,169.4437561,0.140624285,-0.00823100749,-0.00259288214,1,0,-1.723799944,0.109585658,1593006858.04318
2020/06/24/22:54:18.143445,38950,1593006858,143132448,,,0,1593006848,-325.8706665,-406.0063171,-82.37571716,169.8225555,0.11063762,-0.00959499553,0.0368943997,1,0,-1.115399957,0.110458024,1593006858.14313
2020/06/24/22:54:18.243436,38951,1593006858,243120908,,,0,1593006848,-330.6178589,-405.1809692,-82.37567902,170.2563019,0.127482072,-0.0121367648,0.0407551453,1,0,-1.216799974,0.111447729,1593006858.24312
2020/06/24/22:54:18.343422,38952,1593006858,343116521,,,0,1593006848,-334.81604,-404.4483337,-82.37674713,170.6312561,0.130616173,-0.0435135812,0.0325371549,1,0,-1.419599891,0.112326853,1593006858.34312
2020/06/24/22:54:18.443434,38953,1593006858,443118572,,,0,1593006848,-339.5843811,-403.6112976,-82.38246155,171.0627441,0.107019566,-0.00772532914,0.0651212409,1,0,-1.013999939,0.113324031,1593006858.44312
2020/06/24/22:54:18.543396,38954,1593006858,543130874,,,0,1593006848,-345.9118652,-402.4902954,-82.39360809,171.6229553,0.129044443,-0.022671923,0.0666300133,1,0,-1.115399957,0.114644028,1593006858.54313
2020/06/24/22:54:18.643370,38955,1593006858,643107652,,,0,1593006848,-350.7047729,-401.6320801,-82.40365601,172.0372467,0.0891384482,0.138023719,0.0875457376,1,0,-1.318199992,0.115644738,1593006858.64311
2020/06/24/22:54:18.743407,38956,1593006858,743118047,,,0,1593006848,-354.9419556,-400.8665161,-82.4041748,172.3902283,0.104165114,0.0514895581,0.0427535176,1,0,-1.419599891,0.116532058,1593006858.74312
2020/06/24/22:54:18.843420,38957,1593006858,843120574,,,0,1593006848,-359.753418,-399.9901123,-82.39737701,172.7930908,0.116275102,-0.0138769979,0.0799427778,1,0,-1.419599891,0.117537424,1593006858.84312
2020/06/24/22:54:18.943402,38958,1593006858,943113565,,,0,1593006848,-364.5747681,-399.1045227,-82.38792419,173.1901093,0.114912555,-0.0289483108,0.0742657259,1,0,-1.419599891,0.118548594,1593006858.94311
2020/06/24/22:54:19.043459,38959,1593006859,43133974,,,0,1593006848,-366.704895,-398.7108765,-82.38388824,173.3681183,0.112338379,-0.0257117581,0.0770660192,1,0,-1.622399926,0.118994698,1593006859.04313
2020/06/24/22:54:19.143422,38960,1593006859,143131494,,,0,1593006848,-374.2459412,-397.3035584,-82.37586212,173.9467773,0.0873787403,0.0557644181,0.132929191,0.845550001,0,-3.244799852,0.120574489,1593006859.14313
2020/06/24/22:54:19.243577,38961,1593006859,243242740,,,0,1593006848,-376.3833008,-396.8997498,-82.37335205,174.0553284,0.0507573336,0.0308703575,0.129101366,0.853649974,0,-2.839199781,0.12101946,1593006859.24324
2020/06/24/22:54:19.343426,38962,1593006859,343135595,,,0,1593006848,-383.800415,-395.4803772,-82.36549377,174.434906,0.064745158,-0.0423607863,0.139756352,0.774950027,0,-2.839199781,0.122576281,1593006859.34314
2020/06/24/22:54:19.443408,38963,1593006859,443117856,,,0,1593006848,-387.6549683,-394.7305908,-82.36382294,174.5979614,0.063377738,-0.00206207437,0.148543864,0.794499993,0,-3.346199989,0.123383202,1593006859.44312
2020/06/24/22:54:19.543419,38964,1593006859,543127059,,,0,1593006848,-393.5104065,-393.5724182,-82.3628006,174.7521667,0.0136192851,0.0292676315,0.19688724,0.477050006,0,-6.489599705,0.124611616,1593006859.54313
2020/06/24/22:54:19.643398,38965,1593006859,643110036,,,0,1593006848,-395.6515503,-393.1417236,-82.36196136,174.6902618,-0.0867845714,0.0256557632,0.225072056,0,0,-8.416199684,0.12506175,1593006859.64311
2020/06/24/22:54:19.743467,38966,1593006859,743124485,,,0,1593006848,-401.0607605,-392.0310669,-82.35903168,174.0897522,-0.161771029,-0.00651570549,0.29729712,0,0.00296132057,-10.95119953,0.126200303,1593006859.74312
2020/06/24/22:54:19.843432,38967,1593006859,843130826,,,0,1593006848,-407.844635,-390.5803223,-82.35740662,172.5592346,-0.480664134,0.00412228843,0.388590187,0,0.347473264,-9.328800201,0.127627358,1593006859.84313
2020/06/24/22:54:19.943424,38968,1593006859,943126201,,,0,1593006848,-409.9443054,-390.1160278,-82.35762024,171.6394043,-0.66576606,-0.0651315376,0.400350332,0,0.51445055,-6.895199776,0.128068104,1593006859.94313
2020/06/24/22:54:20.043435,38969,1593006860,43133497,,,0,1593006848,-416.6799927,-388.5802307,-82.36144257,166.6737061,-1.088178635,-0.0609120205,0.323598444,0,1,-6.388199806,0.129492283,1593006860.04313
2020/06/24/22:54:20.143453,38970,1593006860,143115520,,,0,1593006848,-420.6886902,-387.6351624,-82.36472321,163.1832428,-1.081287026,-0.020644661,0.399100214,0,1,-13.08059978,0.130346254,1593006860.14312
2020/06/24/22:54:20.243463,38971,1593006860,243110179,,,0,1593006848,-424.6049194,-386.6828613,-82.36528778,159.5856018,-1.063047171,0.0466883294,0.458076984,0,1,-8.111999512,0.131182715,1593006860.24311
2020/06/24/22:54:20.343469,38972,1593006860,343119621,,,0,1593006848,-429.8074646,-385.3667603,-82.35753632,154.9170685,-1.033717275,-0.0815426931,0.304931372,0,1,19.31669998,0.132303759,1593006860.34312
2020/06/24/22:54:20.443472,38973,1593006860,443118333,,,0,1593006848,-431.6694946,-384.8841248,-82.35464478,153.1834717,-1.097353101,-0.0608055592,0.325558573,0,1,20.27999878,0.132703751,1593006860.44312
2020/06/24/22:54:20.543424,38974,1593006860,543124675,,,0,1593006848,-437.1231384,-383.4378357,-82.34884644,148.1029816,-1.036414981,-0.0999176502,0.399544597,0,1,3.092700005,0.133887485,1593006860.54312
2020/06/24/22:54:20.643406,38975,1593006860,643113374,,,0,1593006848,-440.3002014,-382.5683899,-82.34806824,145.0184631,-1.131875753,-0.0158727225,0.432686567,0,1,-7.807799816,0.134570912,1593006860.64311
2020/06/24/22:54:20.743408,38976,1593006860,743120908,,,0,1593006848,-445.0982361,-381.2091675,-82.34570313,140.2828674,-1.042918682,-0.0818446353,0.31623587,0,1,-13.08059978,0.13560532,1593006860.74312
2020/06/24/22:54:20.843420,38977,1593006860,843127250,,,0,1593006848,-448.5279541,-380.2051086,-82.34398651,136.7578278,-1.005389214,-0.0622511096,0.306855619,0,1,-24.74160004,0.136339396,1593006860.84313
2020/06/24/22:54:20.943415,38978,1593006860,943124294,,,0,1593006848,-451.863678,-379.2008667,-82.34288788,133.3086548,-1.003415704,-0.110132389,0.328382373,0,1,-27.78359985,0.137052223,1593006860.94312
2020/06/24/22:54:21.043480,38979,1593006861,43137788,,,0,1593006848,-455.4143372,-378.1009827,-82.34305573,129.3855438,-1.137983918,-0.0431767292,0.295418441,0,1,-23.82899857,0.137803331,1593006861.04314
2020/06/24/22:54:21.143449,38980,1593006861,143117666,,,0,1593006848,-459.7366333,-376.7156677,-82.33800507,124.4528198,-1.028570533,-0.109140933,0.326727986,0,1,-33.86759949,0.138705358,1593006861.14312
2020/06/24/22:54:21.243590,38981,1593006861,243230581,,,0,1593006848,-462.3601379,-375.8447571,-82.33656311,121.6132355,-1.01246047,-0.0950214341,0.447736114,0,1,-51.40979767,0.139244303,1593006861.24323
2020/06/24/22:54:21.343441,38982,1593006861,343132734,,,0,1593006848,-464.9141846,-374.9651489,-82.33502197,118.9723206,-0.994369984,-0.183131978,0.638255596,0,1,-57.59519959,0.139762387,1593006861.34313
2020/06/24/22:54:21.443456,38983,1593006861,443149089,,,0,1593006848,-467.7644959,-373.9394531,-82.33372498,116.0284042,-0.790745676,-0.123453699,0.632702947,0,1,-48.26639557,0.140334472,1593006861.44315
2020/06/24/22:54:21.543459,38984,1593006861,543160676,,,0,1593006848,-471.2287598,-372.6233521,-82.33274841,112.2231827,-0.850072384,-0.0118556442,0.70418328,0,1,-44.21039963,0.141016036,1593006861.54316
2020/06/24/22:54:21.643463,38985,1593006861,643168687,,,0,1593006848,-475.0405884,-371.0673523,-82.31947327,107.70504,-0.886032403,0.0674546435,0.737319708,0,1,-50.69999695,0.141746223,1593006861.64317
2020/06/24/22:54:21.743451,38986,1593006861,743147373,,,0,1593006848,-476.5902405,-370.3961792,-82.30886841,105.9053268,-0.811783075,-0.00312666129,0.752314568,0,1,-52.52519608,0.142040864,1593006861.74315
2020/06/24/22:54:21.843455,38987,1593006861,843150138,,,0,1593006848,-478.9696655,-369.3196106,-82.29087067,103.3221207,-0.766867518,-0.0960865244,0.682908297,0,0.721233547,-59.82600021,0.142494485,1593006861.84315
2020/06/24/22:54:21.943472,38988,1593006861,943167924,,,0,1593006848,-481.4976501,-368.1113892,-82.27611542,100.7567215,-0.615079343,-0.120501526,0.728804588,0,0.441644877,-74.73179626,0.142968684,1593006861.94317
2020/06/24/22:54:22.043500,38989,1593006862,43179512,,,0,1593006848,-485.1104431,-366.2536621,-82.2715683,98.67240906,-0.280592084,-0.302203655,0.533020496,0,0.0618920512,-79.19339752,0.143626422,1593006862.04318
2020/06/24/22:54:22.143443,38990,1593006862,143135070,,,0,1593006848,-487.1942444,-365.1169128,-82.28218079,97.83785248,-0.237827957,0.168080077,0.70388329,0,0.0415282398,-81.42419434,0.144007429,1593006862.14314
2020/06/24/22:54:22.243474,38991,1593006862,243165254,,,0,1593006848,-488.7459717,-364.2331848,-82.28507233,96.98860168,-0.463753939,0.032948792,0.828071177,0,0.00891173817,-81.77909088,0.144292042,1593006862.24317
2020/06/24/22:54:22.343463,38992,1593006862,343155860,,,0,1593006848,-491.9935913,-362.2443237,-82.24738312,93.38353729,-0.86369288,0.0591619909,0.7127105,0,0.00213602511,-79.39620209,0.14490293,1593006862.34316
2020/06/24/22:54:22.443429,38993,1593006862,443127393,,,0,1593006848,-493.6587219,-361.150116,-82.22161865,90.86750793,-0.830240488,-0.425056398,0.590145946,0,0.000747051381,-87.00119781,0.145211786,1593006862.44313
2020/06/24/22:54:22.543465,38994,1593006862,543162584,,,0,1593006848,-495.6196899,-359.8028564,-82.21960449,87.82124329,-0.870556474,-0.0625225529,0.865908027,0,0,-90.6516037,0.145565063,1593006862.54316
2020/06/24/22:54:22.643416,38995,1593006862,643128633,,,0,1593006848,-498.2384644,-357.8415833,-82.20883942,83.28783417,-0.814129233,0.167625472,0.901052475,0,0,-82.69169617,0.146057189,1593006862.64313
2020/06/24/22:54:22.743463,38996,1593006862,743149757,,,0,1593006848,-499.7204895,-356.6340942,-82.18478394,80.89372253,-0.767035365,-0.221725494,0.637583554,0,0,-87.71099854,0.146339759,1593006862.74315
2020/06/24/22:54:22.843486,38997,1593006862,843174934,,,0,1593006848,-501.4300842,-355.1711731,-82.17734528,78.19792938,-0.743503451,-0.385410041,0.580232143,0,0,-96.33000183,0.14668192,1593006862.84317
2020/06/24/22:54:22.943485,38998,1593006862,943185329,,,0,1593006848,-503.0396423,-353.7138062,-82.19777679,75.31710815,-0.824844241,0.205524504,0.86008203,0,0,-92.42610168,0.147005945,1593006862.94319
2020/06/24/22:54:23.043470,38999,1593006863,43131828,,,0,1593006848,-503.9762573,-352.8114929,-82.20225525,73.5954361,-0.733732522,0.320358008,0.828742683,0,0,-82.74239349,0.14720884,1593006863.04313
2020/06/24/22:54:23.143454,39000,1593006863,143152713,,,0,1593006848,-505.1595764,-351.6048889,-82.19048309,71.52765656,-0.66833061,0.0732307285,0.690469265,0,0,-74.27549744,0.14746955,1593006863.14315
2020/06/24/22:54:23.243618,39001,1593006863,243263483,,,0,1593006848,-506.5083923,-350.1410828,-82.17359161,69.20346069,-0.627823532,-0.365330964,0.535884976,0,0,-81.06929779,0.147794873,1593006863.24326
2020/06/24/22:54:23.343457,39002,1593006863,343152284,,,0,1593006848,-508.2987671,-348.0506592,-82.20182037,65.76187897,-0.671199739,0.0260479376,0.826826572,0,0,-87.81240082,0.148248196,1593006863.34315
2020/06/24/22:54:23.443418,39003,1593006863,443112850,,,0,1593006848,-508.9684753,-347.2011108,-82.21752167,64.28636932,-0.667830884,0.241981328,0.900712609,0,0,-82.0326004,0.148445234,1593006863.44311
2020/06/24/22:54:23.543426,39004,1593006863,543126583,,,0,1593006848,-510.4458923,-345.1205444,-82.21694183,61.01745987,-0.549188972,0.0703677833,0.766305268,0,0,-70.47299957,0.148928702,1593006863.54313
2020/06/24/22:54:23.643402,39005,1593006863,643103837,,,0,1593006848,-510.8020935,-344.5700378,-82.21109772,60.2244339,-0.562649012,-0.0507787839,0.705724359,0,0,-73.21080017,0.149063423,1593006863.64310
2020/06/24/22:54:23.743413,39006,1593006863,743115425,,,0,1593006848,-512.0340576,-342.5141907,-82.21257782,57.37869644,-0.556602955,-0.334831834,0.583897471,0,0,-84.3647995,0.149538606,1593006863.74312
2020/06/24/22:54:23.843423,39007,1593006863,843116998,,,0,1593006848,-512.9358521,-340.8247986,-82.25546265,54.9130249,-0.585771978,0.0417099781,0.747040033,0,0,-77.01329803,0.149951607,1593006863.84312
2020/06/24/22:54:23.943479,39008,1593006863,943159103,,,0,1593006848,-513.3459473,-339.9698181,-82.27648926,53.6684761,-0.493792921,0.206932157,0.745178819,0,0,-64.08479309,0.150150701,1593006863.94316
2020/06/24/22:54:24.043505,39009,1593006864,43172121,,,0,1593006848,-513.9534912,-338.5593262,-82.29051209,51.88830185,-0.429358602,0.222790927,0.618305564,0.341049999,0,-42.3852005,0.150520697,1593006864.04317
2020/06/24/22:54:24.143458,39010,1593006864,143139600,,,0,1593006848,-514.382019,-337.443573,-82.28362274,50.7134819,-0.374589056,0.0970009342,0.500744164,0.6347,0,-33.15779877,0.150812596,1593006864.14314
2020/06/24/22:54:24.243492,39011,1593006864,243170499,,,0,1593006848,-514.8502197,-336.1044312,-82.26747131,49.58011627,-0.280605763,-0.096825026,0.268653452,0.926699996,0,-28.69619942,0.151162758,1593006864.24317
2020/06/24/22:54:24.343491,39012,1593006864,343173742,,,0,1593006848,-515.4259644,-334.3196411,-82.26402283,48.38439178,-0.278367311,-0.142722845,0.151950151,1,0,-19.0632,0.151666239,1593006864.34317
2020/06/24/22:54:24.443465,39013,1593006864,443147659,,,0,1593006848,-515.7890015,-333.1350708,-82.27513885,47.61980438,-0.236711204,-0.0131204901,0.107252605,1,0,-9.531599998,0.152011931,1593006864.44315
2020/06/24/22:54:24.543477,39014,1593006864,543155908,,,0,1593006848,-516.1037598,-332.0783691,-82.2854538,46.96673203,-0.232602969,0.0579124205,0.0993917286,1,0,-1.115399957,0.152332261,1593006864.54316
2020/06/24/22:54:24.643483,39015,1593006864,643165111,,,0,1593006848,-516.4523926,-330.8859558,-82.29008484,46.28722382,-0.198103055,0.124862842,0.0589275509,1,0,4.715099812,0.152678892,1593006864.64317
2020/06/24/22:54:24.743487,39016,1593006864,743164062,,,0,1593006848,-516.7834473,-329.7461243,-82.28372192,45.68264771,-0.159459531,0.0968665704,0.0202037543,1,0,6.337499619,0.152968928,1593006864.74316
2020/06/24/22:54:24.843472,39017,1593006864,843157052,,,0,1593006848,-517.1948242,-328.3328247,-82.26633453,44.97877121,-0.126545995,0.00536283664,-0.0478894524,1,0,2.991299868,0.153318435,1593006864.84316
2020/06/24/22:54:24.943460,39018,1593006864,943154335,,,0,1593006848,-517.5714722,-327.0476379,-82.2506485,44.3638649,-0.190753728,-0.101012386,-0.00288926065,1,0,0.912599981,0.15367189,1593006864.94315
2020/06/24/22:54:25.043487,39019,1593006865,43165445,,,0,1593006848,-517.8619995,-326.0602722,-82.24614716,43.90336227,-0.170291215,-0.151784435,-0.0209128726,1,0,1.774499893,0.153945208,1593006865.04317
2020/06/24/22:54:25.143465,39020,1593006865,143152475,,,0,1593006848,-518.2229004,-324.8410339,-82.25482178,43.3373909,-0.153799996,-0.127754256,-0.0135141257,1,0,0.304199994,0.15427947,1593006865.14315
2020/06/24/22:54:25.243632,39021,1593006865,243273019,,,0,1593006848,-518.4785156,-323.9805298,-82.26933289,42.89735031,-0.144616708,-0.0649864078,0.010112606,1,0,2.078700066,0.154530957,1593006865.24327
2020/06/24/22:54:25.343470,39022,1593006865,343167066,,,0,1593006848,-518.8712158,-322.6607971,-82.29676819,41.74643326,-0.456725657,0.0347108208,-0.00391902775,0.392350018,0,1.064700007,0.15489845,1593006865.34317
2020/06/24/22:54:25.443465,39023,1593006865,443176031,,,0,1593006848,-519.2886963,-321.2573242,-82.31858063,40.1022377,-0.372355998,0.112148784,-0.00635973364,0.707749963,0,1.368899941,0.155295849,1593006865.44318
2020/06/24/22:54:25.543457,39024,1593006865,543165445,,,0,1593006848,-519.5241089,-320.4667969,-82.32262421,39.19113541,-0.353441089,0.114388362,0.00574927777,0.99484998,0,0.912599981,0.155510589,1593006865.54317
2020/06/24/22:54:25.643442,39025,1593006865,643156290,,,0,1593006848,-519.8865967,-319.254364,-82.31622314,39.12815475,0.148411661,0.0965554491,-0.0319262855,1,0,3.194099903,0.155857161,1593006865.64316
2020/06/24/22:54:25.743450,39026,1593006865,743162155,,,0,1593006848,-520.1224365,-318.4697876,-82.30523682,39.44944763,0.0579216965,0.0568541735,-0.0151218325,1,0,8.162699699,0.156083733,1593006865.74316
2020/06/24/22:54:25.843451,39027,1593006865,843165159,,,0,1593006848,-520.437561,-317.4285278,-82.28722382,39.63104248,0.0471920148,-0.058666233,-0.0504315123,1,0,12.11729908,0.156398177,1593006865.84317
2020/06/24/22:54:25.943444,39028,1593006865,943164110,,,0,1593006848,-520.7759399,-316.3221436,-82.27470398,39.70193863,0.0251219124,-0.126396716,-0.0552788079,1,0,13.63829994,0.156688094,1593006865.94316
2020/06/24/22:54:26.043452,39029,1593006866,43160676,,,0,1593006848,-521.1680298,-315.0543518,-82.27524567,39.93494415,0.0946391299,-0.0674748272,-0.0307220072,1,0,16.37609863,0.157000288,1593006866.04316
2020/06/24/22:54:26.143439,39030,1593006866,143157243,,,0,1593006848,-521.4164429,-314.2573242,-82.28081512,40.18738174,0.120917149,-0.0226732381,0.0197800715,1,0,18.91109848,0.15718466,1593006866.14316
2020/06/24/22:54:26.243456,39031,1593006866,243170261,,,0,1593006848,-521.8203125,-312.9708557,-82.29109192,40.69722366,0.105472937,0.0443359427,-0.041805014,1,0,18.2519989,0.157480985,1593006866.24317
2020/06/24/22:54:26.343446,39032,1593006866,343162775,,,0,1593006848,-522.1193848,-312.0295715,-82.29521942,40.93890762,0.0749726668,0.0306615196,-0.0476257019,1,0,15.05789948,0.15770191,1593006866.34316
2020/06/24/22:54:26.443445,39033,1593006866,443161487,,,0,1593006848,-522.4544678,-310.9877625,-82.2959671,41.10792923,0.0585110337,0.0688742399,-0.033463601,1,0,14.14529991,0.157966673,1593006866.44316
2020/06/24/22:54:26.543463,39034,1593006866,543175697,,,0,1593006848,-522.8059082,-309.910614,-82.29077911,41.27492905,0.052735731,0.0162979513,-0.0526213348,1,0,13.23269939,0.158216015,1593006866.54318
2020/06/24/22:54:26.643440,39035,1593006866,643159389,,,0,1593006848,-523.1636353,-308.8320313,-82.28372955,41.25902939,-0.178818062,-0.0304462425,-0.0670471638,0.912050009,0,13.84109974,0.158468559,1593006866.64316
2020/06/24/22:54:26.743451,39036,1593006866,743168592,,,0,1593006848,-523.4789429,-307.8985291,-82.28038788,40.32207108,-0.31601733,-0.0913566202,-0.0659690052,0.573099971,0,12.32009983,0.158692718,1593006866.74317
2020/06/24/22:54:26.843446,39037,1593006866,843164443,,,0,1593006848,-523.9091187,-306.6516113,-82.28746796,38.92754364,-0.321485341,-0.0953593478,-0.0759252012,0.573599994,0,10.95119953,0.158974305,1593006866.84316
2020/06/24/22:54:26.943446,39038,1593006866,943163394,,,0,1593006848,-524.1850586,-305.8664246,-82.29912567,38.01494217,-0.310915917,-0.0422748402,-0.0511997081,0.577749968,0,11.81309986,0.15916273,1593006866.94316
2020/06/24/22:54:27.043457,39039,1593006867,43162822,,,0,1593006848,-524.6754761,-304.4969177,-82.32558441,36.40803146,-0.218380392,0.000126960687,-0.0752178878,0.603399992,0,13.89179993,0.159464478,1593006867.04316
2020/06/24/22:54:27.143433,39040,1593006867,143151283,,,0,1593006848,-524.9779053,-303.6699829,-82.34138489,36.67414856,0.151156589,0.0784205869,-0.00495583564,0.911049962,0,18.2519989,0.159646317,1593006867.14315
2020/06/24/22:54:27.243605,39041,1593006867,243257999,,,0,1593006848,-525.2548218,-302.9197998,-82.35095978,37.06509399,0.125606269,0.10258463,-0.0287674814,1,0,26.6174984,0.159817517,1593006867.24326
2020/06/24/22:54:27.343443,39042,1593006867,343164443,,,0,1593006848,-525.7334595,-301.6372375,-82.35314178,37.54366302,0.0659026355,0.0865338892,-0.0491010621,1,0,42.33449936,0.160090566,1593006867.34316
2020/06/24/22:54:27.443429,39043,1593006867,443147420,,,0,1593006848,-526.0664063,-300.7557678,-82.34558105,37.79341507,0.0361041091,0.0482077599,-0.0367323235,1,0,51.76469803,0.160289943,1593006867.44315
2020/06/24/22:54:27.543467,39044,1593006867,543161153,,,0,1593006848,-526.3139648,-300.1069336,-82.33714294,37.94598389,0.0552112013,0.0258981045,-0.0651073605,1,0,56.83469772,0.160426036,1593006867.54316
2020/06/24/22:54:27.643459,39045,1593006867,643156528,,,0,1593006848,-526.8764648,-298.6581116,-82.3167038,38.15385437,0.0751922876,-0.0410496704,-0.0907803252,1,0,68.49569702,0.16073063,1593006867.64316
2020/06/24/22:54:27.743448,39046,1593006867,743146181,,,0,1593006848,-527.2294312,-297.7700806,-82.30677032,38.27730179,0.0392665938,-0.044949986,-0.0719252601,1,0,86.24069214,0.160915568,1593006867.74315
2020/06/24/22:54:27.843464,39047,1593006867,843162298,,,0,1593006848,-527.5054321,-297.0895691,-82.3015213,38.348526,0.032479167,-0.0656178445,-0.110468358,1,0,103.6814957,0.161065295,1593006867.84316
2020/06/24/22:54:27.943453,39048,1593006867,943156480,,,0,1593006848,-528.0730591,-295.7254334,-82.29515839,38.70256805,0.0739369392,-0.0214531198,-0.0928142667,0.764950037,0,121.7306976,0.161351293,1593006867.94316
2020/06/24/22:54:28.043452,39049,1593006868,43159723,,,0,1593006848,-528.4793091,-294.7709656,-82.29172516,39.1013031,0.0208935477,0.0550988801,-0.0207484346,0.299300015,0,121.8320999,0.161550939,1593006868.04316
2020/06/24/22:54:28.143450,39050,1593006868,143149614,,,0,1593006848,-528.7767944,-294.0789795,-82.28620911,39.50940323,0.186214387,0.0300898813,-0.08117681,0.2588,0,126.2937012,0.161693528,1593006868.14315
2020/06/24/22:54:28.243463,39051,1593006868,243172168,,,0,1593006848,-529.3950806,-292.6709595,-82.27265167,40.78273392,0.216295213,0.208670288,-0.123032898,0.230700016,0,138.9687042,0.161986038,1593006868.24317
2020/06/24/22:54:28.343446,39052,1593006868,343159914,,,0,1593006848,-529.6192017,-292.1712952,-82.26425171,41.27940369,0.281998575,-0.0439237207,-0.147181123,0.210950017,0,141.9092865,0.162094533,1593006868.34316
2020/06/24/22:54:28.443429,39053,1593006868,443138837,,,0,1593006848,-530.3603516,-290.6210327,-82.23207855,42.45409393,0.107807666,-0.04189514,-0.465470105,0.177750021,0,154.1787109,0.162415594,1593006868.44314
2020/06/24/22:54:28.543415,39054,1593006868,543131828,,,0,1593006848,-530.6219482,-290.1184387,-82.22272491,42.53718567,0.0259182304,-0.0860464051,-0.499760866,0.210449994,0,150.9338989,0.162523642,1593006868.54313
2020/06/24/22:54:28.643407,39055,1593006868,643126964,,,0,1593006848,-531.5135498,-288.5838013,-82.19957733,42.72460938,0.102071613,-0.0570012182,-0.56749934,0.71754998,0,124.7726974,0.162862599,1593006868.64313
2020/06/24/22:54:28.743402,39056,1593006868,743124008,,,0,1593006848,-531.9646606,-287.89505,-82.19294739,43.21404266,0.223101348,-0.0563637987,-0.61317718,0.999249995,0,117.0662918,0.163021073,1593006868.74312
2020/06/24/22:54:28.843415,39057,1593006868,843135833,,,0,1593006848,-532.8665771,-286.6494141,-82.18166351,44.60648346,0.305525512,0.0497849174,-0.593961,1,0,124.5698929,0.163322031,1593006868.84314
2020/06/24/22:54:28.943418,39058,1593006868,943134784,,,0,1593006848,-533.6978149,-285.6263428,-82.16916656,45.73991013,0.265689254,-0.00531627564,-0.633191824,1,0,126.5979004,0.163585588,1593006868.94313
2020/06/24/22:54:29.043425,39059,1593006869,43137788,,,0,1593006848,-534.3886719,-284.8482666,-82.15823364,46.6558876,0.360895455,-0.0242198016,-0.619125783,1,0,125.8880997,0.163793191,1593006869.04314
2020/06/24/22:54:29.143406,39060,1593006869,143127202,,,0,1593006848,-535.3222046,-283.8805237,-82.14417267,48.02894211,0.286614716,-0.0441613011,-0.601520956,1,0,118.8914948,0.164062932,1593006869.14313
2020/06/24/22:54:29.243503,39061,1593006869,243166923,,,0,1593006848,-536.2016602,-283.0414124,-82.13288116,49.11776733,0.312334985,-0.0393536948,-0.599422693,1,0,107.9403,0.164313391,1593006869.24317
2020/06/24/22:54:29.343418,39062,1593006869,343125343,,,0,1593006848,-537.3568115,-282.0273438,-82.11929321,50.50788116,0.362220198,-0.0251734275,-0.565947413,1,0,92.93309784,0.164624661,1593006869.34313
2020/06/24/22:54:29.443404,39063,1593006869,443121433,,,0,1593006848,-538.3834839,-281.1955872,-82.10817719,51.68153,0.345101297,-0.030139206,-0.533976793,1,0,80.35949707,0.16489251,1593006869.44312
2020/06/24/22:54:29.543417,39064,1593006869,543129920,,,0,1593006848,-539.6402588,-280.2498779,-82.09598541,53.10559845,0.362439215,0.0127329184,-0.487857282,1,0,66.06210327,0.165214226,1593006869.54313
2020/06/24/22:54:29.643430,39065,1593006869,643138647,,,0,1593006848,-541.1546631,-279.1954346,-82.081604,54.84965897,0.500765622,-0.0111679388,-0.437521458,1,0,51.25769806,0.165590525,1593006869.64314
2020/06/24/22:54:29.743408,39066,1593006869,743125438,,,0,1593006848,-542.0050049,-278.6365051,-82.07368469,55.97493362,0.448491246,-0.0111185731,-0.391125143,1,0,40.6106987,0.16579701,1593006869.74313
2020/06/24/22:54:29.843441,39067,1593006869,843134880,,,0,1593006848,-543.6132813,-277.6297302,-82.05919647,57.73247147,0.422175825,0.00795626454,-0.312523216,1,0,28.9496994,0.166186213,1593006869.84313
2020/06/24/22:54:29.943447,39068,1593006869,943136930,,,0,1593006848,-544.697937,-276.9791565,-82.049263,58.89853287,0.434163362,-0.0306956898,-0.289920062,1,0,31.78889847,0.166444793,1593006869.94314
2020/06/24/22:54:30.043447,39069,1593006870,43139219,,,0,1593006848,-546.4262695,-275.9810486,-82.03489685,60.73163605,0.440604568,0.00413813954,-0.263839066,1,0,36.25049973,0.16685167,1593006870.04314
2020/06/24/22:54:30.143432,39070,1593006870,143123626,,,0,1593006848,-547.4078979,-275.4337158,-82.02626038,61.72079849,0.395430833,-0.0444680341,-0.264634997,1,0,34.72949982,0.167081058,1593006870.14312
2020/06/24/22:54:30.243436,39071,1593006870,243131637,,,0,1593006848,-549.7722778,-274.1690369,-82.00600433,64.28213501,0.43071869,-0.0168556459,-0.252298892,1,0,27.22590065,0.167631015,1593006870.24313
2020/06/24/22:54:30.343416,39072,1593006870,343113660,,,0,1593006848,-550.4429321,-273.8233643,-82.00035095,64.90535736,0.365161896,0.0219494253,-0.271268368,1,0,23.77829933,0.167785749,1593006870.34311
2020/06/24/22:54:30.443424,39073,1593006870,443121194,,,0,1593006848,-552.7044067,-272.6939087,-81.98070526,66.92425537,0.399860084,0.000540118141,-0.276548356,1,0,23.93039894,0.168305621,1593006870.44312
2020/06/24/22:54:30.543429,39074,1593006870,543122291,,,0,1593006848,-553.6139526,-272.2545776,-81.97307587,67.63582611,0.323557198,-0.0332104117,-0.234112144,1,0,22.3586998,0.168512315,1593006870.54312
2020/06/24/22:54:30.643457,39075,1593006870,643144369,,,0,1593006848,-556.2091064,-271.0422974,-81.95433807,69.7305603,0.433487624,-0.00599564612,-0.258616507,1,0,19.36739922,0.169102237,1593006870.64314
2020/06/24/22:54:30.743435,39076,1593006870,743126630,,,0,1593006848,-557.3292236,-270.5365601,-81.94664001,70.6097641,0.42967701,0.0115590096,-0.233025149,1,0,16.8830986,0.16935572,1593006870.74313
2020/06/24/22:54:30.843447,39077,1593006870,843140840,,,0,1593006848,-560.0656738,-269.335907,-81.92665863,72.69826508,0.379264981,0.00880770665,-0.121214196,1,0,-3.143399954,0.169969648,1593006870.84314
2020/06/24/22:54:30.943416,39078,1593006870,943118810,,,0,1593006848,-560.8479614,-268.9981079,-81.92067719,73.25518036,0.370721877,-0.00966940727,-0.0658985078,1,0,-4.360199451,0.170144275,1593006870.94312
2020/06/24/22:54:31.043458,39079,1593006871,43143749,,,0,1593006848,-563.4628906,-267.8753662,-81.90065765,75.10671997,0.374704987,-0.00910078455,0.022131294,1,0,-5.982599735,0.170727283,1593006871.04314
2020/06/24/22:54:31.143421,39080,1593006871,143124580,,,0,1593006848,-565.7298584,-266.8998718,-81.88287354,76.60369873,0.377252102,-0.00290226471,0.0915342346,1,0,-10.54559994,0.171233371,1593006871.14312
2020/06/24/22:54:31.243469,39081,1593006871,243141889,,,0,1593006848,-566.3764648,-266.6196899,-81.87759399,77.04206085,0.379822791,0.0337221287,0.0791952908,1,0,-12.06659889,0.171377137,1593006871.24314
2020/06/24/22:54:31.343446,39082,1593006871,343143224,,,0,1593006848,-569.1130371,-265.4180298,-81.85400391,78.7884903,0.329770803,0.0043437602,0.174032867,1,0,-16.52820015,0.17198655,1593006871.34314
2020/06/24/22:54:31.443431,39083,1593006871,443125724,,,0,1593006848,-571.5315552,-264.3266907,-81.83034515,80.32141113,0.358454704,-0.00129858288,0.199537337,1,0,-16.62960052,0.172527567,1593006871.44313
2020/06/24/22:54:31.543444,39084,1593006871,543135166,,,0,1593006848,-573.2439575,-263.5332947,-81.81157684,81.30801392,0.344770789,0.0227345675,0.23735854,1,0,-17.44079781,0.172910973,1593006871.54314
2020/06/24/22:54:31.643447,39085,1593006871,643135070,,,0,1593006848,-575.4644775,-262.4767761,-81.78657532,82.35792541,0.0131571069,-0.040396098,0.319571018,1,0,-25.55279922,0.173408434,1593006871.64314
2020/06/24/22:54:31.743425,39086,1593006871,743117332,,,0,1593006848,-577.0039063,-261.7215576,-81.77081299,82.25511932,-0.0233949423,-0.0421802662,0.32597363,0.652750015,0,-27.5807991,0.173755959,1593006871.74312
2020/06/24/22:54:31.843483,39087,1593006871,843157052,,,0,1593006848,-579.4440918,-260.480011,-81.75273132,82.03797913,-0.0251291543,-0.0492571294,0.423330396,0.852149963,0,-31.1298008,0.174311414,1593006871.84316
2020/06/24/22:54:31.943494,39088,1593006871,943167686,,,0,1593006848,-581.2023315,-259.5459595,-81.74491119,82.95974731,0.547307193,-0.0151073514,0.359481633,1,0,-38.12639999,0.174714863,1593006871.94317
2020/06/24/22:54:32.043505,39089,1593006872,43173789,,,0,1593006848,-583.2184448,-258.4287109,-81.73490143,84.33089447,0.269682288,-0.045450341,0.591128111,1,0,-73.71780396,0.175179243,1593006872.04317
2020/06/24/22:54:32.143498,39090,1593006872,143170833,,,0,1593006848,-585.4742432,-257.1009827,-81.72225952,85.35147858,0.260469764,-0.113089822,0.577867448,1,0,-64.38899994,0.175706849,1593006872.14317
2020/06/24/22:54:32.243518,39091,1593006872,243176460,,,0,1593006848,-588.144104,-255.4206238,-81.71628571,86.69454956,0.336731821,-0.0340773836,0.61439991,1,0,-62.25960159,0.176344767,1593006872.24318
2020/06/24/22:54:32.343499,39092,1593006872,343161582,,,0,1593006848,-589.9562378,-254.2077789,-81.71640778,87.63561249,0.269697726,0.0248824898,0.695233345,1,0,-61.54980087,0.176784217,1593006872.34316
2020/06/24/22:54:32.443501,39093,1593006872,443158864,,,0,1593006848,-590.7976685,-253.6221466,-81.71605682,88.0211792,0.245070711,0.0302596912,0.710432887,1,0,-60.73859787,0.176988319,1593006872.44316
2020/06/24/22:54:32.543526,39094,1593006872,543181896,,,0,1593006848,-593.8917847,-251.3361511,-81.70675659,89.44467926,0.252016932,0.00759261567,0.738393962,1,0,-65.20020294,0.177765533,1593006872.54318
2020/06/24/22:54:32.643496,39095,1593006872,643157243,,,0,1593006848,-594.7736816,-250.6441345,-81.7021637,89.83766937,0.308239073,0.0217435118,0.7448892,1,0,-68.14080048,0.177988887,1593006872.64316
2020/06/24/22:54:32.743518,39096,1593006872,743176460,,,0,1593006848,-597.5574951,-248.3330994,-81.68544006,91.01102448,0.242811784,-0.00438906811,0.751633704,1,0,-74.12339783,0.17871365,1593006872.74318
2020/06/24/22:54:32.843497,39097,1593006872,843162775,,,0,1593006848,-599.2649536,-246.8151245,-81.67558289,91.70165253,0.268056154,-0.0394019857,0.740106702,1,0,-71.08139801,0.179173112,1593006872.84316
2020/06/24/22:54:32.943505,39098,1593006872,943166017,,,0,1593006848,-601.3338623,-244.8667603,-81.66575623,92.57376099,0.287052631,-0.0466713011,0.693361163,1,0,-62.86800003,0.179742098,1593006872.94317
2020/06/24/22:54:33.043510,39099,1593006873,43167591,,,0,1593006848,-602.980835,-243.2257385,-81.66012573,93.34516907,0.287159294,-0.0156244254,0.742697656,1,0,-57.29100037,0.18021138,1593006873.04317
