,time,.header.seq,.header.stamp.secs,.header.stamp.nsecs,.header.frame_id,.identifier.data,.size.data,.TimeStamp.data,PosLocalX,PosLocalY,Height,GPS_Speed,AccelX,AccelY,AccelZ,PedalPosAcc,PedalPosBrk,AngleSteer,carPositionNormalized,TimeStamp,lateralOffset
0,2020/06/24/22:54:04.142835,38809,1593006844,142443418,,,0,1593006848,168.94998169999997,-388.4255066,-84.54676056,68.19142914,0.397144079,0.0071684969599999995,-0.21937815800000002,1.0,0.0,19.11389923,0.007968861609999999,1593006844.14244,-1.7098969046134842
1,2020/06/24/22:54:04.152024,38810,1593006844,151723146,,,0,1593006848,168.77925109999998,-388.4309692,-84.54616547,68.32524872,0.42919346700000005,0.0138054686,-0.215612218,1.0,0.0,18.70829964,0.007999535649999999,1593006844.1517198,-1.6969429873352917
2,2020/06/24/22:54:04.243447,38811,1593006844,243143081,,,0,1593006848,167.228302,-388.4885559,-84.54026031,69.49851227,0.405238062,0.018307006,-0.21482311199999998,1.0,0.0,17.79569817,0.00849651545,1593006844.24314,-1.5904272625975684
3,2020/06/24/22:54:04.343469,38812,1593006844,343146800,,,0,1593006848,165.71063230000001,-388.5588074,-84.53369141,70.62026978,0.413511336,0.0186596289,-0.22955896,1.0,0.0,17.54220009,0.0085784113,1593006844.34315,-1.4738709744919722
4,2020/06/24/22:54:04.443497,38813,1593006844,443167448,,,0,1593006848,163.9302216,-388.6583557,-84.52460479999999,71.90100098,0.404186726,-0.000560299493,-0.231371835,1.0,0.0,14.24669933,0.00898787659,1593006844.4431698,-1.3358248966416735
5,2020/06/24/22:54:04.543520,38814,1593006844,543193578,,,0,1593006848,161.9364624,-388.7893372,-84.51329041,73.28059387,0.402349114,0.0197127163,-0.206871644,1.0,0.0,12.57359982,0.00939826854,1593006844.54319,-1.177192710447801
6,2020/06/24/22:54:04.643530,38815,1593006844,643198728,,,0,1593006848,159.4095764,-388.9822693,-84.49629974,74.94277191,0.38089186,0.0138721718,-0.185970247,1.0,0.0,12.77639961,0.00991764944,1593006844.6432,-0.9856637605550078
7,2020/06/24/22:54:04.743500,38816,1593006844,743170499,,,0,1593006848,158.5971069,-389.0503235,-84.49039459,75.46076202,0.38675481100000003,-0.0006909907679999999,-0.185284808,1.0,0.0,13.0298996,0.0100845555,1593006844.74317,-0.9235202675060623
8,2020/06/24/22:54:04.843493,38817,1593006844,843186140,,,0,1593006848,155.61558530000002,-389.3240356,-84.46979523,77.3082962,0.362711877,-0.0226045139,-0.18856872600000002,1.0,0.0,12.11729908,0.0106996391,1593006844.84319,-0.7113109305164735
9,2020/06/24/22:54:04.943479,38818,1593006844,943150520,,,0,1593006848,153.48156740000002,-389.5420837,-84.45688629,78.59424591,0.381040454,-0.007355616429999999,-0.19313246,1.0,0.0,9.582300186,0.011135439399999999,1593006844.94315,-0.5719011647388725
10,2020/06/24/22:54:05.043485,38819,1593006845,43178796,,,0,1593006848,151.24824519999999,-389.7880249,-84.44409943,79.89713287,0.39020773799999997,0.000381396268,-0.153055251,1.0,0.0,8.365499496,0.011596469199999999,1593006845.04318,-0.4469923843407924
11,2020/06/24/22:54:05.143470,38820,1593006845,143164873,,,0,1593006848,149.4500732,-389.9978943,-84.43400574,80.91493988,0.341938257,-0.00683010463,-0.14794769900000002,1.0,0.0,8.213399887000001,0.011966451999999999,1593006845.1431599,-0.3599265674676202
12,2020/06/24/22:54:05.243600,38821,1593006845,243241786,,,0,1593006848,146.2682037,-390.3926086,-84.41624451,82.73722839,0.36599707600000003,-0.00236132275,-0.148555517,1.0,0.0,6.743099689,0.0126204118,1593006845.24324,-0.23274224073698713
13,2020/06/24/22:54:05.343495,38822,1593006845,343169689,,,0,1593006848,144.893692,-390.57138060000005,-84.40859222,83.48361206,0.351499438,0.0037454376,-0.144847542,1.0,0.0,5.931900024,0.0129062869,1593006845.34317,-0.18562863152461706
14,2020/06/24/22:54:05.443482,38823,1593006845,443154096,,,0,1593006848,141.8287506,-390.9851685,-84.39165497,85.09791565,0.333952695,-0.0019095293200000001,-0.112500504,1.0,0.0,5.272799968999999,0.0135418018,1593006845.44315,-0.09579116875935331
15,2020/06/24/22:54:05.543513,38824,1593006845,543182373,,,0,1593006848,140.4172821,-391.1822205,-84.38402557,85.81550598,0.330318689,-0.0048726378,-0.100831121,1.0,0.0,5.069999695,0.013830795900000002,1593006845.54318,-0.061576574202584
16,2020/06/24/22:54:05.643510,38825,1593006845,643172502,,,0,1593006848,137.3449249,-391.62344360000003,-84.36775208,87.28703308,0.274727881,-0.00201918371,-0.0829057395,1.0,0.0,3.599699974,0.0144665604,1593006845.6431699,0.0029592141858650334
17,2020/06/24/22:54:05.743513,38826,1593006845,743173599,,,0,1593006848,134.9620056,-391.97555539999996,-84.3553772,87.61076355,-0.0317049026,-0.0159411225,-0.0713622123,1.0,0.0,2.484300137,0.0149589106,1593006845.74317,0.05105461729375365
18,2020/06/24/22:54:05.843499,38827,1593006845,843169212,,,0,1593006848,132.5094757,-392.3451233,-84.34399414,87.47494507,-0.0253102537,-0.00849728845,-0.0517772138,1.0,0.0,1.977299929,0.0154663892,1593006845.84317,0.0994662757561432
19,2020/06/24/22:54:05.943475,38828,1593006845,943146467,,,0,1593006848,130.556488,-392.6437073,-84.33543396,88.36347198,0.5706815120000001,0.0225823149,-0.0397012308,1.0,0.0,1.622399926,0.0158737525,1593006845.94315,0.13879003397973233
20,2020/06/24/22:54:06.043506,38829,1593006846,43181896,,,0,1593006848,127.8331528,-393.0654297,-84.32212829999999,89.97711182,0.299491346,0.0175780021,-0.064360559,1.0,0.0,2.8898997310000003,0.016436133500000002,1593006846.04318,0.19068234837958611
21,2020/06/24/22:54:06.143543,38830,1593006846,143182754,,,0,1593006848,124.8474121,-393.5352783,-84.30522919,91.28918457,0.33228153,0.013485326399999999,-0.065808937,1.0,0.0,3.447599888,0.0170550011,1593006846.1431801,0.242409548256863
22,2020/06/24/22:54:06.243499,38831,1593006846,243158817,,,0,1593006848,123.5656128,-393.7394104,-84.29741669,91.85720825,0.335896015,0.00336971646,-0.062319912000000005,1.0,0.0,3.80250001,0.0173202027,1593006846.24316,0.26270464567480606
23,2020/06/24/22:54:06.343533,38832,1593006846,343178272,,,0,1593006848,119.75109099999999,-394.3561707,-84.27362823,93.51556396,0.310844809,-0.005789390300000001,-0.065856494,1.0,0.0,4.106699944,0.018113177299999998,1593006846.3431802,0.3228600249727298
24,2020/06/24/22:54:06.443465,38833,1593006846,443131208,,,0,1593006848,118.12956240000001,-394.62295530000006,-84.26393127,94.19494629,0.294224054,-0.0297312792,-0.07575804,1.0,0.0,3.650399923,0.0184515417,1593006846.44313,0.3498879915584298
25,2020/06/24/22:54:06.543527,38834,1593006846,543183803,,,0,1593006848,115.00970459999999,-395.144165,-84.24864197,95.50263214,0.281621933,0.0710788965,-0.0722825825,1.0,0.0,2.991299868,0.0190969333,1593006846.54318,0.40461276439473043
26,2020/06/24/22:54:06.643491,38835,1593006846,643170833,,,0,1593006848,112.0880966,-395.6420898,-84.23603058,96.64871216,0.33217889100000003,-0.021055961,-0.0532089025,1.0,0.0,2.33220005,0.019705586100000002,1593006846.6431699,0.45303294911543257
27,2020/06/24/22:54:06.743483,38836,1593006846,743165969,,,0,1593006848,110.97362520000001,-395.83428960000003,-84.23036194,97.10551453,0.25606530899999996,0.134823665,-0.063367635,1.0,0.0,2.281499863,0.0199396778,1593006846.74317,0.469651172400891
28,2020/06/24/22:54:06.843489,38837,1593006846,843179702,,,0,1593006848,106.95429229999999,-396.5362244,-84.20417023,98.6649704,0.250334084,0.257686019,-0.055311854900000006,1.0,0.0,3.244799852,0.0207748897,1593006846.8431802,0.5174254596480534
29,2020/06/24/22:54:06.943454,38838,1593006846,943145751,,,0,1593006848,104.1871338,-397.0271912,-84.18313599,99.72181702,0.32729026699999997,0.0858133808,-0.0946167782,1.0,0.0,3.903899908,0.021351380299999997,1593006846.94315,0.5420089138833843
30,2020/06/24/22:54:07.043489,38839,1593006847,43176651,,,0,1593006848,101.391777,-397.530365,-84.16844177,100.7125702,0.218275025,0.07753135259999999,-0.09479483960000001,1.0,0.0,3.903899908,0.0219331421,1593006847.04318,0.5592243503571308
31,2020/06/24/22:54:07.143490,38840,1593006847,143172025,,,0,1593006848,99.15265656,-397.939209,-84.1599884,101.5148697,0.27009359,0.030073126800000002,-0.0556021258,1.0,0.0,-0.405599982,0.0224022642,1593006847.1431699,0.5669701203325267
32,2020/06/24/22:54:07.243594,38841,1593006847,243238449,,,0,1593006848,95.46661377,-398.6185608,-84.14035034,102.8018265,0.232981578,-0.0008347560649999999,-0.0258622505,1.0,0.0,0.861899972,0.023170670499999997,1593006847.24324,0.572731590046797
33,2020/06/24/22:54:07.343485,38842,1593006847,343176126,,,0,1593006848,92.67234802,-399.1362305,-84.11698914,103.74057009999999,0.27082836600000004,-0.0733819753,0.00192932785,1.0,0.0,-1.825199962,0.0237524956,1593006847.3431802,0.5743786767051035
34,2020/06/24/22:54:07.443455,38843,1593006847,443145036,,,0,1593006848,89.76722717,-399.6736755,-84.08443451,104.7254562,0.26051911699999997,-0.0798400789,0.0298247337,1.0,0.0,-0.709799945,0.0243624318,1593006847.44315,0.5758795207729432
35,2020/06/24/22:54:07.543485,38844,1593006847,543173551,,,0,1593006848,88.56300354,-399.8959961,-84.07124329,105.12419129999999,0.258658826,-0.0883671865,0.0194862131,1.0,0.0,0.861899972,0.024611456299999997,1593006847.54317,0.5769360660725698
36,2020/06/24/22:54:07.643484,38845,1593006847,643177747,,,0,1593006848,84.13778687,-400.7131653,-84.03349304,106.5565872,0.266034693,-0.0124774333,0.0293482337,1.0,0.0,-3.244799852,0.025535898300000002,1593006847.6431801,0.5796370625643762
37,2020/06/24/22:54:07.743474,38846,1593006847,743165016,,,0,1593006848,82.38600159,-401.0354309,-84.02051544,107.10678859999999,0.251466244,-0.0005924437430000001,0.0563850887,1.0,0.0,-4.7657999989999995,0.025903156,1593006847.74317,0.5822398565929446
38,2020/06/24/22:54:07.843497,38847,1593006847,843178272,,,0,1593006848,78.14377594,-401.8080139,-83.98960876,108.41323090000002,0.248920113,-0.0142813921,0.0804446489,1.0,0.0,-4.360199451000001,0.026786033100000002,1593006847.8431802,0.5958928242418275
39,2020/06/24/22:54:07.943501,38848,1593006847,943137168,,,0,1593006848,76.98557281,-402.016449,-83.98144531,108.7638397,0.25306806,0.0012012451199999998,0.0892563611,1.0,0.0,-4.461599827,0.027027638599999997,1593006847.94314,0.6021790307740202
40,2020/06/24/22:54:08.043542,38849,1593006848,43176412,,,0,1593006848,73.03697205,-402.71646119999997,-83.9539032,109.91370390000002,0.237456217,-0.00160471827,0.136774853,1.0,0.0,-7.503600121,0.027854586,1593006848.04318,0.6330421372770022
41,2020/06/24/22:54:08.143524,38850,1593006848,143160343,,,0,1593006848,69.9543457,-403.2480164,-83.93271637,110.8163071,0.238146573,0.0013621944199999998,0.149815485,1.0,0.0,-7.300799847,0.0284952279,1593006848.1431599,0.6720648533104745
42,2020/06/24/22:54:08.243529,38851,1593006848,243165254,,,0,1593006848,67.39489746,-403.6771545,-83.91533661,111.55201720000001,0.240956038,0.0006411400390000001,0.17466673300000002,1.0,0.0,-6.084000111,0.029027614700000003,1593006848.24317,0.7150537878024757
43,2020/06/24/22:54:08.343522,38852,1593006848,343159914,,,0,1593006848,63.98399353,-404.230896,-83.89251709,112.516777,0.247135207,-0.000407749438,0.148907483,1.0,0.0,-4.055999756,0.029740737799999997,1593006848.34316,0.7891994027215747
44,2020/06/24/22:54:08.443502,38853,1593006848,443139076,,,0,1593006848,60.26023102,-404.8132935,-83.86764526,113.55105590000001,0.234798908,-0.00605083909,0.112632707,1.0,0.0,0.659099996,0.030513156200000002,1593006848.44314,0.8914108812700534
45,2020/06/24/22:54:08.543527,38854,1593006848,543165683,,,0,1593006848,58.66648865,-405.0570984,-83.85706329,113.99166869999999,0.228622004,0.00855157804,0.0956366956,1.0,0.0,2.484300137,0.0308457259,1593006848.54317,0.9402047654944113
46,2020/06/24/22:54:08.643529,38855,1593006848,643165588,,,0,1593006848,54.13212967,-405.74145510000005,-83.8272934,115.2209015,0.22760213899999998,-0.0109701976,0.0274838693,1.0,0.0,1.368899941,0.0317892618,1593006848.6431699,1.0893929279032546
47,2020/06/24/22:54:08.743515,38856,1593006848,743151187,,,0,1593006848,51.55984497,-406.1268921,-83.81079865,115.90926359999999,0.22829359800000001,-0.0008713203720000001,0.019212098799999997,1.0,0.0,0.659099996,0.0323244445,1593006848.74315,1.1761237081429863
48,2020/06/24/22:54:08.843532,38857,1593006848,843170166,,,0,1593006848,48.01016998,-406.6590271,-83.78833008,116.8444138,0.270028383,0.0105855642,-0.0264461972,1.0,0.0,1.166100025,0.0330619365,1593006848.84317,1.2966266909846478
49,2020/06/24/22:54:08.943461,38858,1593006848,943139791,,,0,1593006848,44.04411697,-407.2564087,-83.76292419,117.86393740000001,0.226552919,0.00907577109,0.00265808776,1.0,0.0,-1.4195998909999998,0.033887919,1593006848.94314,1.4282031716963992
50,2020/06/24/22:54:09.043484,38859,1593006849,43157815,,,0,1593006848,42.38963318,-407.506134,-83.7520752,118.28519440000001,0.23834388,-0.00127681578,-0.0016782991600000003,1.0,0.0,-0.912599981,0.0342303328,1593006849.04316,1.4824434327314582
51,2020/06/24/22:54:09.143504,38860,1593006849,143182754,,,0,1593006848,37.39094925,-408.2601318,-83.72002411,119.5349274,0.23453009100000002,-0.0284322444,0.006402166559999999,1.0,0.0,-0.608399987,0.0352734774,1593006849.1431801,1.6466429486280956
52,2020/06/24/22:54:09.243561,38861,1593006849,243182897,,,0,1593006848,34.02920151,-408.76531980000004,-83.70068359,120.3562088,0.218443587,-0.0103606721,0.0357931145,1.0,0.0,-1.4195998909999998,0.0359710306,1593006849.24318,1.7590118619049973
53,2020/06/24/22:54:09.343508,38862,1593006849,343144655,,,0,1593006848,31.94114494,-409.0773621,-83.68898773,120.857666,0.2245913,-0.00177702156,0.0210379586,1.0,0.0,-2.027999878,0.0364059992,1593006849.3431401,1.8309151671265735
54,2020/06/24/22:54:09.443484,38863,1593006849,443120956,,,0,1593006848,29.243406300000004,-409.47756960000004,-83.67382049999999,121.4970551,0.21870455100000002,0.00918991957,0.0626828372,1.0,0.0,-2.129400015,0.0369665734,1593006849.44312,1.9258293023691024
55,2020/06/24/22:54:09.543541,38864,1593006849,543173551,,,0,1593006848,24.10778427,-410.2290955,-83.64448547,122.6840057,0.20540107800000001,-0.0023634925,0.0828693435,1.0,0.0,-2.433599949,0.0380328111,1593006849.54317,2.116957939932329
56,2020/06/24/22:54:09.643527,38865,1593006849,643166065,,,0,1593006848,20.96078491,-410.68173219999994,-83.62684631,123.3968658,0.224991456,0.00411145529,0.0887795091,1.0,0.0,-2.534999847,0.0386868455,1593006849.6431699,2.2425641056533214
57,2020/06/24/22:54:09.743520,38866,1593006849,743158102,,,0,1593006848,19.53332138,-410.8848877,-83.61895752,123.7111435,0.198087767,-0.01237984,0.0820863545,1.0,0.0,-2.534999847,0.0389856398,1593006849.74316,2.3014729007683346
58,2020/06/24/22:54:09.843536,38867,1593006849,843175649,,,0,1593006848,14.71297359,-411.56015010000004,-83.59296417,124.7680588,0.210744455,-0.007988354190000001,0.0819941908,1.0,0.0,-2.839199781,0.039983585499999995,1593006849.8431802,2.511167912172034
59,2020/06/24/22:54:09.943465,38868,1593006849,943143129,,,0,1593006848,11.40638351,-412.01312260000003,-83.57569122,125.47039029999999,0.135739893,0.0187352933,0.09513482449999999,1.0,0.0,-3.143399954,0.0406728461,1593006849.94314,2.663486593883129
60,2020/06/24/22:54:10.043492,38869,1593006850,43169260,,,0,1593006848,7.14580822,-412.5830994,-83.55156708,125.8911209,-0.0434386171,0.0146020669,0.094457902,1.0,0.0,-2.636399984,0.0415577069,1593006850.04317,2.8707060260568014
61,2020/06/24/22:54:10.143499,38870,1593006850,143155574,,,0,1593006848,4.235229492,-412.96331789999994,-83.53424072,125.7259293,-0.0651746094,-0.00680494402,0.083733663,1.0,0.0,-1.92659986,0.0421611145,1593006850.1431599,3.021227165123517
62,2020/06/24/22:54:10.243508,38871,1593006850,243161916,,,0,1593006848,1.323633432,-413.33666989999995,-83.51747131,126.1259003,0.430615216,0.00814091228,0.0976051986,1.0,0.0,-1.4195998909999998,0.0427626334,1593006850.24316,3.1785425935048637
63,2020/06/24/22:54:10.343521,38872,1593006850,343178033,,,0,1593006848,-2.660385132,-413.8372498,-83.4947052,127.181221,0.17484746899999998,0.00312099117,0.050679300000000004,1.0,0.0,2.180099726,0.0435888544,1593006850.3431802,3.4036103293169764
64,2020/06/24/22:54:10.443495,38873,1593006850,443131446,,,0,1593006848,-5.5070014,-414.190033,-83.47833252,127.7366867,0.20497991100000001,0.0017350334699999998,0.026638949300000003,1.0,0.0,4.309499741000001,0.044182241,1593006850.44313,3.5693075244828947
65,2020/06/24/22:54:10.543524,38874,1593006850,543159008,,,0,1593006848,-8.791196823,-414.5960083,-83.45941162,128.4032898,0.21649949300000002,-0.00179115951,-0.0123935118,1.0,0.0,2.484300137,0.0448608063,1593006850.54316,3.7628117456891967
66,2020/06/24/22:54:10.643489,38875,1593006850,643167734,,,0,1593006848,-12.519699099999999,-415.05834960000004,-83.43952942,129.1680298,0.19785285,0.058935836,-0.0562977567,1.0,0.0,1.571699977,0.045633420300000005,1593006850.6431699,3.9767073788800955
67,2020/06/24/22:54:10.743503,38876,1593006850,743182659,,,0,1593006848,-17.5593586,-415.69149780000004,-83.41065216,130.1515656,0.187816158,0.0262023825,-0.0536785647,1.0,0.0,1.571699977,0.04667961599999999,1593006850.74318,4.240101353856591
68,2020/06/24/22:54:10.843487,38877,1593006850,843165397,,,0,1593006848,-19.06765366,-415.88302610000005,-83.40083313,130.4355774,0.190976292,0.0116219874,-0.0613771491,1.0,0.0,0.861899972,0.0469935723,1593006850.84317,4.3150638587130254
69,2020/06/24/22:54:10.943465,38878,1593006850,943143129,,,0,1593006848,-24.26422882,-416.54779049999996,-83.36837006,131.4459229,0.173402101,0.0987394303,-0.007081044840000001,1.0,0.0,-1.92659986,0.0480723567,1593006850.94314,4.572329476252797
70,2020/06/24/22:54:11.043490,38879,1593006851,43165445,,,0,1593006848,-27.64100647,-416.9813538,-83.34685516,132.08909609999998,0.238729313,-0.0613737442,0.022386644,1.0,0.0,-1.825199962,0.0487738624,1593006851.04317,4.7309858167336305
71,2020/06/24/22:54:11.143481,38880,1593006851,143162250,,,0,1593006848,-31.03461647,-417.41558839999993,-83.32718658,132.724472,0.190703824,0.0309503227,0.054267652300000004,1.0,0.0,-1.622399926,0.0494788177,1593006851.1431599,4.875448643486328
72,2020/06/24/22:54:11.243579,38881,1593006851,243236303,,,0,1593006848,-34.77587891,-417.8904419,-83.30636597,133.42616270000002,0.19206816,0.0123823434,0.0563392118,1.0,0.0,-0.202799991,0.0502552502,1593006851.24324,5.014723492670627
73,2020/06/24/22:54:11.343476,38882,1593006851,343161821,,,0,1593006848,-39.64723969,-418.50234989999996,-83.27921295,134.317276,0.186882436,-0.051380854100000005,0.057974278899999995,1.0,0.0,-0.202799991,0.0512644909,1593006851.34316,5.122990881051677
74,2020/06/24/22:54:11.443458,38883,1593006851,443150043,,,0,1593006848,-43.09943008,-418.9316711,-83.26232147,134.9463501,0.177622542,0.014311891,0.0552599654,1.0,0.0,-0.202799991,0.05197943,1593006851.44315,5.129455847727992
75,2020/06/24/22:54:11.543511,38884,1593006851,543154954,,,0,1593006848,-46.90443802,-419.4006653,-83.24266815,135.6165924,0.176317781,-0.0113917841,0.0366939567,1.0,0.0,-0.912599981,0.0527665503,1593006851.54316,5.095570122061452
76,2020/06/24/22:54:11.643531,38885,1593006851,643171310,,,0,1593006848,-50.84172058,-419.88076780000006,-83.21770477,136.2906342,0.193635628,0.033850356899999996,0.0520711243,1.0,0.0,-2.027999878,0.053582072300000005,1593006851.6431699,5.050304249110141
77,2020/06/24/22:54:11.743517,38886,1593006851,743156433,,,0,1593006848,-53.55323791,-420.2075806,-83.19411469,136.7647858,0.170213655,0.025795590099999998,0.0647033453,1.0,0.0,-2.534999847,0.0541450195,1593006851.74316,5.013929063094112
78,2020/06/24/22:54:11.843509,38887,1593006851,843153953,,,0,1593006848,-57.41083145,-420.66720580000003,-83.15744019,137.43618769999998,0.19218967899999997,0.031200327000000003,0.0456888527,1.0,0.0,-2.534999847,0.0549426749,1593006851.84315,4.953715285947181
79,2020/06/24/22:54:11.943490,38888,1593006851,943135976,,,0,1593006848,-60.60204697,-421.0424194,-83.1295929,137.95309450000002,0.19939132,-0.0431883708,0.08409604429999999,1.0,0.0,-2.636399984,0.0556045584,1593006851.94314,4.89565059287508
80,2020/06/24/22:54:12.043499,38889,1593006852,43139696,,,0,1593006848,-65.75853729,-421.63552860000004,-83.0917511,138.82218930000002,0.148010895,0.12126917400000001,0.13168928,1.0,0.0,-4.25880003,0.0566717722,1593006852.04314,4.794339955119634
81,2020/06/24/22:54:12.143509,38890,1593006852,143152952,,,0,1593006848,-68.17651367,-421.9065552,-83.07514954,139.21675109999998,0.168885812,0.136136457,0.14139837,1.0,0.0,-4.968600273,0.0571720228,1593006852.14315,4.744107574731279
82,2020/06/24/22:54:12.243516,38891,1593006852,243159294,,,0,1593006848,-73.15063477,-422.4461365,-83.03575134,139.99331669999998,0.17728444899999998,0.0140849464,0.170347735,1.0,0.0,-4.7657999989999995,0.058200746799999994,1593006852.24316,4.629407876843247
83,2020/06/24/22:54:12.343499,38892,1593006852,343142747,,,0,1593006848,-75.94033051,-422.7373352,-83.0111618,140.43573,0.194914237,-0.050238609299999994,0.162732273,1.0,0.0,-5.678399562999999,0.058777607999999995,1593006852.3431401,4.562903743369901
84,2020/06/24/22:54:12.443473,38893,1593006852,443116188,,,0,1593006848,-80.37700653,-423.1809081999999,-82.97288513,141.12463380000003,0.163027525,-0.0387426093,0.217997715,1.0,0.0,-7.402199745,0.0596945845,1593006852.44312,4.467819708458287
85,2020/06/24/22:54:12.543535,38894,1593006852,543164491,,,0,1593006848,-85.19103241,-423.6313782,-82.93703461,141.8452301,0.165793672,-0.0727891251,0.224748313,1.0,0.0,-7.503600121,0.060688376399999994,1593006852.54316,4.385488519040535
86,2020/06/24/22:54:12.643498,38895,1593006852,643164634,,,0,1593006848,-88.84952545,-423.94854739999994,-82.91062927,142.3978119,0.154705524,0.0159139987,0.307650656,1.0,0.0,-7.199399948,0.0614449419,1593006852.6431599,4.337391700143866
87,2020/06/24/22:54:12.743468,38896,1593006852,743154525,,,0,1593006848,-92.88014984,-424.27023319999995,-82.87953186,142.9877319,0.180825233,0.0393206403,0.320101708,1.0,0.0,-8.314800262,0.062275283,1593006852.74315,4.299251347816
88,2020/06/24/22:54:12.843520,38897,1593006852,843157052,,,0,1593006848,-96.45223236,-424.5299683,-82.85270691,143.4993896,0.194345847,0.00166118611,0.340592057,1.0,0.0,-9.328800201,0.0630116686,1593006852.84316,4.276716909907903
89,2020/06/24/22:54:12.943529,38898,1593006852,943161249,,,0,1593006848,-98.96128845,-424.6974487,-82.83517456,143.84793090000002,0.159678593,0.00175554538,0.333927631,1.0,0.0,-8.213399887000001,0.0635289699,1593006852.94316,4.26748011367682
90,2020/06/24/22:54:13.043505,38899,1593006853,43164014,,,0,1593006848,-103.87990570000001,-424.98947139999996,-82.80010986,144.5320587,0.15303534300000002,-0.020189663400000002,0.284776658,1.0,0.0,-4.055999756,0.0645417646,1593006853.04316,4.259850807118656
91,2020/06/24/22:54:13.143477,38900,1593006853,143150568,,,0,1593006848,-107.61600490000001,-425.18151860000006,-82.77324677,145.04975890000003,0.154420301,-0.051292795700000005,0.273830235,1.0,0.0,-5.171399593,0.0653106868,1593006853.14315,4.254615919886514
92,2020/06/24/22:54:13.243520,38901,1593006853,243163347,,,0,1593006848,-112.70106509999998,-425.4038086,-82.73949432,145.7605896,0.158162162,0.0870836377,0.271403402,1.0,0.0,-5.272799968999999,0.0663570911,1593006853.24316,4.243959310637022
93,2020/06/24/22:54:13.343461,38902,1593006853,343129873,,,0,1593006848,-117.3241196,-425.5698853,-82.70536804,146.3761749,0.141637862,0.0263743363,0.24708131,1.0,0.0,-5.069999695,0.067308329,1593006853.34313,4.209414261118269
94,2020/06/24/22:54:13.443413,38903,1593006853,443122625,,,0,1593006848,-120.7439499,-425.67297360000003,-82.68003845,146.8471375,0.181286439,-0.0708186254,0.239132345,1.0,0.0,-5.8811998370000005,0.0680118799,1593006853.44312,4.160252726577741
95,2020/06/24/22:54:13.543444,38904,1593006853,543133974,,,0,1593006848,-124.0524597,-425.75732419999997,-82.66028595,147.2922668,0.16185623400000002,-0.030370572599999996,0.229711682,1.0,0.0,-6.185400008999999,0.0686926097,1593006853.5431302,4.097549580667792
96,2020/06/24/22:54:13.643451,38905,1593006853,643137454,,,0,1593006848,-128.2334137,-425.8424377,-82.63725281,147.8506622,0.142751917,0.00271427678,0.21037288,1.0,0.0,-5.171399593,0.0695523471,1593006853.64314,4.002264185243642
97,2020/06/24/22:54:13.743453,38906,1593006853,743146181,,,0,1593006848,-132.9253845,-425.91033939999994,-82.61181641,148.47480769999999,0.175838768,-0.050194215,0.229690045,1.0,0.0,-5.069999695,0.07051724200000001,1593006853.74315,3.8760602495143246
98,2020/06/24/22:54:13.843421,38907,1593006853,843130111,,,0,1593006848,-136.76788330000002,-425.944519,-82.59279633,148.97271730000003,0.147100404,0.0507326387,0.223993704,1.0,0.0,-4.867199898,0.07130742820000001,1593006853.84313,3.76257960567256
99,2020/06/24/22:54:13.943436,38908,1593006853,943145275,,,0,1593006848,-141.4955292,-425.95867919999995,-82.56446075,149.57814030000003,0.13645114,0.014277502,0.245713696,1.0,0.0,-6.084000111,0.07227922980000001,1593006853.94315,3.6164923096317776
100,2020/06/24/22:54:14.043531,38909,1593006854,43178796,,,0,1593006848,-143.24215700000002,-425.95614620000003,-82.55330658,149.8027954,0.147373706,0.0133800562,0.258672923,1.0,0.0,-7.706399441,0.0726385191,1593006854.04318,3.560402807483912
101,2020/06/24/22:54:14.143448,38910,1593006854,143154144,,,0,1593006848,-149.7519073,-425.9089966,-82.51875305,150.6190796,0.148716643,-0.23360075100000002,0.258403718,1.0,0.0,-9.63299942,0.07397650929999999,1593006854.14315,3.323107512612351
102,2020/06/24/22:54:14.243448,38911,1593006854,243141889,,,0,1593006848,-153.1460419,-425.86007689999997,-82.51558685,151.0676117,0.158002555,-0.0420300215,0.325878829,1.0,0.0,-9.328800201,0.0746744424,1593006854.24314,3.205386943747536
103,2020/06/24/22:54:14.343446,38912,1593006854,343141317,,,0,1593006848,-157.6858673,-425.762146,-82.51198578,151.6152802,0.15648444,0.120268852,0.291230321,1.0,0.0,-0.811199963,0.07560881230000001,1593006854.3431401,3.0716600227960518
104,2020/06/24/22:54:14.443475,38913,1593006854,443143129,,,0,1593006848,-161.2278442,-425.662384,-82.50095367,152.0521545,0.158533573,0.09274887289999999,0.28179189600000004,1.0,0.0,-3.143399954,0.0763378069,1593006854.44314,2.9098008556416404
105,2020/06/24/22:54:14.543471,38914,1593006854,543156385,,,0,1593006848,-165.16030880000002,-425.52877810000007,-82.48149872,152.5311584,0.15295377400000001,0.0348201245,0.255044162,1.0,0.0,-5.982599735,0.077146776,1593006854.54316,2.6926098018672304
106,2020/06/24/22:54:14.643471,38915,1593006854,643151760,,,0,1593006848,-171.5270996,-425.2662048,-82.44585419,153.30010990000002,0.150702447,-0.128815711,0.21157199100000001,1.0,0.0,-4.461599827,0.0784570351,1593006854.64315,2.3622422049621643
107,2020/06/24/22:54:14.743453,38916,1593006854,743138313,,,0,1593006848,-174.7219696,-425.1165466,-82.4342041,153.6993256,0.143910557,-0.0769045427,0.220381916,1.0,0.0,-5.475599766,0.0791145116,1593006854.74314,2.1827739979138725
108,2020/06/24/22:54:14.843455,38917,1593006854,843141794,,,0,1593006848,-179.3360748,-424.8801575,-82.42485046,154.2643433,0.160318986,-0.0021267666,0.196513772,1.0,0.0,-4.461599827,0.0800645128,1593006854.8431401,1.898734018530635
109,2020/06/24/22:54:14.943458,38918,1593006854,943139076,,,0,1593006848,-182.9355774,-424.6790771000001,-82.41763306,154.69859309999998,0.13871377699999998,-0.00985414255,0.192175165,1.0,0.0,-4.562999725,0.0808054134,1593006854.94314,1.662836791784069
110,2020/06/24/22:54:15.043463,38919,1593006855,43144702,,,0,1593006848,-187.18975830000002,-424.4223328,-82.40863037,155.2136993,0.17669913199999998,-0.000684550498,0.22503396899999997,1.0,0.0,-4.664400101,0.0816817731,1593006855.04314,1.3817466495122714
111,2020/06/24/22:54:15.143469,38920,1593006855,143138647,,,0,1593006848,-191.8451233,-424.1171875,-82.39846039,155.7654877,0.133705765,0.0134677701,0.220588192,1.0,0.0,-4.664400101,0.0826402754,1593006855.14314,1.0942770917919722
112,2020/06/24/22:54:15.243566,38921,1593006855,243217229,,,0,1593006848,-196.51525880000003,-423.78576660000004,-82.38873291,156.315033,0.150213569,-0.011747717900000001,0.212573588,1.0,0.0,-4.562999725,0.0836020559,1593006855.2432199,0.8257937672403912
113,2020/06/24/22:54:15.343445,38922,1593006855,343143463,,,0,1593006848,-200.28793340000001,-423.4997253,-82.38195038,156.75621030000002,0.12485715,-0.0204660706,0.211777613,1.0,0.0,-4.25880003,0.0843802541,1593006855.3431401,0.6241027430645076
114,2020/06/24/22:54:15.443466,38923,1593006855,443132162,,,0,1593006848,-205.89921569999998,-423.0447388,-82.37477875,157.4140625,0.15084514,-0.011736161100000001,0.20875217,1.0,0.0,-4.157400131,0.0855371878,1593006855.44313,0.3491903218016487
115,2020/06/24/22:54:15.543468,38924,1593006855,543131828,,,0,1593006848,-209.6950989,-422.71722410000007,-82.37193298,157.855545,0.14144659,-0.00572607061,0.214261442,1.0,0.0,-4.360199451000001,0.0863196403,1593006855.5431302,0.18040131690422315
116,2020/06/24/22:54:15.643461,38925,1593006855,643126487,,,0,1593006848,-213.5001831,-422.3732605000001,-82.3702774,158.294693,0.149199843,0.0388142653,0.219903022,1.0,0.0,-4.25880003,0.0871068016,1593006855.64313,0.025774270310333094
117,2020/06/24/22:54:15.743488,38926,1593006855,743155241,,,0,1593006848,-219.29069520000002,-421.8198853,-82.36826324,158.95043950000002,0.141279638,0.016168346599999998,0.20576286300000002,1.0,0.0,-4.25880003,0.08830065279999999,1593006855.74316,-0.18195413490580092
118,2020/06/24/22:54:15.843457,38927,1593006855,843120813,,,0,1593006848,-222.19363399999997,-421.52868650000005,-82.36698151,159.2795715,0.138414294,0.019722119,0.21044053100000001,1.0,0.0,-4.360199451000001,0.0889005661,1593006855.8431199,-0.27199626852410363
119,2020/06/24/22:54:15.943478,38928,1593006855,943145751,,,0,1593006848,-226.0279846,-421.1302795,-82.3655777,159.71070859999998,0.156646565,-0.0035646366899999998,0.20251034199999998,1.0,0.0,-4.360199451000001,0.08969431369999999,1593006855.94315,-0.3781908023262703
120,2020/06/24/22:54:16.043473,38929,1593006856,43138504,,,0,1593006848,-231.86210630000002,-420.4938049,-82.36371613,160.3605347,0.129867315,0.0395007841,0.20836713899999998,1.0,0.0,-4.360199451000001,0.09089948980000001,1593006856.04314,-0.5103260778624227
121,2020/06/24/22:54:16.143459,38930,1593006856,143124580,,,0,1593006848,-235.8510742,-420.0376892,-82.36093903,160.79499819999998,0.137559325,-0.0013933040900000002,0.214331016,1.0,0.0,-4.461599827,0.0917251036,1593006856.1431198,-0.5803182937755481
122,2020/06/24/22:54:16.243476,38931,1593006856,243141651,,,0,1593006848,-239.71557620000002,-419.5799255,-82.35827637,161.2227936,0.14222353699999998,0.0166701432,0.23151759800000002,1.0,0.0,-4.7657999989999995,0.09252495320000001,1593006856.24314,-0.6324104462906628
123,2020/06/24/22:54:16.343466,38932,1593006856,343135118,,,0,1593006848,-244.25679019999998,-419.0216675,-82.35560608,161.7094727,0.150821194,-0.00505112251,0.199376494,1.0,0.0,-4.664400101,0.09346529099999999,1593006856.3431401,-0.6736763638627024
124,2020/06/24/22:54:16.443461,38933,1593006856,443125963,,,0,1593006848,-248.13891600000002,-418.5269775,-82.35418701,162.12422180000002,0.140522063,-0.00603822572,0.217407897,1.0,0.0,-4.461599827,0.0942687094,1593006856.44313,-0.69149652914103
125,2020/06/24/22:54:16.543466,38934,1593006856,543131113,,,0,1593006848,-252.1631622,-417.99719239999996,-82.3531723,162.55439760000002,0.132855162,0.0193826985,0.232331753,1.0,0.0,-4.157400131,0.0951032341,1593006856.5431302,-0.6931504794333037
126,2020/06/24/22:54:16.643464,38935,1593006856,643129110,,,0,1593006848,-257.1377258,-417.31826780000006,-82.35256958,163.0724335,0.154717311,-0.054155349699999994,0.21090467300000001,1.0,0.0,-4.157400131,0.0961362794,1593006856.64313,-0.6710684574795936
127,2020/06/24/22:54:16.743458,38936,1593006856,743142366,,,0,1593006848,-263.7444153,-416.3754883,-82.35388184,163.75953669999998,0.16368223699999998,-0.016886006999999998,0.225215301,1.0,0.0,-3.75180006,0.09750720859999999,1593006856.74314,-0.5998726957263301
128,2020/06/24/22:54:16.843452,38937,1593006856,843142747,,,0,1593006848,-266.7175293,-415.9361877,-82.35424042,164.05847169999998,0.110745102,-0.00271519739,0.200780675,1.0,0.0,-3.244799852,0.09812567380000001,1593006856.8431401,-0.5529701707033048
129,2020/06/24/22:54:16.943455,38938,1593006856,943150043,,,0,1593006848,-271.862854,-415.1551209,-82.35456848,164.5869293,0.12034399800000001,0.0186254904,0.18582868600000002,1.0,0.0,-2.737799883,0.09919480230000001,1593006856.94315,-0.4513103083699541
130,2020/06/24/22:54:17.043478,38939,1593006857,43167114,,,0,1593006848,-274.4402771,-414.7546387,-82.35451508,164.8427887,0.13064867300000002,-0.021613677999999997,0.17057603600000001,1.0,0.0,-2.839199781,0.0997310057,1593006857.04317,-0.3910738991776111
131,2020/06/24/22:54:17.143457,38940,1593006857,143154621,,,0,1593006848,-280.6936035,-413.7592468,-82.35575867,165.47666930000003,0.10616441800000001,0.005994163449999999,0.175731838,1.0,0.0,-2.636399984,0.10103279400000001,1593006857.14315,-0.22186475950421383
132,2020/06/24/22:54:17.243578,38941,1593006857,243232488,,,0,1593006848,-284.37280269999997,-413.15905760000004,-82.35660553,165.8448181,0.14435435800000002,0.0110047441,0.151776567,1.0,0.0,-2.2307999130000002,0.101798587,1593006857.24323,-0.1073169163087136
133,2020/06/24/22:54:17.343433,38942,1593006857,343140840,,,0,1593006848,-290.3827209,-412.1583557,-82.36022949,166.4443512,0.08653631810000001,-0.0063955960800000005,0.134808466,1.0,0.0,-2.129400015,0.103051506,1593006857.3431401,0.10135917143786136
134,2020/06/24/22:54:17.443436,38943,1593006857,443112134,,,0,1593006848,-294.21655269999997,-411.50787349999996,-82.36445618,166.8221436,0.143179744,-0.00046254822500000004,0.119234748,1.0,0.0,-1.825199962,0.10385016400000001,1593006857.44311,0.2469503446257319
135,2020/06/24/22:54:17.543437,38944,1593006857,543118953,,,0,1593006848,-299.15640260000004,-410.6574402,-82.36949921,167.3025818,0.125214279,0.00812133495,0.0899571031,1.0,0.0,1.0647000070000001,0.10488039999999998,1593006857.54312,0.44605073030247805
136,2020/06/24/22:54:17.643452,38945,1593006857,643128871,,,0,1593006848,-301.7685547,-410.20352169999995,-82.37171173,167.5593719,0.141716555,-0.0304018483,0.0333048962,1.0,0.0,2.8898997310000003,0.105426326,1593006857.64313,0.5555158672942884
137,2020/06/24/22:54:17.743442,38946,1593006857,743130445,,,0,1593006848,-309.07525630000004,-408.9283142,-82.37875366,168.2631073,0.10696887199999999,0.0368906856,-0.0281023066,1.0,0.0,1.368899941,0.10694997,1593006857.74313,0.8678314848605728
138,2020/06/24/22:54:17.843444,38947,1593006857,843123674,,,0,1593006848,-312.80920410000004,-408.2768555,-82.3802948,168.6139679,0.103214167,-0.0113369189,-0.0243467446,1.0,0.0,-1.115399957,0.10773071599999999,1593006857.8431199,1.028359611847998
139,2020/06/24/22:54:17.943429,38948,1593006857,943117141,,,0,1593006848,-316.9673767,-407.5526733,-82.37966156,169.0032654,0.10295917800000001,0.01770005,-0.0406778976,1.0,0.0,-1.216799974,0.10859791199999999,1593006857.94312,1.2054566979362242
140,2020/06/24/22:54:18.043568,38949,1593006858,43176889,,,0,1593006848,-321.6918335,-406.73190310000007,-82.37728882,169.4437561,0.140624285,-0.008231007490000001,-0.00259288214,1.0,0.0,-1.723799944,0.109585658,1593006858.04318,1.4054460562117563
141,2020/06/24/22:54:18.143445,38950,1593006858,143132448,,,0,1593006848,-325.8706665,-406.0063171,-82.37571716,169.8225555,0.11063762,-0.009594995529999999,0.036894399700000004,1.0,0.0,-1.115399957,0.110458024,1593006858.14313,1.5837939846323619
142,2020/06/24/22:54:18.243436,38951,1593006858,243120908,,,0,1593006848,-330.6178589,-405.1809692,-82.37567902,170.2563019,0.127482072,-0.0121367648,0.0407551453,1.0,0.0,-1.216799974,0.11144772900000001,1593006858.24312,1.7911664672932175
143,2020/06/24/22:54:18.343422,38952,1593006858,343116521,,,0,1593006848,-334.81604,-404.4483337,-82.37674713,170.6312561,0.130616173,-0.0435135812,0.032537154900000004,1.0,0.0,-1.4195998909999998,0.112326853,1593006858.3431199,1.9796255849824327
144,2020/06/24/22:54:18.443434,38953,1593006858,443118572,,,0,1593006848,-339.58438110000003,-403.6112976,-82.38246155,171.06274409999997,0.107019566,-0.007725329140000001,0.0651212409,1.0,0.0,-1.013999939,0.11332403099999999,1593006858.44312,2.202594178574328
145,2020/06/24/22:54:18.543396,38954,1593006858,543130874,,,0,1593006848,-345.91186519999997,-402.4902954,-82.39360809,171.6229553,0.129044443,-0.022671922999999997,0.0666300133,1.0,0.0,-1.115399957,0.11464402800000001,1593006858.5431302,2.5183235569854574
146,2020/06/24/22:54:18.643370,38955,1593006858,643107652,,,0,1593006848,-350.70477289999997,-401.63208010000005,-82.40365601,172.0372467,0.0891384482,0.13802371900000002,0.08754573759999999,1.0,0.0,-1.318199992,0.11564473800000001,1593006858.64311,2.7525398564101513
147,2020/06/24/22:54:18.743407,38956,1593006858,743118047,,,0,1593006848,-354.94195560000003,-400.8665161,-82.4041748,172.39022830000002,0.104165114,0.0514895581,0.0427535176,1.0,0.0,-1.4195998909999998,0.11653205800000001,1593006858.74312,2.9273036603751956
148,2020/06/24/22:54:18.843420,38957,1593006858,843120574,,,0,1593006848,-359.753418,-399.9901123,-82.39737701,172.79309080000002,0.11627510199999999,-0.0138769979,0.0799427778,1.0,0.0,-1.4195998909999998,0.117537424,1593006858.8431199,2.8948058127217804
149,2020/06/24/22:54:18.943402,38958,1593006858,943113565,,,0,1593006848,-364.57476810000003,-399.1045227,-82.38792419,173.19010930000002,0.114912555,-0.0289483108,0.0742657259,1.0,0.0,-1.4195998909999998,0.11854859400000001,1593006858.94311,2.660804577049281
150,2020/06/24/22:54:19.043459,38959,1593006859,43133974,,,0,1593006848,-366.704895,-398.71087650000004,-82.38388824,173.36811830000002,0.112338379,-0.0257117581,0.0770660192,1.0,0.0,-1.622399926,0.11899469800000001,1593006859.0431302,2.524343736185969
151,2020/06/24/22:54:19.143422,38960,1593006859,143131494,,,0,1593006848,-374.2459412,-397.3035584,-82.37586212,173.9467773,0.0873787403,0.0557644181,0.132929191,0.845550001,0.0,-3.244799852,0.120574489,1593006859.14313,1.9915064615667888
152,2020/06/24/22:54:19.243577,38961,1593006859,243242740,,,0,1593006848,-376.3833008,-396.8997498,-82.37335205,174.0553284,0.0507573336,0.0308703575,0.129101366,0.8536499740000001,0.0,-2.839199781,0.12101946,1593006859.24324,1.838996856904412
153,2020/06/24/22:54:19.343426,38962,1593006859,343135595,,,0,1593006848,-383.800415,-395.48037719999996,-82.36549377,174.434906,0.064745158,-0.0423607863,0.139756352,0.774950027,0.0,-2.839199781,0.122576281,1593006859.3431401,1.3110875802579995
154,2020/06/24/22:54:19.443408,38963,1593006859,443117856,,,0,1593006848,-387.6549683,-394.7305908,-82.36382294,174.5979614,0.063377738,-0.00206207437,0.148543864,0.794499993,0.0,-3.3461999889999996,0.123383202,1593006859.44312,1.0386971375616014
155,2020/06/24/22:54:19.543419,38964,1593006859,543127059,,,0,1593006848,-393.5104065,-393.5724182,-82.3628006,174.7521667,0.0136192851,0.0292676315,0.19688724,0.477050006,0.0,-6.489599705,0.124611616,1593006859.5431302,0.6316993709696369
156,2020/06/24/22:54:19.643398,38965,1593006859,643110036,,,0,1593006848,-395.6515503,-393.1417236,-82.36196136,174.6902618,-0.08678457140000001,0.025655763199999997,0.22507205600000002,0.0,0.0,-8.416199684,0.12506175,1593006859.64311,0.4862382487558834
157,2020/06/24/22:54:19.743467,38966,1593006859,743124485,,,0,1593006848,-401.0607605,-392.0310669,-82.35903168,174.0897522,-0.161771029,-0.00651570549,0.29729712,0.0,0.00296132057,-10.95119953,0.126200303,1593006859.74312,0.13462854501616908
158,2020/06/24/22:54:19.843432,38967,1593006859,843130826,,,0,1593006848,-407.844635,-390.58032230000003,-82.35740662,172.5592346,-0.48066413399999997,0.00412228843,0.38859018700000003,0.0,0.347473264,-9.328800201,0.127627358,1593006859.84313,-0.25811008231567345
159,2020/06/24/22:54:19.943424,38968,1593006859,943126201,,,0,1593006848,-409.94430539999996,-390.1160278,-82.35762024,171.6394043,-0.66576606,-0.0651315376,0.40035033200000003,0.0,0.51445055,-6.895199776,0.12806810400000002,1593006859.94313,-0.3661458409014485
160,2020/06/24/22:54:20.043435,38969,1593006860,43133497,,,0,1593006848,-416.67999269999996,-388.5802307,-82.36144257,166.6737061,-1.088178635,-0.0609120205,0.323598444,0.0,1.0,-6.388199806,0.129492283,1593006860.0431302,-0.6709675109788222
161,2020/06/24/22:54:20.143453,38970,1593006860,143115520,,,0,1593006848,-420.6886902,-387.63516239999996,-82.36472321,163.18324280000002,-1.081287026,-0.020644661,0.399100214,0.0,1.0,-13.08059978,0.130346254,1593006860.1431198,-0.8252073220301586
162,2020/06/24/22:54:20.243463,38971,1593006860,243110179,,,0,1593006848,-424.6049194,-386.6828613,-82.36528778,159.5856018,-1.063047171,0.046688329400000006,0.45807698399999996,0.0,1.0,-8.111999512,0.131182715,1593006860.24311,-0.9505545033514442
163,2020/06/24/22:54:20.343469,38972,1593006860,343119621,,,0,1593006848,-429.80746460000006,-385.3667603,-82.35753632,154.9170685,-1.033717275,-0.0815426931,0.304931372,0.0,1.0,19.31669998,0.132303759,1593006860.3431199,-1.0677656903826582
164,2020/06/24/22:54:20.443472,38973,1593006860,443118333,,,0,1593006848,-431.66949460000006,-384.8841248,-82.35464478,153.18347169999998,-1.097353101,-0.0608055592,0.325558573,0.0,1.0,20.27999878,0.132703751,1593006860.44312,-1.0979032368936659
165,2020/06/24/22:54:20.543424,38974,1593006860,543124675,,,0,1593006848,-437.12313839999996,-383.4378357,-82.34884644,148.1029816,-1.0364149809999998,-0.0999176502,0.39954459700000006,0.0,1.0,3.092700005,0.133887485,1593006860.54312,-1.1506098235104614
166,2020/06/24/22:54:20.643406,38975,1593006860,643113374,,,0,1593006848,-440.30020139999993,-382.5683899,-82.34806824,145.0184631,-1.1318757529999999,-0.0158727225,0.432686567,0.0,1.0,-7.807799816,0.134570912,1593006860.64311,-1.1546901297382977
167,2020/06/24/22:54:20.743408,38976,1593006860,743120908,,,0,1593006848,-445.09823610000007,-381.2091675,-82.34570313,140.28286740000001,-1.042918682,-0.0818446353,0.31623587,0.0,1.0,-13.08059978,0.13560532,1593006860.74312,-1.1215624914276459
168,2020/06/24/22:54:20.843420,38977,1593006860,843127250,,,0,1593006848,-448.52795410000004,-380.2051086,-82.34398651,136.75782780000003,-1.005389214,-0.0622511096,0.30685561899999997,0.0,1.0,-24.74160004,0.136339396,1593006860.84313,-1.073900996291949
169,2020/06/24/22:54:20.943415,38978,1593006860,943124294,,,0,1593006848,-451.86367800000005,-379.2008667,-82.34288788,133.3086548,-1.003415704,-0.110132389,0.328382373,0.0,1.0,-27.78359985,0.137052223,1593006860.94312,-1.0115754547114284
170,2020/06/24/22:54:21.043480,38979,1593006861,43137788,,,0,1593006848,-455.4143372,-378.10098270000003,-82.34305573,129.38554380000002,-1.137983918,-0.0431767292,0.29541844100000003,0.0,1.0,-23.82899857,0.137803331,1593006861.04314,-0.9400158148812852
171,2020/06/24/22:54:21.143449,38980,1593006861,143117666,,,0,1593006848,-459.73663330000005,-376.7156677,-82.33800507,124.45281979999999,-1.028570533,-0.10914093300000001,0.326727986,0.0,1.0,-33.86759949,0.138705358,1593006861.1431198,-0.8531749434046507
172,2020/06/24/22:54:21.243590,38981,1593006861,243230581,,,0,1593006848,-462.3601379,-375.84475710000004,-82.33656311,121.6132355,-1.01246047,-0.0950214341,0.44773611399999996,0.0,1.0,-51.40979767,0.139244303,1593006861.24323,-0.8186533535533287
173,2020/06/24/22:54:21.343441,38982,1593006861,343132734,,,0,1593006848,-464.9141846,-374.9651489,-82.33502197,118.9723206,-0.9943699840000001,-0.183131978,0.638255596,0.0,1.0,-57.59519959,0.139762387,1593006861.34313,-0.858895871196606
174,2020/06/24/22:54:21.443456,38983,1593006861,443149089,,,0,1593006848,-467.7644959,-373.93945310000004,-82.33372498,116.02840420000001,-0.7907456759999999,-0.123453699,0.6327029470000001,0.0,1.0,-48.26639557,0.140334472,1593006861.44315,-0.9939146614317174
175,2020/06/24/22:54:21.543459,38984,1593006861,543160676,,,0,1593006848,-471.22875980000003,-372.62335210000003,-82.33274841,112.22318270000001,-0.8500723840000001,-0.0118556442,0.70418328,0.0,1.0,-44.21039963,0.14101603599999998,1593006861.54316,-1.4117712817923205
176,2020/06/24/22:54:21.643463,38985,1593006861,643168687,,,0,1593006848,-475.04058839999993,-371.0673523,-82.31947327,107.70504,-0.886032403,0.0674546435,0.737319708,0.0,1.0,-50.69999695,0.141746223,1593006861.6431699,-2.1523511212116184
177,2020/06/24/22:54:21.743451,38986,1593006861,743147373,,,0,1593006848,-476.59024050000005,-370.3961792,-82.30886841,105.9053268,-0.811783075,-0.0031266612899999995,0.752314568,0.0,1.0,-52.52519608,0.14204086400000002,1593006861.74315,-2.5885829279479404
178,2020/06/24/22:54:21.843455,38987,1593006861,843150138,,,0,1593006848,-478.9696655,-369.31961060000003,-82.29087067,103.3221207,-0.766867518,-0.0960865244,0.682908297,0.0,0.721233547,-59.82600021,0.142494485,1593006861.84315,-3.353168471522249
179,2020/06/24/22:54:21.943472,38988,1593006861,943167924,,,0,1593006848,-481.49765010000004,-368.1113892,-82.27611542,100.7567215,-0.615079343,-0.120501526,0.7288045879999999,0.0,0.44164487700000005,-74.73179626,0.142968684,1593006861.9431698,-4.3316405882020526
180,2020/06/24/22:54:22.043500,38989,1593006862,43179512,,,0,1593006848,-485.1104431,-366.25366210000004,-82.2715683,98.67240906,-0.28059208399999996,-0.302203655,0.533020496,0.0,0.0618920512,-79.19339752,0.143626422,1593006862.04318,-6.1081853638722
181,2020/06/24/22:54:22.143443,38990,1593006862,143135070,,,0,1593006848,-487.1942444,-365.1169128,-82.28218079,97.83785248,-0.23782795699999998,0.168080077,0.70388329,0.0,0.0415282398,-81.42419434,0.144007429,1593006862.14314,-7.237886841479245
182,2020/06/24/22:54:22.243474,38991,1593006862,243165254,,,0,1593006848,-488.74597170000004,-364.2331848,-82.28507233,96.98860168,-0.463753939,0.032948792000000005,0.828071177,0.0,0.00891173817,-81.77909088,0.14429204199999998,1593006862.24317,-8.200777859599922
183,2020/06/24/22:54:22.343463,38992,1593006862,343155860,,,0,1593006848,-491.9935913,-362.2443237,-82.24738312,93.38353729,-0.86369288,0.059161990899999996,0.7127104999999999,0.0,0.00213602511,-79.39620209,0.14490293,1593006862.34316,-10.245811381684488
184,2020/06/24/22:54:22.443429,38993,1593006862,443127393,,,0,1593006848,-493.65872189999993,-361.150116,-82.22161865,90.86750793,-0.8302404879999999,-0.42505639799999995,0.590145946,0.0,0.000747051381,-87.00119781,0.145211786,1593006862.44313,-11.319794483416098
185,2020/06/24/22:54:22.543465,38994,1593006862,543162584,,,0,1593006848,-495.6196899,-359.8028564,-82.21960449,87.82124329,-0.870556474,-0.0625225529,0.865908027,0.0,0.0,-90.6516037,0.145565063,1593006862.54316,-12.672476214429414
186,2020/06/24/22:54:22.643416,38995,1593006862,643128633,,,0,1593006848,-498.23846439999994,-357.8415833,-82.20883942,83.28783417,-0.814129233,0.167625472,0.901052475,0.0,0.0,-82.69169617,0.146057189,1593006862.64313,-14.528788254974659
187,2020/06/24/22:54:22.743463,38996,1593006862,743149757,,,0,1593006848,-499.7204894999999,-356.6340942,-82.18478394,80.89372253,-0.767035365,-0.221725494,0.637583554,0.0,0.0,-87.71099854,0.146339759,1593006862.74315,-15.590503187828507
188,2020/06/24/22:54:22.843486,38997,1593006862,843174934,,,0,1593006848,-501.4300842,-355.17117310000003,-82.17734528,78.19792938,-0.7435034509999999,-0.38541004100000004,0.5802321429999999,0.0,0.0,-96.33000183,0.14668192,1593006862.84317,-16.886170520406733
189,2020/06/24/22:54:22.943485,38998,1593006862,943185329,,,0,1593006848,-503.0396423,-353.71380619999996,-82.19777679,75.31710815,-0.824844241,0.205524504,0.86008203,0.0,0.0,-92.42610168,0.147005945,1593006862.94319,-18.10153394865848
190,2020/06/24/22:54:23.043470,38999,1593006863,43131828,,,0,1593006848,-503.9762573,-352.81149289999996,-82.20225525,73.59543609999999,-0.733732522,0.320358008,0.828742683,0.0,0.0,-82.74239349,0.14720884,1593006863.0431302,-18.825539063559205
191,2020/06/24/22:54:23.143454,39000,1593006863,143152713,,,0,1593006848,-505.15957639999993,-351.6048889,-82.19048309,71.52765656,-0.66833061,0.0732307285,0.690469265,0.0,0.0,-74.27549744,0.14746955,1593006863.14315,-19.75743449284275
192,2020/06/24/22:54:23.243618,39001,1593006863,243263483,,,0,1593006848,-506.5083923,-350.14108280000005,-82.17359161,69.20346069,-0.6278235320000001,-0.365330964,0.5358849760000001,0.0,0.0,-81.06929779,0.14779487300000002,1593006863.24326,-20.81528305421602
193,2020/06/24/22:54:23.343457,39002,1593006863,343152284,,,0,1593006848,-508.2987671,-348.0506592,-82.20182037,65.76187897,-0.6711997390000001,0.026047937599999998,0.826826572,0.0,0.0,-87.81240082,0.148248196,1593006863.34315,-22.22368979333171
194,2020/06/24/22:54:23.443418,39003,1593006863,443112850,,,0,1593006848,-508.9684753,-347.2011108,-82.21752167,64.28636932,-0.667830884,0.241981328,0.900712609,0.0,0.0,-82.0326004,0.148445234,1593006863.44311,-22.738640179289806
195,2020/06/24/22:54:23.543426,39004,1593006863,543126583,,,0,1593006848,-510.4458923,-345.12054439999997,-82.21694183,61.01745987,-0.549188972,0.0703677833,0.766305268,0.0,0.0,-70.47299957,0.148928702,1593006863.5431302,-23.847868316482067
196,2020/06/24/22:54:23.643402,39005,1593006863,643103837,,,0,1593006848,-510.80209349999996,-344.5700378,-82.21109772,60.2244339,-0.5626490120000001,-0.0507787839,0.7057243590000001,0.0,0.0,-73.21080017,0.149063423,1593006863.6431,-24.112103444920475
197,2020/06/24/22:54:23.743413,39006,1593006863,743115425,,,0,1593006848,-512.0340576,-342.5141907,-82.21257782,57.37869644,-0.556602955,-0.334831834,0.583897471,0.0,0.0,-84.3647995,0.149538606,1593006863.74312,-25.001065312253388
198,2020/06/24/22:54:23.843423,39007,1593006863,843116998,,,0,1593006848,-512.9358521,-340.8247986,-82.25546265,54.913024899999996,-0.5857719779999999,0.0417099781,0.747040033,0.0,0.0,-77.01329803,0.149951607,1593006863.8431199,-25.597917101179213
199,2020/06/24/22:54:23.943479,39008,1593006863,943159103,,,0,1593006848,-513.3459473,-339.96981810000005,-82.27648926,53.66847610000001,-0.493792921,0.206932157,0.745178819,0.0,0.0,-64.08479309,0.150150701,1593006863.94316,-25.834043030761862
200,2020/06/24/22:54:24.043505,39009,1593006864,43172121,,,0,1593006848,-513.9534911999999,-338.5593262,-82.29051209,51.88830185,-0.42935860200000003,0.222790927,0.618305564,0.341049999,0.0,-42.3852005,0.15052069699999998,1593006864.04317,-26.140261323582283
201,2020/06/24/22:54:24.143458,39010,1593006864,143139600,,,0,1593006848,-514.382019,-337.443573,-82.28362274,50.7134819,-0.37458905600000003,0.0970009342,0.500744164,0.6347,0.0,-33.15779877,0.150812596,1593006864.14314,-26.311183078383507
202,2020/06/24/22:54:24.243492,39011,1593006864,243170499,,,0,1593006848,-514.8502197,-336.10443119999996,-82.26747131,49.58011627,-0.280605763,-0.096825026,0.268653452,0.926699996,0.0,-28.69619942,0.151162758,1593006864.24317,-26.468233099137418
203,2020/06/24/22:54:24.343491,39012,1593006864,343173742,,,0,1593006848,-515.4259643999999,-334.3196411,-82.26402283,48.38439178,-0.278367311,-0.142722845,0.151950151,1.0,0.0,-19.0632,0.151666239,1593006864.34317,-26.63757486095738
204,2020/06/24/22:54:24.443465,39013,1593006864,443147659,,,0,1593006848,-515.7890014999999,-333.1350708,-82.27513885,47.61980438,-0.23671120399999998,-0.0131204901,0.107252605,1.0,0.0,-9.531599997999999,0.152011931,1593006864.44315,-26.736548807409875
205,2020/06/24/22:54:24.543477,39014,1593006864,543155908,,,0,1593006848,-516.1037598,-332.07836910000003,-82.2854538,46.96673203,-0.232602969,0.0579124205,0.09939172859999999,1.0,0.0,-1.115399957,0.152332261,1593006864.54316,-26.825898782854804
206,2020/06/24/22:54:24.643483,39015,1593006864,643165111,,,0,1593006848,-516.4523926,-330.88595580000003,-82.29008484,46.28722382,-0.198103055,0.12486284199999999,0.0589275509,1.0,0.0,4.715099812,0.15267889199999998,1593006864.6431699,-26.91855910907722
207,2020/06/24/22:54:24.743487,39016,1593006864,743164062,,,0,1593006848,-516.7834473,-329.7461243,-82.28372192,45.68264771,-0.159459531,0.09686657039999999,0.020203754299999998,1.0,0.0,6.337499619,0.152968928,1593006864.74316,-26.984680743832275
208,2020/06/24/22:54:24.843472,39017,1593006864,843157052,,,0,1593006848,-517.1948242,-328.3328247,-82.26633453,44.97877121,-0.126545995,0.00536283664,-0.047889452400000004,1.0,0.0,2.991299868,0.153318435,1593006864.84316,-27.005553523379103
209,2020/06/24/22:54:24.943460,39018,1593006864,943154335,,,0,1593006848,-517.5714722,-327.0476379,-82.2506485,44.363864899999996,-0.190753728,-0.101012386,-0.00288926065,1.0,0.0,0.912599981,0.15367189,1593006864.94315,-26.971566592750563
210,2020/06/24/22:54:25.043487,39019,1593006865,43165445,,,0,1593006848,-517.8619995,-326.0602722,-82.24614716,43.90336227,-0.170291215,-0.151784435,-0.0209128726,1.0,0.0,1.7744998930000002,0.153945208,1593006865.04317,-26.888361621184234
211,2020/06/24/22:54:25.143465,39020,1593006865,143152475,,,0,1593006848,-518.2229004,-324.84103389999996,-82.25482178,43.337390899999995,-0.153799996,-0.12775425599999998,-0.0135141257,1.0,0.0,0.304199994,0.15427947,1593006865.14315,-26.686083149919384
212,2020/06/24/22:54:25.243632,39021,1593006865,243273019,,,0,1593006848,-518.4785156,-323.9805298,-82.26933289,42.89735031,-0.144616708,-0.0649864078,0.010112606,1.0,0.0,2.078700066,0.154530957,1593006865.24327,-26.4736917709715
213,2020/06/24/22:54:25.343470,39022,1593006865,343167066,,,0,1593006848,-518.8712158,-322.6607971,-82.29676819,41.74643326,-0.456725657,0.0347108208,-0.00391902775,0.39235001799999997,0.0,1.0647000070000001,0.15489845,1593006865.34317,-26.0207803034358
214,2020/06/24/22:54:25.443465,39023,1593006865,443176031,,,0,1593006848,-519.2886963000001,-321.2573242,-82.31858063,40.1022377,-0.37235599799999997,0.112148784,-0.006359733639999999,0.7077499629999999,0.0,1.368899941,0.155295849,1593006865.44318,-25.44964227218913
215,2020/06/24/22:54:25.543457,39024,1593006865,543165445,,,0,1593006848,-519.5241089,-320.46679689999996,-82.32262421,39.19113541,-0.353441089,0.114388362,0.00574927777,0.99484998,0.0,0.912599981,0.155510589,1593006865.54317,-25.082107576304857
216,2020/06/24/22:54:25.643442,39025,1593006865,643156290,,,0,1593006848,-519.8865967,-319.254364,-82.31622314,39.12815475,0.148411661,0.0965554491,-0.0319262855,1.0,0.0,3.194099903,0.155857161,1593006865.6431599,-24.463365502447232
217,2020/06/24/22:54:25.743450,39026,1593006865,743162155,,,0,1593006848,-520.1224365,-318.4697876,-82.30523682,39.44944763,0.0579216965,0.056854173499999994,-0.0151218325,1.0,0.0,8.162699699,0.156083733,1593006865.74316,-24.025181989475236
218,2020/06/24/22:54:25.843451,39027,1593006865,843165159,,,0,1593006848,-520.4375610000001,-317.4285278,-82.28722382,39.63104248,0.0471920148,-0.058666233,-0.0504315123,1.0,0.0,12.11729908,0.156398177,1593006865.84317,-23.40784492923926
219,2020/06/24/22:54:25.943444,39028,1593006865,943164110,,,0,1593006848,-520.7759399,-316.3221436,-82.27470398,39.70193863,0.0251219124,-0.126396716,-0.0552788079,1.0,0.0,13.63829994,0.156688094,1593006865.94316,-22.739765383306008
220,2020/06/24/22:54:26.043452,39029,1593006866,43160676,,,0,1593006848,-521.1680298,-315.0543518,-82.27524567,39.93494415,0.09463912990000001,-0.0674748272,-0.030722007200000002,1.0,0.0,16.37609863,0.15700028800000002,1593006866.04316,-21.949290944347684
221,2020/06/24/22:54:26.143439,39030,1593006866,143157243,,,0,1593006848,-521.4164429,-314.2573242,-82.28081512,40.18738174,0.120917149,-0.0226732381,0.0197800715,1.0,0.0,18.91109848,0.15718466,1593006866.1431599,-21.451662919498794
222,2020/06/24/22:54:26.243456,39031,1593006866,243170261,,,0,1593006848,-521.8203125,-312.9708557,-82.29109192,40.69722366,0.10547293699999999,0.0443359427,-0.041805014,1.0,0.0,18.251998899999997,0.157480985,1593006866.24317,-20.611561017560522
223,2020/06/24/22:54:26.343446,39032,1593006866,343162775,,,0,1593006848,-522.1193848,-312.0295715,-82.29521942,40.93890762,0.07497266679999999,0.0306615196,-0.047625701900000005,1.0,0.0,15.05789948,0.15770191,1593006866.34316,-20.002124017019195
224,2020/06/24/22:54:26.443445,39033,1593006866,443161487,,,0,1593006848,-522.4544678,-310.9877625,-82.2959671,41.10792923,0.0585110337,0.06887423990000001,-0.033463601,1.0,0.0,14.14529991,0.157966673,1593006866.44316,-19.31264378497942
225,2020/06/24/22:54:26.543463,39034,1593006866,543175697,,,0,1593006848,-522.8059082,-309.910614,-82.29077911,41.27492905,0.052735730999999994,0.0162979513,-0.0526213348,1.0,0.0,13.23269939,0.158216015,1593006866.54318,-18.604824310178593
226,2020/06/24/22:54:26.643440,39035,1593006866,643159389,,,0,1593006848,-523.1636353,-308.8320313,-82.28372955,41.25902939,-0.178818062,-0.0304462425,-0.0670471638,0.9120500090000001,0.0,13.84109974,0.158468559,1593006866.6431599,-17.87616657349548
227,2020/06/24/22:54:26.743451,39036,1593006866,743168592,,,0,1593006848,-523.4789429,-307.8985291,-82.28038788,40.32207108,-0.31601733,-0.0913566202,-0.0659690052,0.573099971,0.0,12.32009983,0.158692718,1593006866.74317,-17.240169826192105
228,2020/06/24/22:54:26.843446,39037,1593006866,843164443,,,0,1593006848,-523.9091187,-306.6516113,-82.28746796,38.92754364,-0.32148534100000004,-0.0953593478,-0.0759252012,0.573599994,0.0,10.95119953,0.158974305,1593006866.84316,-16.391473357430097
229,2020/06/24/22:54:26.943446,39038,1593006866,943163394,,,0,1593006848,-524.1850586,-305.8664246,-82.29912567,38.01494217,-0.310915917,-0.0422748402,-0.0511997081,0.577749968,0.0,11.81309986,0.15916273,1593006866.94316,-15.845899345174915
230,2020/06/24/22:54:27.043457,39039,1593006867,43162822,,,0,1593006848,-524.6754761,-304.4969177,-82.32558441,36.40803146,-0.21838039199999998,0.000126960687,-0.07521788780000001,0.603399992,0.0,13.89179993,0.15946447800000002,1593006867.04316,-14.887798676308355
231,2020/06/24/22:54:27.143433,39040,1593006867,143151283,,,0,1593006848,-524.9779053,-303.6699829,-82.34138489,36.67414856,0.151156589,0.0784205869,-0.0049558356400000005,0.911049962,0.0,18.251998899999997,0.15964631699999998,1593006867.14315,-14.312170600249155
232,2020/06/24/22:54:27.243605,39041,1593006867,243257999,,,0,1593006848,-525.2548218000001,-302.9197998,-82.35095978,37.06509399,0.125606269,0.10258463,-0.028767481400000003,1.0,0.0,26.6174984,0.159817517,1593006867.24326,-13.785574451885502
233,2020/06/24/22:54:27.343443,39042,1593006867,343164443,,,0,1593006848,-525.7334595,-301.6372375,-82.35314178,37.54366302,0.0659026355,0.0865338892,-0.0491010621,1.0,0.0,42.33449936,0.160090566,1593006867.34316,-12.879007455005878
234,2020/06/24/22:54:27.443429,39043,1593006867,443147420,,,0,1593006848,-526.0664063,-300.75576780000006,-82.34558105,37.79341507,0.036104109100000004,0.0482077599,-0.036732323500000004,1.0,0.0,51.76469803,0.16028994300000002,1593006867.44315,-12.258387076744093
235,2020/06/24/22:54:27.543467,39044,1593006867,543161153,,,0,1593006848,-526.3139648,-300.1069336,-82.33714294,37.94598389,0.0552112013,0.0258981045,-0.0651073605,1.0,0.0,56.83469772,0.160426036,1593006867.54316,-11.801697844929393
236,2020/06/24/22:54:27.643459,39045,1593006867,643156528,,,0,1593006848,-526.8764648,-298.65811160000004,-82.3167038,38.15385437,0.0751922876,-0.0410496704,-0.0907803252,1.0,0.0,68.49569702,0.16073063,1593006867.6431599,-10.786487013953671
237,2020/06/24/22:54:27.743448,39046,1593006867,743146181,,,0,1593006848,-527.2294312,-297.77008060000003,-82.30677032,38.27730179,0.0392665938,-0.044949986,-0.0719252601,1.0,0.0,86.24069214,0.160915568,1593006867.74315,-10.167997895236972
238,2020/06/24/22:54:27.843464,39047,1593006867,843162298,,,0,1593006848,-527.5054321,-297.0895691,-82.3015213,38.348526,0.032479167,-0.06561784450000001,-0.110468358,1.0,0.0,103.6814957,0.161065295,1593006867.84316,-9.696350217486854
239,2020/06/24/22:54:27.943453,39048,1593006867,943156480,,,0,1593006848,-528.0730591,-295.7254334,-82.29515839,38.70256805,0.0739369392,-0.0214531198,-0.0928142667,0.7649500370000001,0.0,121.7306976,0.161351293,1593006867.94316,-8.763087223082804
240,2020/06/24/22:54:28.043452,39049,1593006868,43159723,,,0,1593006848,-528.4793091,-294.77096560000007,-82.29172516,39.1013031,0.0208935477,0.0550988801,-0.0207484346,0.299300015,0.0,121.8320999,0.161550939,1593006868.04316,-8.114395380874432
241,2020/06/24/22:54:28.143450,39050,1593006868,143149614,,,0,1593006848,-528.7767944,-294.0789795,-82.28620911,39.50940323,0.18621438699999998,0.0300898813,-0.08117681,0.2588,0.0,126.29370120000002,0.161693528,1593006868.14315,-7.645192325897614
