time,.header.seq,.header.stamp.secs,.header.stamp.nsecs,.header.frame_id,.identifier.data,.size.data,.TimeStamp.data,PosLocalX,PosLocalY,Height,GPS_Speed,AccelX,AccelY,AccelZ,PedalPosAcc,PedalPosBrk,AngleSteer,carPositionNormalized,TimeStamp
2020/06/24/21:10:10.845201,1,1593000610,844659566,,,0,1593000576,-137.4671783,-217.6737366,5.554719925,89.54751587,0.319168836,-0.0290986151,0.00118072331,1,0,0.152099997,0.054740496,1593000610.84466
2020/06/24/21:10:10.854893,2,1593000610,854587793,,,0,1593000576,-137.5827637,-217.8657532,5.554609299,89.65131378,0.309260368,-0.0209305715,-0.00448903441,1,0,-0.101399995,0.0548312776,1593000610.85459
2020/06/24/21:10:10.945861,3,1593000610,945435285,,,0,1593000576,-138.5121765,-219.4095917,5.553245068,90.4516449,0.310613006,-0.00232674181,-0.00228568912,1,0,0.304199994,0.0555642135,1593000610.94544
2020/06/24/21:10:11.045765,4,1593000611,45437097,,,0,1593000576,-139.7622986,-221.4859314,5.552046299,91.17050171,0.150587961,-0.00362647045,0.00378224254,1,0,0.304199994,0.0565517023,1593000611.04544
2020/06/24/21:10:11.145612,5,1593000611,145334959,,,0,1593000576,-140.5473175,-222.7900085,5.551624775,91.4280777,0.13002573,-0.0236807186,-0.0223398618,1,0,2.180099726,0.0571711659,1593000611.14534
2020/06/24/21:10:11.245800,6,1593000611,245451211,,,0,1593000576,-142.1986542,-225.5380859,5.548239708,91.68981934,0.0114521626,-0.0287068896,0.00259645144,0.840449989,0,-1.115399957,0.0584767759,1593000611.24545
2020/06/24/21:10:11.345690,7,1593000611,345378637,,,0,1593000576,-143.4576721,-227.634964,5.546382904,91.72798157,0.0163093731,0.0361251049,-0.0275366828,0.903949976,0,2.534999847,0.0594729446,1593000611.34538
2020/06/24/21:10:11.445627,8,1593000611,445354461,,,0,1593000576,-145.1069641,-230.3887634,5.55039835,91.71829224,0.0166909024,-0.059121497,-0.0351748094,0.863649964,0,2.534999847,0.0607799925,1593000611.44535
2020/06/24/21:10:11.545673,9,1593000611,545361757,,,0,1593000576,-145.6165771,-231.2418823,5.551420689,91.73627472,0.0260628965,0.0150315883,-0.0391238928,0.838949978,0,2.180099726,0.0611849055,1593000611.54536
2020/06/24/21:10:11.645623,10,1593000611,645345449,,,0,1593000576,-147.4154663,-234.2630157,5.5526824,91.70872498,0.0100173801,-0.0203116667,-0.0492784083,0.829450011,0,1.977299929,0.0626164898,1593000611.64535
2020/06/24/21:10:11.745638,11,1593000611,745347499,,,0,1593000576,-148.7788696,-236.5644989,5.552774906,91.71118164,0.00494112261,-0.0105815055,-0.049343951,1,0,2.078700066,0.0637057722,1593000611.74535
2020/06/24/21:10:11.845703,12,1593000611,845385789,,,0,1593000576,-149.5556335,-237.8807373,5.552958488,91.69715881,-0.00426540058,0.0150899813,-0.0378181301,1,0,1.825199962,0.0643288866,1593000611.84539
2020/06/24/21:10:11.945682,13,1593000611,945384740,,,0,1593000576,-151.1821899,-240.6475372,5.554704189,91.6911087,-0.0347865745,0.140809417,-0.0546781756,0.757849991,0,1.774499893,0.0656365603,1593000611.94538
2020/06/24/21:10:12.045626,14,1593000612,45347929,,,0,1593000576,-152.3773041,-242.6902466,5.564798355,91.54660034,-0.0358425975,0.052764833,-0.0441527963,0.158199996,0,1.166100025,0.0666016489,1593000612.04535
2020/06/24/21:10:12.145635,15,1593000612,145352363,,,0,1593000576,-153.6822357,-244.9286957,5.577080727,91.37388611,-0.0204806365,-0.21357353,-0.0174232461,0,0,1.216799974,0.0676554739,1593000612.14535
2020/06/24/21:10:12.245636,16,1593000612,245350837,,,0,1593000576,-154.8684998,-246.9677582,5.571696281,91.26809692,-0.0471294336,-0.094443962,-0.0323900133,0.0881500244,0,2.33220005,0.0686178505,1593000612.24535
2020/06/24/21:10:12.345637,17,1593000612,345350027,,,0,1593000576,-156.4305725,-249.6635132,5.552733421,91.11103058,-0.0397674739,0.0578191392,-0.0764967725,0,0,3.903899908,0.0698892772,1593000612.34535
2020/06/24/21:10:12.445604,18,1593000612,445335626,,,0,1593000576,-157.490448,-251.5046997,5.544826508,90.99998474,-0.0406908169,0.0886294469,-0.073707588,0,0,3.396899939,0.0707559213,1593000612.44534
2020/06/24/21:10:12.545617,19,1593000612,545337200,,,0,1593000576,-159.0697937,-254.2674713,5.542193413,90.85161591,-0.0421788953,0.00282002566,-0.0751309395,0,0,4.106699944,0.0720503554,1593000612.54534
2020/06/24/21:10:12.645555,20,1593000612,645290851,,,0,1593000576,-160.4809113,-256.756897,5.543749809,89.32878113,-0.652255058,-0.0232961848,-0.123228058,0,0,8.568299294,0.0732127056,1593000612.64529
2020/06/24/21:10:12.745610,21,1593000612,745333909,,,0,1593000576,-161.5676727,-258.6953125,5.545855045,88.64485931,-0.165020213,0.0148892114,-0.15943867,0,0,7.959899902,0.0741099939,1593000612.74533
2020/06/24/21:10:12.845622,22,1593000612,845333576,,,0,1593000576,-162.4605103,-260.3059692,5.548155785,88.20689392,-0.154466406,-0.039475102,-0.157203406,0,0,8.923199654,0.0748542771,1593000612.84533
2020/06/24/21:10:12.945641,23,1593000612,945355892,,,0,1593000576,-163.7929382,-262.7483826,5.550911903,87.57004547,-0.157643795,-0.0108797653,-0.228874922,0,0.00410641264,13.33409977,0.0759679899,1593000612.94536
2020/06/24/21:10:13.045661,24,1593000613,45367240,,,0,1593000576,-164.7179718,-264.4810791,5.552235603,87.04510498,-0.241842598,0.0107655395,-0.296244621,0,0.0666343644,19.11389923,0.0767498165,1593000613.04537
2020/06/24/21:10:13.145613,25,1593000613,145340204,,,0,1593000576,-165.749939,-266.465271,5.55419445,86.15092468,-0.304411113,-0.0229275562,-0.371090353,0,0.233511001,26.51609993,0.0776353925,1593000613.14534
2020/06/24/21:10:13.245651,26,1593000613,245368242,,,0,1593000576,-166.7087555,-268.3737793,5.555178642,84.72571564,-0.541329145,-0.0287150592,-0.436071873,0,0.395109653,32.34659958,0.0784745291,1593000613.24537
2020/06/24/21:10:13.345627,27,1593000613,345345258,,,0,1593000576,-167.8491364,-270.7568665,5.556759834,82.26804352,-0.643763602,-0.00601913221,-0.539205432,0,0.520005286,40.10369873,0.0794978961,1593000613.34535
2020/06/24/21:10:13.445658,28,1593000613,445379734,,,0,1593000576,-169.0452423,-273.4555054,5.564649105,78.9822464,-0.70805943,-0.0338215306,-0.627293766,0,0.717866302,51.35910034,0.0806278661,1593000613.44538
2020/06/24/21:10:13.545592,29,1593000613,545315742,,,0,1593000576,-169.540863,-274.6575928,5.569727421,77.2875824,-0.786638021,-0.0317566581,-0.663366973,0,0.730490983,60.58649826,0.0811218843,1593000613.54532
2020/06/24/21:10:13.645623,30,1593000613,645350217,,,0,1593000576,-170.5017853,-277.1827393,5.579678059,73.81931305,-0.673632979,-0.0238960441,-0.761332691,0,0.475914061,93.23729706,0.0821364522,1593000613.64535
2020/06/24/21:10:13.745591,31,1593000613,745288610,,,0,1593000576,-171.1386719,-279.0758667,5.586430073,71.71277618,-0.53854692,-0.0606029518,-0.820848942,0,0.315105945,100.2338943,0.0828751624,1593000613.74529
2020/06/24/21:10:13.845683,32,1593000613,845329999,,,0,1593000576,-171.7301483,-281.1086426,5.593856335,69.66897583,-0.452267528,-0.0455067009,-0.871392012,0,0.152725965,90.60089874,0.0836464241,1593000613.84533
2020/06/24/21:10:13.945682,33,1593000613,945353269,,,0,1593000576,-171.9577637,-282.002594,5.59762907,68.87165833,-0.391510189,-0.0179434232,-0.94019717,0,0.0739761218,90.39809418,0.0839789137,1593000613.94535
2020/06/24/21:10:14.045588,34,1593000614,45304059,,,0,1593000576,-172.4482574,-284.3294067,5.609413624,67.22336578,-0.301381201,-0.0546928309,-0.945914626,0,0.0792029351,96.58349609,0.08482939,1593000614.04530
2020/06/24/21:10:14.145656,35,1593000614,145339727,,,0,1593000576,-172.7474823,-286.3025208,5.61847353,65.96974945,-0.258126348,-0.0902230069,-0.913668275,0,0.0177676175,112.1990967,0.0855322704,1593000614.14534
2020/06/24/21:10:14.245671,36,1593000614,245347738,,,0,1593000576,-172.9212189,-288.0379028,5.623564243,64.95561218,-0.230314225,-0.0361517482,-0.963639379,0,0.0051252353,130.0455017,0.0861438289,1593000614.24535
2020/06/24/21:10:14.345641,37,1593000614,345335245,,,0,1593000576,-173.0111694,-289.9133606,5.627696991,63.89919662,-0.224644259,-0.0263469834,-0.94348079,0,0.000258440152,139.6784973,0.0867986754,1593000614.34534
2020/06/24/21:10:14.445631,38,1593000614,445331096,,,0,1593000576,-173.0111847,-291.2885742,5.630004406,63.13092041,-0.237680256,-0.0206010211,-0.970239878,0,0,141.7064972,0.0872733071,1593000614.44533
2020/06/24/21:10:14.545772,39,1593000614,545373678,,,0,1593000576,-172.8925629,-293.4712219,5.632941723,61.90341187,-0.244354978,-0.032407634,-0.964091659,0,0,144.1401062,0.0880185664,1593000614.54537
2020/06/24/21:10:14.645661,40,1593000614,645355224,,,0,1593000576,-172.7733612,-294.5930481,5.633684635,61.27618027,-0.22803095,-0.0539604388,-0.922740996,0,0,144.2415009,0.0884042755,1593000614.64536
2020/06/24/21:10:14.745663,41,1593000614,745357513,,,0,1593000576,-172.4408112,-296.6891785,5.632731915,60.10673523,-0.209195808,-0.0346226171,-0.920134723,0,0,147.0806885,0.0891223401,1593000614.74536
2020/06/24/21:10:14.845665,42,1593000614,845358848,,,0,1593000576,-172.0111237,-298.5751648,5.630279064,59.03245163,-0.212472558,-0.0274235457,-0.915881276,0,0,152.9618988,0.0897885934,1593000614.84536
2020/06/24/21:10:14.945703,43,1593000614,945379018,,,0,1593000576,-171.788208,-299.3772278,5.629123211,58.57791901,-0.224887595,-0.0335346162,-0.947518766,0,0,153.7731018,0.0900691748,1593000614.94538
2020/06/24/21:10:15.045729,44,1593000615,45399904,,,0,1593000576,-171.1465912,-301.3011169,5.62738657,57.42385864,-0.22229287,-0.00843602512,-0.951702595,0,0,154.381485,0.0907673836,1593000615.04540
2020/06/24/21:10:15.145709,45,1593000615,145355939,,,0,1593000576,-170.554657,-302.7505188,5.627569675,56.54560471,-0.213112801,-0.0317170098,-0.944061935,0.0322500169,0,154.888504,0.0912922546,1593000615.14536
2020/06/24/21:10:15.245894,46,1593000615,245473384,,,0,1593000576,-169.8230591,-304.2683105,5.627693653,55.98904037,-0.0160663724,-0.0549918078,-0.948864043,0.872699976,0,151.4409027,0.0918676332,1593000615.24547
2020/06/24/21:10:15.345651,47,1593000615,345362424,,,0,1593000576,-169.1643372,-305.4523621,5.626590729,56.21380997,0.127026737,-0.028686244,-0.931175113,1,0,155.3954926,0.092329815,1593000615.34536
2020/06/24/21:10:15.445634,48,1593000615,445350646,,,0,1593000576,-168.3362885,-306.7666626,5.62382412,56.7735672,0.187202334,-0.007209667,-0.920892835,1,0,165.6369019,0.0928678215,1593000615.44535
2020/06/24/21:10:15.545633,49,1593000615,545341730,,,0,1593000576,-167.1615906,-308.390564,5.619487286,57.75022125,0.247889638,-0.0126825683,-0.899120092,1,0,175.1685028,0.0935500935,1593000615.54534
2020/06/24/21:10:15.645642,50,1593000615,645346403,,,0,1593000576,-166.3363037,-309.4055786,5.616790295,58.47094727,0.295734167,-0.0224647988,-0.858564734,1,0,170.8083038,0.0940118134,1593000615.64535
2020/06/24/21:10:15.745645,51,1593000615,745356798,,,0,1593000576,-165.2889252,-310.5788879,5.613471985,59.41959381,0.303783894,-0.0301211476,-0.813148141,1,0,164.1158905,0.0945509523,1593000615.74536
2020/06/24/21:10:15.845632,52,1593000615,845347881,,,0,1593000576,-164.1324158,-311.7561646,5.608617783,60.52073288,0.323867381,-0.0249281917,-0.812483668,1,0,156.9164886,0.0951318666,1593000615.84535
2020/06/24/21:10:15.945691,53,1593000615,945398092,,,0,1593000576,-162.8990326,-312.8991089,5.602532864,61.66312027,0.321552932,-0.0379574485,-0.821465552,1,0,148.8045044,0.0957138762,1593000615.94540
2020/06/24/21:10:16.046046,54,1593000616,45599460,,,0,1593000576,-161.5904846,-314.0036316,5.596006393,62.77098084,0.315601051,0.00918565504,-0.834666789,1,0,144.7484894,0.0963025764,1593000616.04560
2020/06/24/21:10:16.145702,55,1593000616,145395755,,,0,1593000576,-160.2086792,-315.0645142,5.590827942,63.82214737,0.300818324,-0.0195926372,-0.816389322,1,0,148.7030945,0.0969063193,1593000616.14540
2020/06/24/21:10:16.245649,56,1593000616,245361328,,,0,1593000576,-158.4422455,-316.2849731,5.583128929,64.80451965,0.140115321,-0.0308412835,-0.835943341,0.43384999,0,149.0072937,0.0976409316,1593000616.24536
2020/06/24/21:10:16.345629,57,1593000616,345350742,,,0,1593000576,-156.7822723,-317.3070374,5.57293129,65.11074829,0.0521420538,-0.00215171929,-0.892104387,0.430200011,0,129.7413025,0.0983282179,1593000616.34535
2020/06/24/21:10:16.445565,58,1593000616,445293903,,,0,1593000576,-155.2108459,-318.1700745,5.561825275,65.29890442,0.0892938077,-0.0205509979,-0.901449382,0.582149982,0,103.0730972,0.0989525616,1593000616.44529
2020/06/24/21:10:16.545630,59,1593000616,545337677,,,0,1593000576,-153.6404724,-318.938446,5.549830437,65.88050079,0.283635408,-0.00831903424,-0.903597593,0.934249997,0,89.48549652,0.099562414,1593000616.54534
2020/06/24/21:10:16.645655,60,1593000616,645347118,,,0,1593000576,-151.9638214,-319.6643982,5.538066864,66.91828918,0.287391871,0.00663840864,-0.885440946,1,0,95.67089844,0.100194529,1593000616.64535
2020/06/24/21:10:16.745662,61,1593000616,745354652,,,0,1593000576,-150.4420166,-320.2452393,5.529255867,67.8080368,0.309280992,0.00839169882,-0.896388769,1,0,105.5066986,0.100770414,1593000616.74535
2020/06/24/21:10:16.845656,62,1593000616,845345258,,,0,1593000576,-148.5489655,-320.8724365,5.520868301,68.87050629,0.312518001,0.00729096215,-0.85609436,1,0,111.9962997,0.101478316,1593000616.84535
2020/06/24/21:10:16.945710,63,1593000616,945370674,,,0,1593000576,-146.5424347,-321.4326172,5.513171196,69.96176147,0.284456402,0.00804592483,-0.84221375,1,0,112.5033035,0.102232449,1593000616.94537
2020/06/24/21:10:17.045628,64,1593000617,45325517,,,0,1593000576,-144.7117004,-321.8586426,5.506443024,70.93402863,0.307653457,-0.0204355996,-0.826151967,1,0,114.6326981,0.102922007,1593000617.04533
2020/06/24/21:10:17.145696,65,1593000617,145338296,,,0,1593000576,-142.7808075,-322.2281189,5.497601509,71.96715546,0.311246693,-0.0120981131,-0.814832807,0.933300018,0,115.7480927,0.103642158,1593000617.14534
2020/06/24/21:10:17.245815,66,1593000617,245443582,,,0,1593000576,-140.2704315,-322.5911255,5.484678268,72.73468781,0.0250262693,0.0117560951,-0.914598584,0.239749998,0,115.3424988,0.104576729,1593000617.24544
2020/06/24/21:10:17.345586,67,1593000617,345321178,,,0,1593000576,-139.0648651,-322.7168274,5.479430676,72.69973755,-0.0280355252,0.0395181105,-0.915579259,0.136000007,0,114.4298935,0.105032876,1593000617.34532
2020/06/24/21:10:17.445665,68,1593000617,445372819,,,0,1593000576,-136.531723,-322.8743896,5.473268509,72.34985352,-0.0884317011,-0.0019364059,-0.936644495,0.0906000137,0,115.2410965,0.105994716,1593000617.44537
2020/06/24/21:10:17.545642,69,1593000617,545355081,,,0,1593000576,-135.3282318,-322.8983459,5.471441269,72.12757111,-0.104432449,-0.0419008546,-0.941942573,0.101550013,0,116.457901,0.106455892,1593000617.54536
2020/06/24/21:10:17.645635,70,1593000617,645340919,,,0,1593000576,-132.7548218,-322.8356934,5.466918945,71.59469604,-0.08372318,-0.0325770043,-0.971639693,0.150649995,0,120.006897,0.107447803,1593000617.64534
2020/06/24/21:10:17.745674,71,1593000617,745363235,,,0,1593000576,-131.3895874,-322.7368774,5.464808941,71.28410339,-0.119124755,0.0260407571,-1.031317115,0.132300019,0,121.9334946,0.107975803,1593000617.74536
2020/06/24/21:10:17.845632,72,1593000617,845353126,,,0,1593000576,-128.8664856,-322.4277344,5.46553421,70.6576767,-0.0926677734,0.0246070307,-1.055916667,0.254900008,0,120.5139008,0.10895659,1593000617.84535
2020/06/24/21:10:17.945681,73,1593000617,945388555,,,0,1593000576,-127.3054123,-322.1506653,5.469723225,70.34262848,-0.0399909914,0.0278658383,-1.055845737,0.524749994,0,119.1957016,0.109567009,1593000617.94539
2020/06/24/21:10:18.045704,74,1593000618,45397996,,,0,1593000576,-125.2496033,-321.6818237,5.479549885,70.35620117,0.145816714,-0.0096010631,-0.998982608,0.862200022,0,121.2236938,0.110375151,1593000618.04540
2020/06/24/21:10:18.145652,75,1593000618,145369529,,,0,1593000576,-122.93116,-321.0126953,5.491084576,70.96688843,0.23760888,-0.023168942,-0.930861831,1,0,124.4684982,0.111305252,1593000618.14537
2020/06/24/21:10:18.245636,76,1593000618,245352983,,,0,1593000576,-120.7968292,-320.2657471,5.5007658,71.82051849,0.263059974,-0.0107112788,-0.910467923,1,0,124.6712952,0.112179138,1593000618.24535
2020/06/24/21:10:18.345616,77,1593000618,345341920,,,0,1593000576,-119.6796417,-319.8241272,5.506511688,72.27857208,0.255381972,-0.0135600986,-0.872561812,0.928650022,0,124.5698929,0.112644702,1593000618.34534
2020/06/24/21:10:18.445621,78,1593000618,445342302,,,0,1593000576,-117.1892242,-318.7172546,5.519315243,72.93090057,0.0996408463,-0.0504877493,-0.836627007,0.430649996,0,121.7306976,0.113702573,1593000618.44534
2020/06/24/21:10:18.545629,79,1593000618,545354604,,,0,1593000576,-116.0977097,-318.1795959,5.523432255,73.05388641,0.0618493855,-0.0607529953,-0.837088287,0.410149992,0,117.5732956,0.114177078,1593000618.54535
2020/06/24/21:10:18.645617,80,1593000618,645343780,,,0,1593000576,-113.6880722,-316.8733521,5.530845642,73.12700653,0.0384333134,0.0147581697,-0.881112516,0.576799989,0,117.0662918,0.115243383,1593000618.64534
2020/06/24/21:10:18.745625,81,1593000618,745351076,,,0,1593000576,-112.5877533,-316.2177429,5.53512764,73.24948883,0.0662755668,-0.0214669108,-0.845911324,0.570199966,0,118.7900925,0.115745187,1593000618.74535
2020/06/24/21:10:18.845630,82,1593000618,845354318,,,0,1593000576,-110.6889801,-314.9904785,5.54338932,73.34468079,-0.00637456775,-0.0439351536,-0.849525213,0.413550019,0,126.1922989,0.116633706,1593000618.84535
2020/06/24/21:10:18.945673,83,1593000618,945375919,,,0,1593000576,-108.461235,-313.3777771,5.552031517,73.36611938,0.0208665431,-0.0426347852,-0.91307205,0.416500002,0,130.1468964,0.117715247,1593000618.94538
2020/06/24/21:10:19.045676,84,1593000619,45375823,,,0,1593000576,-107.6453171,-312.7344971,5.555016518,73.3201828,-0.000983148813,-0.0345019698,-0.933882713,0.416000009,0,130.1468964,0.11812219,1593000619.04538
2020/06/24/21:10:19.145845,85,1593000619,145479679,,,0,1593000576,-105.6046524,-310.9872131,5.560900211,73.27229309,0.0415121019,-0.0909608454,-0.901484251,0.423600018,0,128.5244904,0.11918392,1593000619.14548
2020/06/24/21:10:19.245789,86,1593000619,245443105,,,0,1593000576,-104.0562744,-309.5155334,5.561383724,73.22399139,0.0546641946,-0.0728974491,-0.91144228,0.616599977,0,127.2062988,0.120027743,1593000619.24544
2020/06/24/21:10:19.345709,87,1593000619,345395803,,,0,1593000576,-103.0346756,-308.4648743,5.560342789,73.34308624,0.12694782,-0.00946262199,-0.942114353,0.808650017,0,124.7726974,0.120600805,1593000619.34540
2020/06/24/21:10:19.445628,88,1593000619,445347547,,,0,1593000576,-101.2435761,-306.4445801,5.561443329,73.99624634,0.225033998,0.0007975474,-0.892507076,1,0,124.6712952,0.121667363,1593000619.44535
2020/06/24/21:10:19.545626,89,1593000619,545344352,,,0,1593000576,-100.0790863,-304.9960022,5.56424284,74.64418793,0.231595695,-0.0558509007,-0.851729751,1,0,124.4684982,0.122401379,1593000619.54534
2020/06/24/21:10:19.645621,90,1593000619,645342826,,,0,1593000576,-98.92169189,-303.4407043,5.566326618,75.40135193,0.264400989,-0.0460815802,-0.807873011,1,0,123.8600998,0.123167925,1593000619.64534
2020/06/24/21:10:19.745620,91,1593000619,745340347,,,0,1593000576,-97.7035675,-301.6697998,5.565534592,76.26931,0.256607562,-0.0639544129,-0.782869816,1,0,123.1502991,0.124020435,1593000619.74534
2020/06/24/21:10:19.845645,92,1593000619,845351934,,,0,1593000576,-96.43894959,-299.6677551,5.56215477,77.24655914,0.253755689,-0.0409421436,-0.775008559,1,0,121.8320999,0.124952771,1593000619.84535
2020/06/24/21:10:19.945686,93,1593000619,945381402,,,0,1593000576,-95.97756195,-298.8906555,5.560927391,77.61276245,0.249760568,-0.0124032125,-0.781481326,1,0,121.0208969,0.125309229,1593000619.94538
2020/06/24/21:10:20.045732,94,1593000620,45402288,,,0,1593000576,-94.62023163,-296.4384155,5.558638096,78.78393555,0.276308596,0.0340538174,-0.825021148,1,0,120.3110962,0.126420334,1593000620.04540
2020/06/24/21:10:20.145715,95,1593000620,145401716,,,0,1593000576,-93.44243622,-294.0710449,5.56139946,79.78076172,0.258335322,0.00706011802,-0.787888408,1,0,121.4264984,0.127473548,1593000620.14540
2020/06/24/21:10:20.245667,96,1593000620,245374679,,,0,1593000576,-92.6950531,-292.4300232,5.565602779,80.43392181,0.284590453,-0.0225811955,-0.943854034,1,0,125.2797012,0.128191978,1593000620.24537
2020/06/24/21:10:20.345610,97,1593000620,345339298,,,0,1593000576,-91.68288422,-290.0023499,5.570404053,81.36043549,0.330985606,0.0546197928,-0.457383424,1,0,124.2656937,0.129245713,1593000620.34534
2020/06/24/21:10:20.445619,98,1593000620,445348262,,,0,1593000576,-90.98162842,-288.1570129,5.57191658,81.96266937,0.261022449,-0.175843954,-0.786268294,1,0,120.3110962,0.13003768,1593000620.44535
2020/06/24/21:10:20.545619,99,1593000620,545347690,,,0,1593000576,-90.22885132,-286.0206299,5.568548203,82.69683838,0.317733198,-0.358562768,-0.631901801,1,0,109.4612961,0.130950376,1593000620.54535
2020/06/24/21:10:20.645620,100,1593000620,645341634,,,0,1593000576,-89.39566803,-283.4443665,5.55351162,83.71986389,0.196635008,0.149646088,-1.092859387,1,0,78.12870026,0.132041797,1593000620.64534
2020/06/24/21:10:20.745628,101,1593000620,745353221,,,0,1593000576,-88.88835907,-281.6973877,5.548977375,84.14865112,0.0947688371,0.0483281091,-0.513853192,1,0,53.79270172,0.132776171,1593000620.74535
2020/06/24/21:10:20.845614,102,1593000620,845340728,,,0,1593000576,-88.2511673,-279.2431641,5.564386368,85.05117798,0.369520485,-0.282105833,-0.374693722,1,0,15.86910057,0.133800924,1593000620.84534
2020/06/24/21:10:20.945665,103,1593000620,945374727,,,0,1593000576,-87.57423401,-276.3126526,5.570570946,86.59653473,0.270625293,-0.068278797,-0.116406545,1,0,-33.25920105,0.135017902,1593000620.94537
2020/06/24/21:10:21.045730,104,1593000621,45401811,,,0,1593000576,-87.2658844,-274.8963318,5.565675259,87.26548004,0.354551911,-0.082002528,-0.237570137,1,0,-34.78020096,0.135604367,1593000621.04540
2020/06/24/21:10:21.145639,105,1593000621,145355701,,,0,1593000576,-86.63030243,-271.8812866,5.553828239,88.68756866,0.319295615,0.0267667808,-0.0149958245,1,0,-14.70299912,0.136855811,1593000621.14536
2020/06/24/21:10:21.245831,106,1593000621,245467424,,,0,1593000576,-86.08081818,-269.257782,5.552816868,89.89757538,0.306908667,0.0313546583,0.135884315,1,0,-4.25880003,0.137946203,1593000621.24547
2020/06/24/21:10:21.345624,107,1593000621,345348834,,,0,1593000576,-85.55814362,-266.8258667,5.555848598,90.85470581,0.192123905,-0.054788433,0.200349361,1,0,-3.650399923,0.138959363,1593000621.34535
2020/06/24/21:10:21.445621,108,1593000621,445346117,,,0,1593000576,-85.08061218,-264.675415,5.554962158,91.3553772,0.123254567,0.0075355568,0.159685895,1,0,1.064700007,0.139857173,1593000621.44535
2020/06/24/21:10:21.545614,109,1593000621,545342683,,,0,1593000576,-84.4707489,-261.9983521,5.554164886,91.63262939,0.0429868698,0.0205629971,0.0915275663,1,0,1.064700007,0.140976623,1593000621.54534
2020/06/24/21:10:21.645606,110,1593000621,645333528,,,0,1593000576,-83.7288208,-258.79599,5.554453373,91.7714386,-0.0208011176,-0.0400321484,0.0429974943,1,0,-2.534999847,0.142315477,1593000621.64533
2020/06/24/21:10:21.745620,111,1593000621,745348691,,,0,1593000576,-83.27629089,-256.8596191,5.552451611,91.79042816,0.0127386861,-0.0163617041,0.0250848383,1,0,-2.129400015,0.143124729,1593000621.74535
2020/06/24/21:10:21.845641,112,1593000621,845352172,,,0,1593000576,-82.99688721,-255.6682434,5.550760269,91.77239227,-0.0337793343,-0.0108407969,0.0492348559,1,0,-2.940599918,0.143622741,1593000621.84535
2020/06/24/21:10:21.945660,113,1593000621,945367813,,,0,1593000576,-82.24120331,-252.4683228,5.54591608,91.73706818,-0.00776146352,0.0259011332,0.0545909777,1,0,-3.244799852,0.144960418,1593000621.94537
2020/06/24/21:10:22.045686,114,1593000622,45384883,,,0,1593000576,-81.58424377,-249.717926,5.545570374,91.69364166,-0.06878151,0.0713117272,0.0725858659,0.661549985,0,-3.143399954,0.146109983,1593000622.04538
2020/06/24/21:10:22.145634,115,1593000622,145347833,,,0,1593000576,-80.811203,-246.5277863,5.552818775,91.52987671,-0.0246712305,-0.0473500006,0.0682244375,0.264899999,0,-3.244799852,0.147444397,1593000622.14535
2020/06/24/21:10:22.245631,116,1593000622,245350837,,,0,1593000576,-80.32080078,-244.5288544,5.556851864,91.43505859,-0.0362161696,-0.0845729709,0.0608947836,0.680150032,0,-3.346199989,0.14828065,1593000622.24535
2020/06/24/21:10:22.345609,117,1593000622,345335483,,,0,1593000576,-80.02848053,-243.3457489,5.557217121,91.37899017,-0.0105922949,-0.067388013,0.0716279373,0.994400024,0,-3.650399923,0.148776174,1593000622.34534
2020/06/24/21:10:22.445607,118,1593000622,445335388,,,0,1593000576,-79.22890472,-240.1436157,5.552895069,93.04262543,0.256116867,0.0556329973,0.121931419,1,0,-6.793799877,0.150117084,1593000622.44534
2020/06/24/21:10:22.545619,119,1593000622,545349359,,,0,1593000576,-78.45819092,-237.1184998,5.553480148,94.20723724,0.298985988,0.0946009308,0.103984274,1,0,-4.055999756,0.151387021,1593000622.54535
2020/06/24/21:10:22.645618,120,1593000622,645345449,,,0,1593000576,-77.92446899,-235.0563202,5.558726311,95.05551147,0.313067853,0.0330799371,0.0926891863,1,0,-3.244799852,0.152253062,1593000622.64535
2020/06/24/21:10:22.745623,121,1593000622,745348691,,,0,1593000576,-77.13507843,-232.0473175,5.566699505,96.30239105,0.294786572,-0.0275097061,0.0801958442,1,0,-2.636399984,0.153520659,1593000622.74535
2020/06/24/21:10:22.845612,122,1593000622,845339059,,,0,1593000576,-76.38893127,-229.2367554,5.565355301,97.46837616,0.309371561,-0.0730756,0.0564155281,1,0,-1.521000028,0.154703602,1593000622.84534
2020/06/24/21:10:22.945643,123,1593000622,945355892,,,0,1593000576,-76.09476471,-228.1350403,5.562017441,97.91525269,0.28861475,-0.0489370488,0.0590588301,1,0,-2.33220005,0.155169189,1593000622.94536
2020/06/24/21:10:23.045725,124,1593000623,45400619,,,0,1593000576,-75.19786072,-224.8018036,5.550189495,99.23169708,0.292935997,-0.00853701029,0.0699514449,1,0,-3.447599888,0.156579465,1593000623.04540
2020/06/24/21:10:23.145731,125,1593000623,145407438,,,0,1593000576,-74.2564621,-221.345993,5.542252541,100.5761337,0.28777498,0.0871107206,0.0792131126,1,0,-4.25880003,0.158045247,1593000623.14541
2020/06/24/21:10:23.245844,126,1593000623,245468378,,,0,1593000576,-73.44924164,-218.4205017,5.544950485,101.6592407,0.278428912,0.124597929,0.0989664793,1,0,-5.171399593,0.159289479,1593000623.24547
2020/06/24/21:10:23.345701,127,1593000623,345383405,,,0,1593000576,-73.06153107,-217.0292206,5.549757481,102.1586075,0.291385531,-0.00655611185,0.0978548676,1,0,-5.374199867,0.159882069,1593000623.34538
2020/06/24/21:10:23.445633,128,1593000623,445350646,,,0,1593000576,-72.06067657,-213.4822998,5.559440136,103.4465027,0.272543997,-0.072178483,0.144261405,1,0,-8.720398903,0.161387473,1593000623.44535
2020/06/24/21:10:23.545616,129,1593000623,545339822,,,0,1593000576,-71.26953125,-210.7347412,5.559705257,104.4072342,0.276508898,0.00247001741,0.151035964,1,0,-5.678399563,0.162559852,1593000623.54534
2020/06/24/21:10:23.645620,130,1593000623,645341157,,,0,1593000576,-70.43279266,-207.8815918,5.558503628,105.389595,0.275833786,-0.0475288965,0.11704769,1,0,-2.129400015,0.163778454,1593000623.64534
2020/06/24/21:10:23.745637,131,1593000623,745354652,,,0,1593000576,-69.42306519,-204.4951477,5.554532528,106.5370865,0.259021878,0.0143254725,0.116128452,1,0,-2.940599918,0.165224329,1593000623.74535
2020/06/24/21:10:23.845645,132,1593000623,845342874,,,0,1593000576,-68.6483078,-201.9346771,5.552361012,107.382225,0.261263758,0.058720272,0.0996115729,1,0,-2.33220005,0.166319668,1593000623.84534
2020/06/24/21:10:23.945705,133,1593000623,945372581,,,0,1593000576,-67.78063965,-199.0977173,5.554230213,108.2967758,0.258894354,0.0108475089,0.0587918162,1,0,-0.709799945,0.167530715,1593000623.94537
2020/06/24/21:10:24.045688,134,1593000624,45393228,,,0,1593000576,-67.00749969,-196.5860901,5.557334423,109.0993423,0.257554263,-0.0204098225,0.0356628448,1,0,0.45629999,0.168600991,1593000624.04539
2020/06/24/21:10:24.145627,135,1593000624,145349025,,,0,1593000576,-66.11811066,-193.7064056,5.558408737,110.0120392,0.245773032,-0.041894082,0.0104118213,1,0,1.419599891,0.16982846,1593000624.14535
2020/06/24/21:10:24.245620,136,1593000624,245347261,,,0,1593000576,-65.11117554,-190.449646,5.555178165,111.0185699,0.247981265,-0.00276372116,-0.00510940701,1,0,1.216799974,0.171215311,1593000624.24535
2020/06/24/21:10:24.345611,137,1593000624,345337629,,,0,1593000576,-64.31607819,-187.8762665,5.553730488,111.7965622,0.263758063,0.000907917856,-0.0172777288,1,0,1.216799974,0.172310784,1593000624.34534
2020/06/24/21:10:24.445671,138,1593000624,445373773,,,0,1593000576,-63.2956543,-184.5662384,5.554382801,112.7932434,0.249708235,0.00378894364,-0.0371371619,1,0,1.166100025,0.173721522,1593000624.44537
2020/06/24/21:10:24.545622,139,1593000624,545350313,,,0,1593000576,-62.54788971,-182.1316986,5.555785656,113.5082092,0.247386575,0.0331800319,-0.0426410884,1,0,0.912599981,0.17476137,1593000624.54535
2020/06/24/21:10:24.645616,140,1593000624,645339488,,,0,1593000576,-61.35268402,-178.2232513,5.559643745,114.4414978,0.116757348,0.0153252399,-0.022714328,0.552600026,0,0,0.176437795,1593000624.64534
2020/06/24/21:10:24.745622,141,1593000624,745348691,,,0,1593000576,-60.51758957,-175.4843445,5.561989307,114.5466003,-0.0474616066,0.0193363149,-0.00990941096,0,0,-0.506999969,0.177615196,1593000624.74535
2020/06/24/21:10:24.845619,142,1593000624,845345973,,,0,1593000576,-59.6843338,-172.7496033,5.563558578,114.1860275,-0.124883018,-0.0555142052,0.00487070531,0,0,-1.013999939,0.17879115,1593000624.84535
2020/06/24/21:10:24.945668,143,1593000624,945377826,,,0,1593000576,-58.68746185,-169.4812927,5.55967474,113.5299072,-0.417558312,-0.0208915416,0.0467743352,0,0.375301212,-6.084000111,0.180195943,1593000624.94538
2020/06/24/21:10:25.045669,144,1593000625,45369386,,,0,1593000576,-57.6220932,-166.0081329,5.551887989,109.8809738,-1.094656229,-0.000715326518,0.0937371403,0,1,-13.58759975,0.181685179,1593000625.04537
2020/06/24/21:10:25.145621,145,1593000625,145343780,,,0,1593000576,-56.92791748,-163.7690735,5.547981739,106.8073349,-1.168772459,0.0298037753,0.133470938,0,1,-12.47219944,0.182646587,1593000625.14534
2020/06/24/21:10:25.245767,146,1593000625,245423078,,,0,1593000576,-55.96299362,-160.69841,5.549105167,102.4288788,-1.001903892,-0.102455094,0.111740142,0,1,-4.157400131,0.183964118,1593000625.24542
2020/06/24/21:10:25.345623,147,1593000625,345345973,,,0,1593000576,-54.90135193,-157.3650208,5.548160076,97.90427399,-0.847464204,-0.0774191767,0.159354359,0.159649998,0.577043831,-2.940599918,0.185393289,1593000625.34535
2020/06/24/21:10:25.445609,148,1593000625,445333480,,,0,1593000576,-54.4055481,-155.8307037,5.546876907,95.76593781,-1.138737082,0.0209471956,0.134021014,0.421149999,1,-1.318199992,0.186057165,1593000625.44533
2020/06/24/21:10:25.545619,149,1593000625,545341968,,,0,1593000576,-53.60285187,-153.3795319,5.54820919,92.44017029,-0.537467599,-0.0245511718,0.128107205,0.287100017,0.453809828,7.097999573,0.187117666,1593000625.54534
2020/06/24/21:10:25.645606,150,1593000625,645333766,,,0,1593000576,-52.80995941,-150.9940186,5.548845768,90.57051849,-0.513021648,-0.0640882701,0.0825121403,0,0.413433075,6.337499619,0.188157991,1593000625.64533
2020/06/24/21:10:25.745620,151,1593000625,745345354,,,0,1593000576,-51.9323349,-148.384903,5.5460186,87.81237793,-0.976953745,0.00237767398,0.104906395,0,0.315105945,-7.706399441,0.189300179,1593000625.74535
2020/06/24/21:10:25.845613,152,1593000625,845335721,,,0,1593000576,-51.09124756,-145.928299,5.546534538,85.67060089,-0.457650185,0.0196795166,0.141510472,0,0.214171648,-10.95119953,0.190381214,1593000625.84534
2020/06/24/21:10:25.945641,153,1593000625,945358037,,,0,1593000576,-50.29734039,-143.6559753,5.549404144,84.40568542,-0.31334421,-0.022913212,0.190714777,0,0.142738268,-14.50020027,0.191380441,1593000625.94536
2020/06/24/21:10:26.045733,154,1593000626,45408964,,,0,1593000576,-49.68476868,-141.9423523,5.550123215,83.70381927,-0.229560912,-0.0688064769,0.297091961,0,0.0674778596,-24.43740082,0.192130685,1593000626.04541
2020/06/24/21:10:26.145677,155,1593000626,145383358,,,0,1593000576,-48.86419678,-139.7301636,5.549134254,82.94329834,-0.201536268,-0.0132288793,0.41789341,0,0.0330206268,-33.0564003,0.193090737,1593000626.14538
2020/06/24/21:10:26.245929,156,1593000626,245626926,,,0,1593000576,-47.75104523,-136.9193573,5.550485134,82.0091095,-0.233646035,-0.0139819253,0.572934747,0,0.152725965,-47.35379791,0.194283336,1593000626.24563
2020/06/24/21:10:26.345662,157,1593000626,345372438,,,0,1593000576,-47.22135544,-135.666214,5.552116871,81.29625702,-0.402052611,-0.0233654566,0.622280836,0,0.269642621,-53.53919983,0.194803998,1593000626.34537
2020/06/24/21:10:26.445729,158,1593000626,445438385,,,0,1593000576,-45.97980881,-132.9332733,5.554055691,78.682724,-0.724613726,-0.0281963591,0.623650312,0,0.834636211,-58.30499649,0.195909977,1593000626.44544
2020/06/24/21:10:26.545933,159,1593000626,545623779,,,0,1593000576,-45.49833298,-131.9412689,5.554416656,77.20761871,-0.861643672,-0.0176838096,0.635540366,0,1,-62.36099625,0.196299911,1593000626.54562
2020/06/24/21:10:26.645670,160,1593000626,645376205,,,0,1593000576,-44.32281113,-129.6568146,5.557554722,73.47171783,-0.880484521,-0.0403251722,0.588207483,0,1,-70.27019501,0.197179869,1593000626.64538
2020/06/24/21:10:26.745884,161,1593000626,745578050,,,0,1593000576,-43.03623199,-127.3711777,5.560267925,70.04719543,-0.53108716,-0.0269304905,0.831764281,0,0.288040578,-75.94860077,0.198036462,1593000626.74558
2020/06/24/21:10:26.845646,162,1593000626,845353841,,,0,1593000576,-42.40161133,-126.3363419,5.562113762,68.87194824,-0.475712985,-0.0100378841,0.891304135,0,0.240088046,-83.147995,0.198420197,1593000626.84535
2020/06/24/21:10:26.945829,163,1593000626,945516824,,,0,1593000576,-41.36806488,-124.7800827,5.568597317,67.20716858,-0.390843332,-0.0245782677,0.907002151,0,0.114598259,-96.63419342,0.198999435,1593000626.94552
2020/06/24/21:10:27.045738,164,1593000627,45418739,,,0,1593000576,-40.25474548,-123.2638092,5.578915596,65.7638855,-0.322135895,-0.0383027121,0.930560589,0,0.0799980834,-108.9036026,0.199559152,1593000627.04542
2020/06/24/21:10:27.145742,165,1593000627,145444631,,,0,1593000576,-39.12626648,-121.8751373,5.590319633,64.51183319,-0.294763386,-0.0307704415,0.947126746,0,0.0510665514,-114.3284912,0.200083241,1593000627.14544
2020/06/24/21:10:27.245807,166,1593000627,245451927,,,0,1593000576,-38.06033707,-120.6837311,5.600996017,63.51268768,-0.250979334,-0.048189491,0.944524169,0,0.0110214064,-117.2690964,0.200551063,1593000627.24545
2020/06/24/21:10:27.345626,167,1593000627,345348596,,,0,1593000576,-36.58483124,-119.1959457,5.615958691,62.28783798,-0.25806728,0.150566652,0.852015555,0,0.00427873433,-122.9981995,0.201135844,1593000627.34535
2020/06/24/21:10:27.445585,168,1593000627,445325374,,,0,1593000576,-35.33176804,-118.0483627,5.634891033,61.36379242,-0.237041295,0.122886531,0.817128181,0,0.00130098721,-125.6852951,0.201600328,1593000627.44533
2020/06/24/21:10:27.545597,169,1593000627,545334577,,,0,1593000576,-34.05240631,-116.9657669,5.652729511,60.62868118,-0.22222054,-0.128121987,0.655336976,0,0.00012892393,-130.0455017,0.202043086,1593000627.54533
2020/06/24/21:10:27.645582,170,1593000627,645324230,,,0,1593000576,-32.39751816,-115.6703415,5.666436195,59.57725525,-0.248914465,-0.0528663173,0.633052886,0,0,-137.6504974,0.202578291,1593000627.64532
2020/06/24/21:10:27.745584,171,1593000627,745321273,,,0,1593000576,-31.52064323,-115.0296478,5.674394608,58.99891663,-0.198425159,0.105494097,0.57966876,0,0,-139.9826965,0.202846736,1593000627.74532
2020/06/24/21:10:27.845607,172,1593000627,845307826,,,0,1593000576,-29.79179573,-113.8571472,5.697721958,57.55699539,-0.329928219,0.0359795168,0.679920912,0,0,-142.4163055,0.203357995,1593000627.84531
2020/06/24/21:10:27.945627,173,1593000627,945318937,,,0,1593000576,-29.02445984,-113.3773651,5.71001482,56.87758636,-0.409078181,-0.0584110282,0.59157908,0,0,-144.1401062,0.203570738,1593000627.94532
2020/06/24/21:10:28.045584,174,1593000628,45322418,,,0,1593000576,-27.3706665,-112.4213104,5.727573872,55.1259346,-0.366617709,-0.219457209,0.556082547,0,0,-155.4969025,0.204015732,1593000628.04532
2020/06/24/21:10:28.145601,175,1593000628,145329952,,,0,1593000576,-25.85029984,-111.6284332,5.719619751,53.22361374,-0.520467818,-0.159269243,0.619513452,0,0,-167.5634918,0.204403922,1593000628.14533
2020/06/24/21:10:28.245634,176,1593000628,245322465,,,0,1593000576,-25.21718597,-111.3241348,5.710458279,52.31880951,-0.539575934,-0.0368001349,0.692088425,0,0,-166.7522888,0.204559863,1593000628.24532
2020/06/24/21:10:28.345621,177,1593000628,345317125,,,0,1593000576,-23.58213615,-110.6213074,5.690358639,49.55846786,-0.624854207,0.1348169,0.796669602,0,0,-161.986496,0.204951972,1593000628.34532
2020/06/24/21:10:28.445622,178,1593000628,445318222,,,0,1593000576,-22.14068031,-110.1128311,5.691842556,47.22913361,-0.557804346,0.0810923129,0.748877704,0,0,-159.248703,0.20529452,1593000628.44532
2020/06/24/21:10:28.545605,179,1593000628,545334100,,,0,1593000576,-20.9920845,-109.7819443,5.703686714,45.51177979,-0.524439514,-0.0126659945,0.691428363,0,0,-158.2346954,0.205564067,1593000628.54533
2020/06/24/21:10:28.645599,180,1593000628,645333528,,,0,1593000576,-19.76285553,-109.4966736,5.71638155,43.75075531,-0.492121249,-0.135219693,0.624402344,0,0,-159.0458984,0.205858126,1593000628.64533
2020/06/24/21:10:28.745597,181,1593000628,745332002,,,0,1593000576,-18.77652168,-109.3171387,5.719077587,42.33965683,-0.490475148,-0.135636717,0.631501198,0,0,-159.8570862,0.206094816,1593000628.74533
2020/06/24/21:10:28.845618,182,1593000628,845313787,,,0,1593000576,-17.37921715,-109.1437988,5.712347031,40.24677658,-0.493348956,-0.0509290025,0.689094663,0,0,-159.3500977,0.206418931,1593000628.84531
2020/06/24/21:10:28.945592,183,1593000628,945327758,,,0,1593000576,-16.589674,-109.0932083,5.707284927,39.03524017,-0.485762089,-0.0258501675,0.713276148,0,0,-158.6403046,0.206607223,1593000628.94533
2020/06/24/21:10:29.045672,184,1593000629,45372247,,,0,1593000576,-15.32391262,-109.0929718,5.703229904,37.0971756,-0.46735093,0.0134931877,0.739571393,0,0,-156.5108948,0.206902489,1593000629.04537
2020/06/24/21:10:29.145611,185,1593000629,145341157,,,0,1593000576,-14.15371418,-109.1911697,5.707679272,35.35030365,-0.432515144,-0.0103775188,0.701982558,0,0,-154.077301,0.207169846,1593000629.14534
2020/06/24/21:10:29.245694,186,1593000629,245391607,,,0,1593000576,-13.69253063,-109.2577362,5.711116314,34.67930984,-0.418801904,-0.0238846466,0.686716437,0,0,-153.6716919,0.207275644,1593000629.24539
2020/06/24/21:10:29.345589,187,1593000629,345329761,,,0,1593000576,-12.61538982,-109.4785156,5.720297337,33.14718246,-0.387602329,-0.0548794046,0.628073156,0,0,-153.266098,0.207526803,1593000629.34533
2020/06/24/21:10:29.445596,188,1593000629,445336580,,,0,1593000576,-11.65525246,-109.7555466,5.725418091,31.81260109,-0.368302524,-0.0901729614,0.562534213,0,0,-153.6716919,0.207760125,1593000629.44534
2020/06/24/21:10:29.545606,189,1593000629,545339822,,,0,1593000576,-10.7785759,-110.0776291,5.723935127,30.57580185,-0.354984403,-0.0533115864,0.504048347,0,0,-153.6716919,0.207971737,1593000629.54534
2020/06/24/21:10:29.645578,190,1593000629,645319938,,,0,1593000576,-9.848748207,-110.4961014,5.718527317,29.27926826,-0.274199963,-0.0166798215,0.47830534,0.0996000171,0,-154.888504,0.208206743,1593000629.64532
2020/06/24/21:10:29.745647,191,1593000629,745367050,,,0,1593000576,-9.461863518,-110.6957626,5.716002941,28.84402275,-0.27596429,-0.00808237493,0.464749694,0.0800999999,0,-155.6996918,0.208304763,1593000629.74537
2020/06/24/21:10:29.845644,192,1593000629,845360994,,,0,1593000576,-8.627649307,-111.1830063,5.712443829,27.80002975,-0.272697181,0.0377748534,0.436154842,0.0639500022,0,-156.3080902,0.208524197,1593000629.84536
2020/06/24/21:10:29.945639,193,1593000629,945357799,,,0,1593000576,-7.912817955,-111.6690063,5.715243816,26.88850021,-0.254788876,0.033400774,0.406663954,0.0735000074,0,-156.2066956,0.20872581,1593000629.94536
2020/06/24/21:10:30.045636,194,1593000630,45352697,,,0,1593000576,-7.575806141,-111.9227753,5.718755722,26.47726059,-0.228302658,0.0316924006,0.392197937,0.104250014,0,-156.2066956,0.208822757,1593000630.04535
2020/06/24/21:10:30.145817,195,1593000630,145460844,,,0,1593000576,-6.875423431,-112.50634,5.730659962,25.70667076,-0.193012372,0.0176629275,0.363664687,0.24485001,0,-156.1052856,0.209025562,1593000630.14546
2020/06/24/21:10:30.245674,196,1593000630,245387315,,,0,1593000576,-6.320837498,-113.0285187,5.743531227,25.15558434,-0.158614337,-0.0114785535,0.338730276,0.426250011,0,-155.3954926,0.209201619,1593000630.24539
2020/06/24/21:10:30.345639,197,1593000630,345361471,,,0,1593000576,-5.846513271,-113.5234528,5.754796982,24.77684402,-0.102709405,-0.0240006428,0.330229819,0.644699991,0,-155.192688,0.209357589,1593000630.34536
2020/06/24/21:10:30.445652,198,1593000630,445369958,,,0,1593000576,-5.413865566,-114.0194702,5.763720036,24.65806007,-0.0149656236,-0.0425105244,0.314541578,0.950899959,0,-154.888504,0.20949401,1593000630.44537
2020/06/24/21:10:30.545640,199,1593000630,545361757,,,0,1593000576,-4.952179432,-114.6015015,5.769940853,24.88532829,0.0551910996,-0.0430425555,0.324325413,1,0,-154.888504,0.209665507,1593000630.54536
2020/06/24/21:10:30.645668,200,1593000630,645375490,,,0,1593000576,-4.621408939,-115.0570221,5.771703243,25.13994217,0.0790077895,-0.0515134893,0.331254005,1,0,-154.7870941,0.209786326,1593000630.64538
2020/06/24/21:10:30.745654,201,1593000630,745373487,,,0,1593000576,-4.201510906,-115.6915283,5.769676685,25.5670414,0.0980735868,-0.0417665243,0.348059088,1,0,-154.381485,0.209950581,1593000630.74537
2020/06/24/21:10:30.845731,202,1593000630,845414638,,,0,1593000576,-3.733097792,-116.4918213,5.761913776,26.17519379,0.121646851,-0.0195094775,0.345509887,1,0,-149.3114929,0.210147694,1593000630.84541
2020/06/24/21:10:30.945668,203,1593000630,945377826,,,0,1593000576,-3.527654171,-116.8800659,5.757239819,26.49467087,0.128006041,-0.00444105687,0.346883178,1,0,-146.9793091,0.21023789,1593000630.94538
2020/06/24/21:10:31.045593,204,1593000631,45335531,,,0,1593000576,-3.104484558,-117.7710571,5.747802258,27.28521729,0.159951419,0.021232795,0.349232376,1,0,-137.6504974,0.210449487,1593000631.04534
2020/06/24/21:10:31.145633,205,1593000631,145350456,,,0,1593000576,-2.812558651,-118.4736176,5.743727684,28.06593132,0.422189921,0.202718839,0.292464316,1,0,-116.1536942,0.210613236,1593000631.14535
2020/06/24/21:10:31.245663,206,1593000631,245373725,,,0,1593000576,-2.584653378,-119.0695343,5.748336792,28.66708565,0.304933727,-0.0259019453,0.226092458,1,0,-97.74960327,0.210739687,1593000631.24537
2020/06/24/21:10:31.345628,207,1593000631,345349311,,,0,1593000576,-2.331958771,-119.7798004,5.754816532,29.59807968,0.282244027,-0.00278429268,0.256709963,1,0,-87.1026001,0.210900098,1593000631.34535
2020/06/24/21:10:31.445647,208,1593000631,445365667,,,0,1593000576,-2.068001747,-120.5931549,5.763243675,30.67588806,0.296983331,0.0202325992,0.236399129,1,0,-80.20739746,0.211078882,1593000631.44537
2020/06/24/21:10:31.545630,209,1593000631,545351028,,,0,1593000576,-1.734810114,-121.7304001,5.785836697,32.39199448,0.373374015,-0.060619086,0.185632885,1,0,-80.30879974,0.211328372,1593000631.54535
2020/06/24/21:10:31.645634,210,1593000631,645353794,,,0,1593000576,-1.583921432,-122.2848282,5.793932438,33.16868973,0.338005096,-0.0731544718,0.168464318,1,0,-84.770401,0.211454242,1593000631.64535
2020/06/24/21:10:31.745657,211,1593000631,745378017,,,0,1593000576,-1.338087916,-123.2421646,5.803383827,34.53981018,0.402404726,0.0798456073,0.186986566,1,0,-85.63230133,0.211666986,1593000631.74538
2020/06/24/21:10:31.845632,212,1593000631,845349073,,,0,1593000576,-1.049989104,-124.4525833,5.811912537,36.43136978,0.426215887,-0.0507705659,0.124042988,1,0,-71.08139801,0.211943254,1593000631.84535
2020/06/24/21:10:31.945641,213,1593000631,945361375,,,0,1593000576,-0.840022802,-125.3897629,5.81244278,37.70999527,0.324949592,-0.17310828,0.152147755,1,0,-58.40639877,0.212176636,1593000631.94536
2020/06/24/21:10:32.045641,214,1593000632,45356035,,,0,1593000576,-0.608824313,-126.4928589,5.801550865,39.64696503,0.579834521,0.118803471,0.137724817,1,0,-51.61259842,0.212448493,1593000632.04536
2020/06/24/21:10:32.145634,215,1593000632,145351409,,,0,1593000576,-0.517270684,-126.9519577,5.797879696,40.44220352,0.555730939,0.0282091722,0.139589027,1,0,-47.04959869,0.212563246,1593000632.14535
2020/06/24/21:10:32.245650,216,1593000632,245361089,,,0,1593000576,-0.232274815,-128.4570313,5.784273624,42.88005829,0.563882232,-0.224250227,0.14230603,1,0,-27.17519951,0.212944716,1593000632.24536
2020/06/24/21:10:32.345629,217,1593000632,345352888,,,0,1593000576,0.0336095914,-129.9846497,5.769163132,45.37519836,0.540498555,0.0253005717,0.104031563,1,0,-15.21000004,0.213342801,1593000632.34535
2020/06/24/21:10:32.445639,218,1593000632,445357084,,,0,1593000576,0.210850179,-131.0471954,5.761178494,46.83342743,0.547602475,-0.134829983,0.0233768746,1,0,-15.61559963,0.213627994,1593000632.44536
2020/06/24/21:10:32.545631,219,1593000632,545353412,,,0,1593000576,0.426585585,-132.3858185,5.750638962,48.68651581,0.49903056,-0.0772844478,0.153176039,1,0,-21.49679947,0.214001194,1593000632.54535
2020/06/24/21:10:32.645624,220,1593000632,645341634,,,0,1593000576,0.598259509,-133.5280609,5.741909981,50.16746521,0.494884372,0.022364201,0.195743263,1,0,-25.95839882,0.214330912,1593000632.64534
2020/06/24/21:10:32.745645,221,1593000632,745367050,,,0,1593000576,0.817376673,-135.1348572,5.73168087,52.10505295,0.480092883,-0.0136411907,0.229009211,1,0,-31.63679886,0.214809909,1593000632.74537
2020/06/24/21:10:32.845644,222,1593000632,845366477,,,0,1593000576,0.995642066,-136.6270752,5.723344326,53.81354141,0.463597178,0.0329361632,0.255864263,1,0,-33.86759949,0.215267703,1593000632.84537
2020/06/24/21:10:32.945650,223,1593000632,945370674,,,0,1593000576,1.169955611,-138.3544922,5.717283726,55.69271088,0.456768602,0.0399338678,0.285173923,1,0,-34.47599792,0.215816259,1593000632.94537
2020/06/24/21:10:33.045724,224,1593000633,45395851,,,0,1593000576,1.226681829,-139.006546,5.715812683,56.37238312,0.467069715,-0.00166059076,0.277841747,1,0,-33.7661972,0.216029033,1593000633.04540
2020/06/24/21:10:33.145650,225,1593000633,145367860,,,0,1593000576,1.377049565,-141.1110687,5.711961746,58.56578064,0.464253187,0.0179539323,0.300899833,1,0,-32.85359955,0.216729701,1593000633.14537
2020/06/24/21:10:33.245682,226,1593000633,245391845,,,0,1593000576,1.47887826,-143.2476196,5.708478451,60.68783569,0.464040607,0.0162328333,0.337728411,1,0,-35.79419708,0.217462614,1593000633.24539
2020/06/24/21:10:33.345636,227,1593000633,345358371,,,0,1593000576,1.5254457,-145.1481476,5.705563545,62.48572922,0.463194013,-0.01177138,0.359444082,1,0,-35.99699783,0.218138695,1593000633.34536
2020/06/24/21:10:33.445630,228,1593000633,445351123,,,0,1593000576,1.53218019,-145.8819427,5.704365253,63.16409302,0.448183566,0.0227492917,0.367755115,1,0,-35.99699783,0.218403205,1593000633.44535
2020/06/24/21:10:33.545634,229,1593000633,545358657,,,0,1593000576,1.512518644,-148.1841583,5.702126503,65.1986618,0.452624381,0.0383843258,0.395616412,1,0,-35.89559937,0.219249889,1593000633.54536
2020/06/24/21:10:33.645650,230,1593000633,645370006,,,0,1593000576,1.466874957,-149.665863,5.702744007,66.43006134,0.415904254,0.0270984042,0.400940984,1,0,-35.79419708,0.219807357,1593000633.64537
2020/06/24/21:10:33.745647,231,1593000633,745369195,,,0,1593000576,1.338589787,-152.0797577,5.705572605,68.35172272,0.40681538,-0.0202430133,0.395069271,1,0,-35.3885994,0.220737919,1593000633.74537
2020/06/24/21:10:33.845640,232,1593000633,845361232,,,0,1593000576,1.192546487,-153.9759064,5.706261635,69.81958008,0.398210675,-0.00284114829,0.413279623,1,0,-33.86759949,0.221480966,1593000633.84536
2020/06/24/21:10:33.945651,233,1593000633,945368051,,,0,1593000576,1.003973007,-155.9077911,5.704052925,71.23646545,0.418290198,-0.0095671257,0.418655097,1,0,-31.53539848,0.222247884,1593000633.94537
2020/06/24/21:10:34.045643,234,1593000634,45365095,,,0,1593000576,0.763975918,-157.9340363,5.699519634,72.66104126,0.396293163,-0.0712547451,0.396181613,1,0,-30.42000008,0.22306098,1593000634.04537
2020/06/24/21:10:34.145650,235,1593000634,145367622,,,0,1593000576,0.522594392,-159.6896973,5.692308903,73.88478851,0.395255208,-0.000598008453,0.418754667,1,0,-30.11579895,0.223772228,1593000634.14537
2020/06/24/21:10:34.245658,236,1593000634,245375633,,,0,1593000576,0.206169352,-161.7167511,5.681509018,75.21022034,0.39128387,-0.0562554188,0.398526222,1,0,-27.78359985,0.224601001,1593000634.24538
2020/06/24/21:10:34.345639,237,1593000634,345360279,,,0,1593000576,-0.154356688,-163.7738037,5.666373253,76.55273438,0.379539758,-0.0169199985,0.417411119,1,0,-27.88500023,0.225449607,1593000634.34536
2020/06/24/21:10:34.445644,238,1593000634,445359706,,,0,1593000576,-0.521702588,-165.6685181,5.651393414,77.72698212,0.371937603,0.00373049174,0.4047544,1,0,-26.87100029,0.226238385,1593000634.44536
2020/06/24/21:10:34.545635,239,1593000634,545359134,,,0,1593000576,-1.07057476,-168.2288361,5.631730556,79.28404999,0.383542001,0.00447342079,0.429395735,1,0,-30.42000008,0.227310583,1593000634.54536
2020/06/24/21:10:34.645628,240,1593000634,645351886,,,0,1593000576,-1.512139559,-170.1083527,5.616863251,80.38970184,0.36842671,-0.0233515631,0.418180913,1,0,-26.66819954,0.228100702,1593000634.64535
2020/06/24/21:10:34.745656,241,1593000634,745377540,,,0,1593000576,-2.058797598,-172.2697144,5.59890461,81.64785767,0.369180322,-0.0182058215,0.387344688,1,0,-21.09119987,0.229014084,1593000634.74538
2020/06/24/21:10:34.845636,242,1593000634,845360040,,,0,1593000576,-2.819697618,-175.0550842,5.576059341,83.24308014,0.357338965,0.0719878227,0.36062932,1,0,-12.16800022,0.230193362,1593000634.84536
2020/06/24/21:10:34.945637,243,1593000634,945358514,,,0,1593000576,-3.206040144,-176.3948669,5.567226887,83.97620392,0.354121149,0.0273359288,0.276841342,1,0,-4.867199898,0.230763525,1593000634.94536
2020/06/24/21:10:35.045673,244,1593000635,45381069,,,0,1593000576,-4.057293415,-179.2387695,5.553113937,85.53922272,0.342838168,0.00283243787,0.172777861,1,0,-2.433599949,0.23197487,1593000635.04538
2020/06/24/21:10:35.145650,245,1593000635,145368576,,,0,1593000576,-4.520791054,-180.7457886,5.546946049,86.36065674,0.344340026,0.126312941,0.144066498,1,0,-2.433599949,0.232618064,1593000635.14537
2020/06/24/21:10:35.245659,246,1593000635,245371818,,,0,1593000576,-5.408946514,-183.5866699,5.545349598,87.76745605,0.314959764,0.0630256608,0.0630585179,1,0,-0.709799945,0.233834788,1593000635.24537
2020/06/24/21:10:35.345649,247,1593000635,345371246,,,0,1593000576,-6.208711147,-186.1170654,5.551071167,89.02056885,0.305847615,-0.0653468743,0.0242606997,1,0,-0.101399995,0.234915972,1593000635.34537
2020/06/24/21:10:35.445656,248,1593000635,445375919,,,0,1593000576,-6.93096447,-188.3937378,5.553690433,89.96381378,0.212489381,-0.0338189155,-0.0161474124,1,0,2.180099726,0.235890165,1593000635.44538
2020/06/24/21:10:35.545645,249,1593000635,545366525,,,0,1593000576,-7.656815052,-190.6848297,5.55302906,90.11397552,-0.0259953626,0.00273119938,-0.026458241,0.463400006,0,1.622399926,0.236868709,1593000635.54537
2020/06/24/21:10:35.645661,250,1593000635,645376682,,,0,1593000576,-8.380047798,-192.9745636,5.552144527,89.99302673,-0.0244966503,-0.00944432151,-0.0339729823,0.386449993,0,2.281499863,0.237847835,1593000635.64538
2020/06/24/21:10:35.745659,251,1593000635,745378732,,,0,1593000576,-9.324115753,-195.9803772,5.550540447,90.40087128,0.521918595,-0.00092890393,-0.052353099,1,0,3.650399923,0.239136532,1593000635.74538
2020/06/24/21:10:35.845649,252,1593000635,845371246,,,0,1593000576,-9.980384827,-198.0871887,5.549864769,91.86734772,0.290265113,0.0617265701,-0.114103518,1,0,7.65569973,0.240039393,1593000635.84537
2020/06/24/21:10:35.945643,253,1593000635,945366382,,,0,1593000576,-10.7726717,-200.6654358,5.552210808,93.00482178,0.314194381,0.0365360752,-0.116976395,1,0,7.047299862,0.241145492,1593000635.94537
2020/06/24/21:10:36.045648,254,1593000636,45365571,,,0,1593000576,-11.36016655,-202.6040497,5.555737019,93.88041687,0.314195544,-0.00895681977,-0.095552139,1,0,2.737799883,0.241976961,1593000636.04537
2020/06/24/21:10:36.145642,255,1593000636,145361900,,,0,1593000576,-12.31018162,-205.7770996,5.559054375,95.2865448,0.300907731,-0.0485287309,-0.049982056,1,0,-1.013999939,0.243333668,1593000636.14536
2020/06/24/21:10:36.245654,256,1593000636,245373725,,,0,1593000576,-12.80995655,-207.4588165,5.558067799,96.00225067,0.30471015,-0.0497153699,-0.026950065,1,0,-0.709799945,0.244051039,1593000636.24537
2020/06/24/21:10:36.345645,257,1593000636,345366477,,,0,1593000576,-13.70133686,-210.4721222,5.554803848,97.2642746,0.298928261,0.0380631052,-0.039163895,1,0,1.622399926,0.245334819,1593000636.34537
2020/06/24/21:10:36.445652,258,1593000636,445372581,,,0,1593000576,-14.50630474,-213.2107086,5.555202007,98.37820435,0.309973717,0.0421977974,-0.0668918192,1,0,5.627699852,0.246498242,1593000636.44537
2020/06/24/21:10:36.545638,259,1593000636,545361042,,,0,1593000576,-15.40586281,-216.3010559,5.558456421,99.59437561,0.289248556,-0.000713870453,-0.0953134447,1,0,7.959899902,0.247810885,1593000636.54536
2020/06/24/21:10:36.645632,260,1593000636,645349979,,,0,1593000576,-15.70555592,-217.340332,5.559599876,99.99847412,0.290385693,-0.0345788486,-0.116514377,1,0,9.27809906,0.248250872,1593000636.64535
2020/06/24/21:10:36.745640,261,1593000636,745362758,,,0,1593000576,-16.66808128,-220.7305298,5.560403347,101.2855759,0.273460627,-0.0199832655,-0.192319572,1,0,13.0298996,0.249682173,1593000636.74536
2020/06/24/21:10:36.845655,262,1593000636,845374345,,,0,1593000576,-17.68029213,-224.4193115,5.557560921,102.6400833,0.285001755,0.00419834722,-0.241185844,1,0,10.69769955,0.251236111,1593000636.84537
2020/06/24/21:10:36.945642,263,1593000636,945365428,,,0,1593000576,-18.38297272,-227.0786438,5.555048943,103.5669403,0.273395598,0.0438309126,-0.275534272,1,0,10.74839973,0.252352804,1593000636.94537
2020/06/24/21:10:37.045693,264,1593000637,45392990,,,0,1593000576,-19.06786156,-229.7680206,5.555044651,104.4979935,0.273592353,-0.000914887642,-0.267573357,1,0,10.95119953,0.253480583,1593000637.04539
2020/06/24/21:10:37.145643,265,1593000637,145360946,,,0,1593000576,-19.67314529,-232.2311096,5.555513382,105.3214798,0.273933381,-0.00358579308,-0.265117437,1,0,9.582300186,0.254506469,1593000637.14536
2020/06/24/21:10:37.245784,266,1593000637,245429039,,,0,1593000576,-20.38473511,-235.2356262,5.556965351,106.315773,0.27787593,0.00657109031,-0.25093025,1,0,7.047299862,0.255757987,1593000637.24543
2020/06/24/21:10:37.345606,267,1593000637,345335245,,,0,1593000576,-21.03869057,-238.0994415,5.558382988,107.2445602,0.258502632,-0.00554533396,-0.207780555,1,0,4.309499741,0.256950378,1593000637.34534
2020/06/24/21:10:37.445603,268,1593000637,445338010,,,0,1593000576,-21.66002846,-240.9043884,5.557898998,108.1376343,0.237549827,0.0383061692,-0.165242493,1,0,3.092700005,0.258114904,1593000637.44534
2020/06/24/21:10:37.545598,269,1593000637,545332908,,,0,1593000576,-22.44236565,-244.5364075,5.558903217,109.2694931,0.2639516,-0.0316821821,-0.105126947,1,0,0.912599981,0.259623677,1593000637.54533
2020/06/24/21:10:37.645587,270,1593000637,645325899,,,0,1593000576,-22.87732124,-246.5921326,5.55885601,109.90345,0.260510385,-0.0568130873,-0.0821060836,1,0,-0.202799991,0.260476917,1593000637.64533
2020/06/24/21:10:37.745594,271,1593000637,745331764,,,0,1593000576,-23.650877,-250.2879944,5.555430412,111.0375366,0.257953674,0.0355518796,-0.0176979713,1,0,-2.230799913,0.262012035,1593000637.74533
2020/06/24/21:10:37.845583,272,1593000637,845323324,,,0,1593000576,-24.33379555,-253.5644379,5.554612637,112.0121002,0.255778879,0.0179151781,0.0131177939,1,0,-0.506999969,0.263372272,1593000637.84532
2020/06/24/21:10:37.945580,273,1593000637,945317983,,,0,1593000576,-24.75453758,-255.5807648,5.554546833,112.6093063,0.251560718,-0.0103605296,0.00997048244,1,0,1.064700007,0.264208466,1593000637.94532
2020/06/24/21:10:38.045586,274,1593000638,45322656,,,0,1593000576,-25.56437874,-259.4593201,5.556703567,113.7284012,0.261734962,0.0314220302,-0.00631548464,1,0,0.912599981,0.265821368,1593000638.04532
2020/06/24/21:10:38.145609,275,1593000638,145339250,,,0,1593000576,-26.24502373,-262.7207947,5.558020592,114.6597137,0.259793222,-0.0108433701,-0.0115895048,1,0,0.304199994,0.267173052,1593000638.14534
2020/06/24/21:10:38.245600,276,1593000638,245333194,,,0,1593000576,-26.95009995,-266.1031494,5.5569911,115.5979233,0.244062215,-0.0128510082,-0.00591781363,1,0,-0.304199994,0.268581539,1593000638.24533
2020/06/24/21:10:38.345573,277,1593000638,345314502,,,0,1593000576,-27.20592499,-267.3314514,5.556464672,115.9472885,0.237193465,0.01468792,-0.00954089314,1,0,-0.101399995,0.269090593,1593000638.34531
2020/06/24/21:10:38.445583,278,1593000638,445322990,,,0,1593000576,-28.03687668,-271.3243713,5.556284428,117.0272598,0.243605971,0.0738879368,0.0270299837,1,0,-2.636399984,0.270751387,1593000638.44532
2020/06/24/21:10:38.545591,279,1593000638,545327186,,,0,1593000576,-28.73794365,-274.6792603,5.562264919,117.9213791,0.226696461,-0.00766124763,0.068357408,1,0,-5.779799461,0.27214697,1593000638.54533
2020/06/24/21:10:38.645587,280,1593000638,645326614,,,0,1593000576,-29.41010666,-277.8645935,5.565027714,118.7677689,0.234550387,-0.0316781402,0.0949440449,1,0,-5.881199837,0.273469269,1593000638.64533
2020/06/24/21:10:38.745595,281,1593000638,745332241,,,0,1593000576,-30.22194099,-281.6554871,5.560860634,119.7277756,0.214763463,-0.0348248966,0.110775769,0.914700031,0,-4.360199451,0.275047094,1593000638.74533
2020/06/24/21:10:38.845583,282,1593000638,845318078,,,0,1593000576,-30.77512932,-284.1966248,5.556474686,120.2417908,0.155206889,0.0531978197,0.141005024,0.758350015,0,-4.461599827,0.276106954,1593000638.84532
2020/06/24/21:10:38.945583,283,1593000638,945323467,,,0,1593000576,-31.53615379,-287.6282959,5.554897785,120.7320251,0.106872514,0.0292841848,0.147175953,0.713349998,0,-3.954599857,0.277537733,1593000638.94532
2020/06/24/21:10:39.045624,284,1593000639,45345306,,,0,1593000576,-32.33788681,-291.1686096,5.555284977,121.2130203,0.100365207,-0.00304615614,0.142096967,0.662050009,0,-3.85319972,0.279017031,1593000639.04535
2020/06/24/21:10:39.145594,285,1593000639,145323038,,,0,1593000576,-33.31912231,-295.4069519,5.553750515,121.4754181,-0.0461019725,-0.0160828326,0.135984123,0,0,-2.940599918,0.280788571,1593000639.14532
2020/06/24/21:10:39.245724,286,1593000639,245404243,,,0,1593000576,-33.75925446,-297.2770996,5.552923203,121.2279587,-0.144232675,0.00604644604,0.129342929,0,0,-3.244799852,0.281571686,1593000639.24540
2020/06/24/21:10:39.345627,287,1593000639,345348834,,,0,1593000576,-34.76651001,-301.4901733,5.554862022,120.5622025,-0.24363786,-0.0165128428,0.145007133,0,0.247037143,-5.374199867,0.283337682,1593000639.34535
2020/06/24/21:10:39.445695,288,1593000639,445387363,,,0,1593000576,-35.54449081,-304.6800232,5.555898666,117.9267349,-1.08870244,-0.00806136802,0.118099064,0,1,-9.531599998,0.284677655,1593000639.44539
2020/06/24/21:10:39.545605,289,1593000639,545331716,,,0,1593000576,-35.84803009,-305.910553,5.556332111,116.4040604,-1.156191468,0.00657790527,0.161983997,0,1,-13.48619938,0.285195082,1593000639.54533
2020/06/24/21:10:39.645607,290,1593000639,645333051,,,0,1593000576,-36.84162903,-309.857605,5.564878464,111.2002487,-1.049423456,-0.0479275808,0.205951199,0,1,-19.36739922,0.28685686,1593000639.64533
2020/06/24/21:10:39.745686,291,1593000639,745382070,,,0,1593000576,-37.75896835,-313.3725281,5.569773674,107.1735687,-0.911327362,-0.220322058,0.305150628,0,1,-38.53199768,0.288338602,1593000639.74538
2020/06/24/21:10:39.845618,292,1593000639,845345020,,,0,1593000576,-38.59173965,-316.4179382,5.55988884,103.7810211,-0.480829418,-0.0108430311,0.632809579,0,0.275149852,-36.60540009,0.289627522,1593000639.84535
2020/06/24/21:10:39.945649,293,1593000639,945361137,,,0,1593000576,-39.2193222,-318.5629883,5.55405426,102.5743103,-0.701343,0.066427432,0.653458953,0.345950007,0.711552799,-33.96900177,0.290540099,1593000639.94536
