time,.header.seq,.header.stamp.secs,.header.stamp.nsecs,.header.frame_id,.identifier.data,.size.data,.TimeStamp.data,PosLocalX,PosLocalY,Height,GPS_Speed,AccelX,AccelY,AccelZ,PedalPosAcc,PedalPosBrk,AngleSteer,carPositionNormalized,TimeStamp
2020/06/24/22:33:48.093468,27713,1593005628,92993259,,,0,1593005568,-61.51563263,22.21562386,0.902880609,31.63794327,0.700442433,-0.00781968981,0.0203795545,1,0,-9.227399826,0.0012450919,1593005628.09299
2020/06/24/22:33:48.102404,27714,1593005628,102080106,,,0,1593005568,-61.62178802,22.22139549,0.904267013,31.93193054,0.691551328,-0.00699951267,0.0195923969,1,0,-9.227399826,0.00126508542,1593005628.10208
2020/06/24/22:33:48.193974,27715,1593005628,193672180,,,0,1593005568,-62.05613327,22.24526405,0.909941673,33.10060883,0.681803882,-0.0172883049,0.0222012699,1,0,-9.125999451,0.00134888152,1593005628.19367
2020/06/24/22:33:48.293920,27716,1593005628,293642997,,,0,1593005568,-62.70745087,22.28199196,0.918198824,34.75574493,0.672861397,-0.0163929984,0.0327557735,1,0,-9.125999451,0.00147384056,1593005628.29364
2020/06/24/22:33:48.394225,27717,1593005628,393692731,,,0,1593005568,-63.97837067,22.35763931,0.933984935,37.78617859,0.669201374,0.0011503658,0.0389126614,1,0,-8.821800232,0.0017175898,1593005628.39369
2020/06/24/22:33:48.494122,27718,1593005628,493673324,,,0,1593005568,-65.01712799,22.42335701,0.947553813,40.05928802,0.665133715,-0.0136165954,0.0408746116,1,0,-8.314800262,0.00191670738,1593005628.49367
2020/06/24/22:33:48.594010,27719,1593005628,593666076,,,0,1593005568,-66.46959686,22.52087021,0.966513634,42.90390396,0.621260285,-0.00837686192,0.0393161811,1,0,-6.692399979,0.00219527376,1593005628.59367
2020/06/24/22:33:48.693961,27720,1593005628,693657636,,,0,1593005568,-67.19528198,22.57173729,0.97606796,44.20040512,0.60387665,-0.00894563552,0.0297232755,1,0,-4.765799999,0.00233493769,1593005628.69366
2020/06/24/22:33:48.794263,27721,1593005628,793673276,,,0,1593005568,-68.90444946,22.69441605,0.998357713,46.98336411,0.565396786,-0.0127024753,0.00126611069,1,0,-0.304199994,0.00266305986,1593005628.79367
2020/06/24/22:33:48.894220,27722,1593005628,893644094,,,0,1593005568,-69.41722107,22.73143578,1.00485909,47.75483322,0.55770421,-0.0142370965,0.00222518295,1,0,-0.304199994,0.00276082801,1593005628.89364
2020/06/24/22:33:48.994221,27723,1593005628,993670225,,,0,1593005568,-71.50782013,22.8818512,1.030566216,50.69235229,0.519949675,-0.0071048676,-0.0166710317,1,0,1.977299929,0.00316283386,1593005628.99367
2020/06/24/22:33:49.093949,27724,1593005629,93667984,,,0,1593005568,-72.79462433,22.97306061,1.045888066,52.34482574,0.50310111,-0.0104950499,-0.0137201007,1,0,1.419599891,0.00340962084,1593005629.09367
2020/06/24/22:33:49.194072,27725,1593005629,193725347,,,0,1593005568,-74.21192169,23.07225609,1.062102079,54.05146027,0.485794246,0.00322053954,-0.0120003317,1,0,1.419599891,0.00368138961,1593005629.19373
2020/06/24/22:33:49.294014,27726,1593005629,293708324,,,0,1593005568,-75.67249298,23.17338371,1.078820109,55.47893524,0.24847503,-0.0177356694,-0.0186450463,1,0,1.571699977,0.003962385,1593005629.29371
2020/06/24/22:33:49.393942,27727,1593005629,393655776,,,0,1593005568,-77.15886688,23.27508354,1.095227957,55.97775269,-0.0252137333,0.0416217335,-0.00825117901,1,0,1.216799974,0.00424756017,1593005629.39366
2020/06/24/22:33:49.493966,27728,1593005629,493668317,,,0,1593005568,-79.29640198,23.41942024,1.119109273,55.82330704,0.0452957898,0.00657217577,-0.016913943,1,0,1.977299929,0.00465883501,1593005629.49367
2020/06/24/22:33:49.593980,27729,1593005629,593651533,,,0,1593005568,-80.80514526,23.5197525,1.135797143,57.79460144,0.84168154,0.00448423252,-0.0143902972,1,0,1.622399926,0.00494839251,1593005629.59365
2020/06/24/22:33:49.693939,27730,1593005629,693643569,,,0,1593005568,-82.07945251,23.60341454,1.150834799,59.54605484,0.41077137,0.0310627315,-0.0203299839,1,0,1.774499893,0.00519347889,1593005629.69364
2020/06/24/22:33:49.793967,27731,1593005629,793677091,,,0,1593005568,-84.34936523,23.74970245,1.180443287,61.66129303,0.456649661,-0.0301810671,-0.0174621455,1,0,1.571699977,0.00562900957,1593005629.79368
2020/06/24/22:33:49.893945,27732,1593005629,893662691,,,0,1593005568,-86.01294708,23.85491943,1.200843215,63.21807098,0.455627859,-0.0272883959,-0.0156265944,1,0,1.166100025,0.00594871445,1593005629.89366
2020/06/24/22:33:49.993966,27733,1593005629,993676662,,,0,1593005568,-87.1805954,23.92802048,1.214028358,64.27233124,0.446177334,-0.015817292,-0.011953257,1,0,0.912599981,0.00617301278,1593005629.99368
2020/06/24/22:33:50.094002,27734,1593005630,93701601,,,0,1593005568,-89.57299805,24.07604408,1.239548087,66.32949829,0.428604275,0.00402706442,-0.00950141624,1,0,0.304199994,0.00663268846,1593005630.09370
2020/06/24/22:33:50.194020,27735,1593005630,193706512,,,0,1593005568,-91.19045258,24.17490196,1.25658381,67.65224457,0.430540502,-0.00536434818,-0.00910292566,1,0,0.506999969,0.0069449069,1593005630.19371
2020/06/24/22:33:50.294012,27736,1593005630,293706655,,,0,1593005568,-92.03956604,24.22646332,1.265535593,68.32668304,0.420338929,0.0139225889,-0.00868116878,1,0,0.45629999,0.00714744115,1593005630.29371
2020/06/24/22:33:50.394024,27737,1593005630,393709421,,,0,1593005568,-94.75415802,24.38895988,1.29487896,70.40479279,0.406047642,0.000123445207,-0.0393213853,1,0,4.309499741,0.00763664674,1593005630.39371
2020/06/24/22:33:50.494017,27738,1593005630,493706941,,,0,1593005568,-96.76817322,24.50520515,1.317035794,71.87039185,0.407276869,-0.00719228014,-0.0436665118,1,0,3.447599888,0.00814704131,1593005630.49371
2020/06/24/22:33:50.594101,27739,1593005630,593764305,,,0,1593005568,-98.33621979,24.59262657,1.334266305,72.97220612,0.396945357,-0.00106373266,-0.0496899746,1,0,2.991299868,0.00827176496,1593005630.59376
2020/06/24/22:33:50.694120,27740,1593005630,693778276,,,0,1593005568,-100.670517,24.71750259,1.359005809,74.54660797,0.387696028,-0.0043699611,-0.0629424229,1,0,4.81649971,0.00876403321,1593005630.69378
2020/06/24/22:33:50.793994,27741,1593005630,793699264,,,0,1593005568,-103.2446594,24.8460083,1.384651542,76.1999054,0.369734108,-0.00648205355,-0.098898612,1,0,8.923199654,0.00925821066,1593005630.79370
2020/06/24/22:33:50.894010,27742,1593005630,893696069,,,0,1593005568,-104.6491852,24.91037369,1.39815855,77.06868744,0.369855851,-0.00536025222,-0.11271213,1,0,9.379500389,0.00952803902,1593005630.89370
2020/06/24/22:33:50.994207,27743,1593005630,993842601,,,0,1593005568,-107.1129227,25.01153183,1.421344161,78.55403137,0.368909985,-0.00580476364,-0.124949723,1,0,8.365499496,0.010001176,1593005630.99384
2020/06/24/22:33:51.094040,27744,1593005631,93722105,,,0,1593005568,-110.0245972,25.11086464,1.448498607,80.24036407,0.36005187,0.001619566,-0.125713125,1,0,7.250100136,0.0105602853,1593005631.09372
2020/06/24/22:33:51.194137,27745,1593005631,193753957,,,0,1593005568,-111.2336197,25.14581299,1.460062981,80.92462158,0.357596785,0.0184310302,-0.127793401,1,0,7.097999573,0.0107926801,1593005631.19375
2020/06/24/22:33:51.294105,27746,1593005631,293762207,,,0,1593005568,-113.8197021,25.20852089,1.485909104,82.347229,0.351070076,0.0191075802,-0.130063251,1,0,7.047299862,0.0112900576,1593005631.29376
2020/06/24/22:33:51.393996,27747,1593005631,393695831,,,0,1593005568,-116.660286,25.25902176,1.515606284,83.85732269,0.341955274,0.0160760656,-0.128691465,1,0,6.540299892,0.0118353404,1593005631.39370
2020/06/24/22:33:51.493979,27748,1593005631,493681669,,,0,1593005568,-117.9941483,25.27646065,1.529472232,84.55082703,0.349272639,0.0047147302,-0.118880928,1,0,6.134699821,0.0120915938,1593005631.49368
2020/06/24/22:33:51.594048,27749,1593005631,593720912,,,0,1593005568,-121.3398285,25.30399132,1.566126943,86.20011902,0.323340714,0.0325103402,-0.107312188,1,0,4.81649971,0.0127344346,1593005631.59372
2020/06/24/22:33:51.693938,27750,1593005631,693661212,,,0,1593005568,-122.2043762,25.30761528,1.576301336,86.61873627,0.325205386,0.00582416076,-0.104894102,1,0,4.715099812,0.0129007054,1593005631.69366
2020/06/24/22:33:51.793956,27751,1593005631,793674707,,,0,1593005568,-125.8504715,25.30869675,1.620572448,88.26456451,0.31006673,0.000398426957,-0.0937836692,1,0,3.447599888,0.0136005385,1593005631.79367
2020/06/24/22:33:51.893934,27752,1593005631,893653869,,,0,1593005568,-127.9182281,25.30033684,1.64625299,88.72014618,-0.0386723503,-0.00592883164,-0.0861863419,1,0,2.991299868,0.0139982067,1593005631.89365
2020/06/24/22:33:51.993944,27753,1593005631,993662357,,,0,1593005568,-131.3885803,25.27462006,1.685637236,88.50806427,-0.0542788096,-0.00854706671,-0.0577958785,1,0,1.774499893,0.0146649526,1593005631.99366
2020/06/24/22:33:52.094167,27754,1593005632,93797683,,,0,1593005696,-132.7891083,25.26096535,1.700217724,88.45778656,0.0693830177,-0.0206347741,-0.0558432676,1,0,1.977299929,0.0149345491,1593005632.09380
2020/06/24/22:33:52.194069,27755,1593005632,193737268,,,0,1593005696,-135.9917755,25.22362137,1.73183012,90.48827362,0.471683621,-0.0201378167,-0.0507777259,1,0,2.991299868,0.0155496867,1593005632.19374
2020/06/24/22:33:52.294059,27756,1593005632,293729305,,,0,1593005696,-137.2030029,25.20736504,1.744062424,91.0676651,0.286982834,0.0492256433,-0.0586846918,1,0,3.244799852,0.0157826431,1593005632.29373
2020/06/24/22:33:52.393968,27757,1593005632,393679857,,,0,1593005696,-140.7990265,25.15147972,1.785311937,92.51338959,0.314696699,-0.0136751188,-0.0542443469,1,0,2.889899731,0.0164735802,1593005632.39368
2020/06/24/22:33:52.494028,27758,1593005632,493703365,,,0,1593005696,-142.9689484,25.11231422,1.811615705,93.42798615,0.30446136,0.00369531731,-0.0674429685,1,0,2.737799883,0.0168910362,1593005632.49370
2020/06/24/22:33:52.593961,27759,1593005632,593677282,,,0,1593005696,-146.6579132,25.03645325,1.857461095,94.90437317,0.289797157,0.0171352234,-0.0479869023,1,0,1.166100025,0.0175993685,1593005632.59368
2020/06/24/22:33:52.694000,27760,1593005632,693677902,,,0,1593005696,-148.1654511,25.00266838,1.877045512,95.49399567,0.296538383,0.0088043008,-0.0254620556,1,0,-1.521000028,0.0178895555,1593005632.69368
2020/06/24/22:33:52.793934,27761,1593005632,793653488,,,0,1593005696,-150.6450348,24.94585609,1.909545541,96.45604706,0.297976941,0.0254432987,0.012281226,1,0,-4.055999756,0.0183662716,1593005632.79365
2020/06/24/22:33:52.893962,27762,1593005632,893654823,,,0,1593005696,-153.1491699,24.88892555,1.942447424,97.38786316,0.282964379,-0.00449805986,0.00351991085,1,0,0,0.0188479368,1593005632.89365
2020/06/24/22:33:52.994012,27763,1593005632,993721008,,,0,1593005696,-156.9097443,24.80415153,1.989009142,98.78598785,0.277533561,-0.0228958167,0.0128007382,1,0,-0.405599982,0.0195705108,1593005632.99372
2020/06/24/22:33:53.094049,27764,1593005633,93715906,,,0,1593005696,-159.7234344,24.74208641,2.021807671,99.80003357,0.279975653,0.0287140626,-0.00338612497,1,0,1.216799974,0.0201112293,1593005633.09372
2020/06/24/22:33:53.194111,27765,1593005633,193710327,,,0,1593005696,-161.057373,24.71266747,2.038081408,100.263298,0.274103045,0.00274712709,-0.00563981431,1,0,0.912599981,0.0203679949,1593005633.19371
2020/06/24/22:33:53.294128,27766,1593005633,293784618,,,0,1593005696,-164.9272461,24.62657928,2.086633921,101.6195679,0.287801176,-0.00259947078,-0.012167559,1,0,1.064700007,0.0211119093,1593005633.29378
2020/06/24/22:33:53.394088,27767,1593005633,393754482,,,0,1593005696,-167.8206482,24.56039238,2.124443531,102.6017151,0.266897887,0.0496976115,-0.0265552774,1,0,1.368899941,0.0216674004,1593005633.39375
2020/06/24/22:33:53.494006,27768,1593005633,493678808,,,0,1593005696,-171.0868835,24.48242569,2.171123743,103.6777649,0.262557417,0.0476784855,-0.0345120654,1,0,1.368899941,0.0222948622,1593005633.49368
2020/06/24/22:33:53.593983,27769,1593005633,593669891,,,0,1593005696,-173.5150299,24.42173767,2.209724426,104.4560699,0.259943992,0.0543566048,-0.0352602303,1,0,1.216799974,0.0227622278,1593005633.59367
2020/06/24/22:33:53.694157,27770,1593005633,693794965,,,0,1593005696,-176.2242737,24.35110092,2.256884098,105.3089218,0.24884586,0.0813423768,-0.0318017006,1,0,1.064700007,0.0232827291,1593005633.69380
2020/06/24/22:33:53.794021,27771,1593005633,793716907,,,0,1593005696,-179.2203979,24.26966095,2.31435895,106.2243042,0.258863837,0.0616199002,-0.035268385,1,0,1.368899941,0.0238567144,1593005633.79372
2020/06/24/22:33:53.893928,27772,1593005633,893638849,,,0,1593005696,-183.0461121,24.15985107,2.392821789,107.3575516,0.252873868,0.0200794023,-0.0540324226,1,0,3.092700005,0.0245940015,1593005633.89364
2020/06/24/22:33:53.993923,27773,1593005633,993639230,,,0,1593005696,-185.9191132,24.071558,2.454545498,108.1832123,0.229085743,0.0107515007,-0.0665563866,1,0,3.396899939,0.0251463838,1593005633.99364
2020/06/24/22:33:54.094023,27774,1593005634,93704462,,,0,1593005696,-187.5447235,24.01890564,2.49025631,108.6523361,0.243422925,0.0506427586,-0.0815234035,1,0,3.650399923,0.025459867,1593005634.09370
2020/06/24/22:33:54.193995,27775,1593005634,193677663,,,0,1593005696,-191.2726135,23.88909912,2.578339338,109.6714706,0.231679335,0.0811707899,-0.0846208781,1,0,2.991299868,0.0261766985,1593005634.19368
2020/06/24/22:33:54.294058,27776,1593005634,293722629,,,0,1593005696,-194.389801,23.77054405,2.658930302,110.5061417,0.19831188,-0.11655131,-0.0841638073,1,0,4.309499741,0.0267756656,1593005634.29372
2020/06/24/22:33:54.394000,27777,1593005634,393675327,,,0,1593005696,-197.5307465,23.64116669,2.735594988,111.363266,0.246971324,-0.0479445159,-0.0996382907,1,0,4.005299568,0.0273803826,1593005634.39368
2020/06/24/22:33:54.494010,27778,1593005634,493694543,,,0,1593005696,-201.5361633,23.46089172,2.836763382,112.4115601,0.226255447,0.0666363239,-0.100423567,1,0,2.991299868,0.0281509832,1593005634.49369
2020/06/24/22:33:54.594005,27779,1593005634,593684673,,,0,1593005696,-204.5401306,23.3140583,2.920059919,113.179306,0.244516522,-0.0165217556,-0.124320537,1,0,5.424899578,0.0287292004,1593005634.59368
2020/06/24/22:33:54.693971,27780,1593005634,693657636,,,0,1593005696,-205.9551849,23.24102402,2.959260941,113.5411301,0.21871525,-0.0349032953,-0.125524193,1,0,4.917899609,0.0290016513,1593005634.69366
2020/06/24/22:33:54.794062,27781,1593005634,793724775,,,0,1593005696,-210.0352936,23.01711845,3.074072361,114.536171,0.215996265,0.0588246137,-0.106242083,1,0,2.078700066,0.0297868345,1593005634.79372
2020/06/24/22:33:54.894065,27782,1593005634,893716573,,,0,1593005696,-213.2858582,22.82590675,3.171697617,115.3405914,0.210043505,0.0612811521,-0.104070604,1,0,1.977299929,0.0304121226,1593005634.89372
2020/06/24/22:33:54.993995,27783,1593005634,993679285,,,0,1593005696,-216.5576782,22.62275314,3.275924683,116.1013565,0.203779027,0.0928982198,-0.0895900503,1,0,1.977299929,0.0310425404,1593005634.99368
2020/06/24/22:33:55.094018,27784,1593005635,93693256,,,0,1593005696,-219.2676849,22.44760513,3.368228674,116.737587,0.189964131,0.0633961484,-0.0840713903,1,0,1.571699977,0.0315643698,1593005635.09369
2020/06/24/22:33:55.194147,27785,1593005635,193755149,,,0,1593005696,-223.5548401,22.16042709,3.520030737,117.7046433,0.206959262,0.0678901225,-0.0635611191,1,0,1.571699977,0.0323912911,1593005635.19376
2020/06/24/22:33:55.294089,27786,1593005635,293746471,,,0,1593005696,-226.8912048,21.92971611,3.642984152,118.4596939,0.194958389,0.0304548368,-0.0474315509,1,0,-0.202799991,0.0330335312,1593005635.29375
2020/06/24/22:33:55.394067,27787,1593005635,393744945,,,0,1593005696,-228.3696442,21.82604218,3.697530985,118.7720337,0.21806781,-0.0304296296,-0.0343645588,1,0,0.709799945,0.033318948,1593005635.39374
2020/06/24/22:33:55.493972,27788,1593005635,493669748,,,0,1593005696,-232.6296539,21.52323341,3.858901024,119.6860428,0.196313664,0.0843025073,-0.0243668333,1,0,0,0.0341407247,1593005635.49367
2020/06/24/22:33:55.593967,27789,1593005635,593652248,,,0,1593005696,-236.4205017,21.24962997,4.009456635,120.4807663,0.19437629,0.0188081805,-0.0224586762,1,0,0.506999969,0.034872409,1593005635.59365
2020/06/24/22:33:55.693983,27790,1593005635,693672657,,,0,1593005696,-239.1287231,21.05248642,4.119695663,121.0344543,0.205280855,0.0969261602,0.00428375881,1,0,-0.811199963,0.0353947878,1593005635.69367
2020/06/24/22:33:55.793956,27791,1593005635,793658256,,,0,1593005696,-242.6569977,20.79460144,4.271389961,121.7211914,0.172195897,0.109837793,-0.0109591512,1,0,0.152099997,0.0360763744,1593005635.79366
2020/06/24/22:33:55.893959,27792,1593005635,893662929,,,0,1593005696,-247.0177002,20.47465897,4.464288712,122.4098053,0.017975647,-0.0671052113,-0.00340902922,0.928650022,0,-0.202799991,0.0369186029,1593005635.89366
2020/06/24/22:33:55.993958,27793,1593005635,993658781,,,0,1593005696,-250.1654968,20.24349594,4.601520538,122.163269,-0.0863344148,-0.0838769674,-0.0113248182,0.70994997,0,0.304199994,0.0375250652,1593005635.99366
2020/06/24/22:33:56.093953,27794,1593005636,93652725,,,0,1593005696,-252.091156,20.10160065,4.684735775,122.0008392,-0.0897432938,-0.0195486229,-0.0140629699,0.97360003,0,0.304199994,0.0378974192,1593005636.09365
2020/06/24/22:33:56.193950,27795,1593005636,193657636,,,0,1593005696,-256.8747253,19.7478714,4.889924526,123.1785431,0.14654775,0.098658748,0.0166886952,1,0,-1.216799974,0.0388209,1593005636.19366
2020/06/24/22:33:56.293968,27796,1593005636,293673038,,,0,1593005696,-260.3603821,19.49044037,5.046637058,123.753418,0.169641182,0.142230213,-0.00638648681,1,0,0,0.0394932218,1593005636.29367
2020/06/24/22:33:56.393940,27797,1593005636,393649816,,,0,1593005696,-262.2124023,19.35342598,5.134420395,124.0875397,0.186547235,0.0179250892,-0.00108579732,1,0,0.304199994,0.0398503579,1593005636.39365
2020/06/24/22:33:56.493961,27798,1593005636,493667364,,,0,1593005696,-267.0718384,18.99300766,5.3665905,124.9529037,0.193364829,-0.0466534831,-0.00554613955,1,0,0.45629999,0.0407889448,1593005636.49367
2020/06/24/22:33:56.593946,27799,1593005636,593655586,,,0,1593005696,-269.982666,18.77627373,5.506884098,125.4594803,0.148454413,-0.0237510502,-0.0221321564,1,0,0.45629999,0.0413519107,1593005636.59366
2020/06/24/22:33:56.693946,27800,1593005636,693654060,,,0,1593005696,-273.3236389,18.52634811,5.666732788,126.0348663,0.165563583,-0.15363434,-0.00833788887,1,0,0.152099997,0.0419968218,1593005636.69365
2020/06/24/22:33:56.793938,27801,1593005636,793650388,,,0,1593005696,-277.9423218,18.1784687,5.885097027,126.8226547,0.175141543,0.0417267941,-0.00854168274,1,0,0,0.0428891592,1593005636.79365
2020/06/24/22:33:56.893942,27802,1593005636,893651485,,,0,1593005696,-280.2621155,18.0025692,5.997324944,127.2049637,0.162972182,-0.076365605,-0.0263417922,1,0,0.152099997,0.0433369018,1593005636.89365
2020/06/24/22:33:56.993947,27803,1593005636,993656635,,,0,1593005696,-285.2415771,17.62254143,6.238240719,128.0252991,0.168502644,-0.0233021472,-0.0189467557,1,0,0.506999969,0.0442989655,1593005636.99366
2020/06/24/22:33:57.093933,27804,1593005637,93643426,,,0,1593005696,-286.9439697,17.49194908,6.320983887,128.3158264,0.161451265,0.00553164817,-0.0155801503,1,0,0.45629999,0.0446267836,1593005637.09364
2020/06/24/22:33:57.194046,27805,1593005637,193719625,,,0,1593005696,-291.9658813,17.10427094,6.562287331,129.126709,0.178099066,-0.00966172665,-0.0161325708,1,0,0.506999969,0.0455994569,1593005637.19372
2020/06/24/22:33:57.294065,27806,1593005637,293743133,,,0,1593005696,-293.5752563,16.9792881,6.63925314,129.3888855,0.165122882,-0.00711041177,-0.0251890719,1,0,1.216799974,0.0459085144,1593005637.29374
2020/06/24/22:33:57.394068,27807,1593005637,393760919,,,0,1593005696,-298.7463684,16.57333946,6.88480854,130.2199402,0.186123669,-0.0716859698,-0.0561206788,1,0,2.991299868,0.0469069518,1593005637.39376
2020/06/24/22:33:57.493935,27808,1593005637,493666648,,,0,1593005696,-302.1034851,16.30424881,7.037855625,130.741806,0.164905772,0.0259047393,-0.0764668286,1,0,3.903899908,0.0475562364,1593005637.49367
2020/06/24/22:33:57.593920,27809,1593005637,593645811,,,0,1593005696,-305.9093323,15.99137592,7.211194038,131.3367157,0.169184893,0.000706330524,-0.0815772265,1,0,1.774499893,0.0482918806,1593005637.59365
2020/06/24/22:33:57.693954,27810,1593005637,693654775,,,0,1593005696,-309.07547,15.72467804,7.353086948,131.8276978,0.153321743,-0.00652003707,-0.0770216957,1,0,1.216799974,0.0489031933,1593005637.69365
2020/06/24/22:33:57.794081,27811,1593005637,793730974,,,0,1593005696,-312.4725342,15.43208313,7.502578735,132.3532867,0.137350842,-0.0242539216,-0.0740211383,1,0,1.166100025,0.0495603718,1593005637.79373
2020/06/24/22:33:57.893951,27812,1593005637,893657445,,,0,1593005696,-317.4274597,14.99434853,7.709719658,133.1278534,0.160272479,0.0277207382,-0.0882773846,1,0,1.622399926,0.050517831,1593005637.89366
2020/06/24/22:33:57.993952,27813,1593005637,993653774,,,0,1593005696,-320.1920776,14.74460125,7.821102142,133.5439148,0.157121271,0.0890422165,-0.073593244,1,0,1.825199962,0.0510526411,1593005637.99365
2020/06/24/22:33:58.093940,27814,1593005638,93645811,,,0,1593005696,-324.8554688,14.31450653,8.01129055,134.2411957,0.163820937,0.00125201466,-0.0709013268,1,0,1.825199962,0.0519549809,1593005638.09365
2020/06/24/22:33:58.193928,27815,1593005638,193636894,,,0,1593005696,-328.4241943,13.97782516,8.156823158,134.7725677,0.16738236,-0.0661781356,-0.0704326034,1,0,1.571699977,0.0526462235,1593005638.19364
2020/06/24/22:33:58.293941,27816,1593005638,293650388,,,0,1593005696,-330.8857727,13.742136,8.254030228,135.1512299,0.151004001,-0.0594525672,-0.0569801889,1,0,1.166100025,0.0531225093,1593005638.29365
2020/06/24/22:33:58.393956,27817,1593005638,393656969,,,0,1593005696,-334.8156433,13.36105347,8.401154518,135.7352905,0.176674694,-0.136860847,-0.0427510105,1,0,1.419599891,0.0538828336,1593005638.39366
2020/06/24/22:33:58.493963,27818,1593005638,493660926,,,0,1593005696,-339.5540161,12.89365196,8.56403923,136.4447174,0.180040449,-0.0469261482,-0.0600437447,1,0,1.571699977,0.0547993034,1593005638.49366
2020/06/24/22:33:58.593949,27819,1593005638,593656063,,,0,1593005696,-343.2937622,12.51804829,8.689443588,136.9990234,0.131769419,0.0828094259,-0.060452044,1,0,1.368899941,0.0555219278,1593005638.59366
2020/06/24/22:33:58.693943,27820,1593005638,693644523,,,0,1593005696,-346.5919189,12.18226433,8.80314827,137.4710236,0.15823108,-0.0434525199,-0.0335958414,1,0,1.216799974,0.0561591461,1593005638.69364
2020/06/24/22:33:58.793942,27821,1593005638,793646812,,,0,1593005696,-351.0452576,11.72329235,8.949625015,138.1235809,0.158926159,-0.243652269,-0.0399626605,1,0,0,0.0570220165,1593005638.79365
2020/06/24/22:33:58.893943,27822,1593005638,893650293,,,0,1593005696,-354.3707581,11.37712669,9.043221474,138.6291351,0.164061353,-0.0847587809,-0.0310558174,1,0,-0.912599981,0.0576629341,1593005638.89365
2020/06/24/22:33:58.993947,27823,1593005638,993653297,,,0,1593005696,-358.5154419,10.94309521,9.150881767,139.2422485,0.14487949,-0.101521023,-0.0123271402,1,0,-0.608399987,0.0584644563,1593005638.99365
2020/06/24/22:33:59.093957,27824,1593005639,93656539,,,0,1593005696,-361.8678284,10.59107304,9.228746414,139.7476044,0.154563606,-0.0200078916,0.0168944187,1,0,-1.723799944,0.0591130182,1593005639.09366
2020/06/24/22:33:59.194069,27825,1593005639,193738698,,,0,1593005696,-365.6972351,10.19021893,9.314551353,140.2983246,0.156779453,-0.0188736338,0.0247705784,1,0,-1.115399957,0.0598544963,1593005639.19374
2020/06/24/22:33:59.293931,27826,1593005639,293657064,,,0,1593005696,-369.07547,9.838888168,9.387948036,140.7978516,0.15861693,-0.039495904,0.0429036394,1,0,-1.318199992,0.0605080463,1593005639.29366
2020/06/24/22:33:59.393946,27827,1593005639,393654823,,,0,1593005696,-373.2862244,9.405475616,9.474143982,141.4175873,0.161959127,0.00837073289,0.0547371134,1,0,-1.92659986,0.0613228008,1593005639.39365
2020/06/24/22:33:59.493954,27828,1593005639,493658304,,,0,1593005696,-377.1627502,9.012238503,9.550844192,141.9702148,0.169059977,0.0149310119,0.0675852746,1,0,-2.129400015,0.0620725602,1593005639.49366
2020/06/24/22:33:59.593940,27829,1593005639,593649864,,,0,1593005696,-382.5927734,8.472768784,9.658221245,142.7403412,0.152897626,0.00795221701,0.0788918436,1,0,-2.129400015,0.0631217882,1593005639.59365
2020/06/24/22:33:59.693939,27830,1593005639,693642377,,,0,1593005696,-384.488678,8.28780365,9.695944786,143.0011292,0.160203859,-0.0222054701,0.0800280869,1,0,-2.129400015,0.063488327,1593005639.69364
2020/06/24/22:33:59.793942,27831,1593005639,793651103,,,0,1593005696,-390.3179321,7.730807304,9.808860779,143.8192139,0.156614855,-0.054024823,0.0855064839,1,0,-2.33220005,0.0646147728,1593005639.79365
2020/06/24/22:33:59.893933,27832,1593005639,893639326,,,0,1593005696,-393.5449219,7.430379391,9.867395401,144.2622375,0.148077831,0.00177341467,0.0925879925,1,0,-2.433599949,0.0652379915,1593005639.89364
2020/06/24/22:33:59.993957,27833,1593005639,993659734,,,0,1593005696,-397.3830566,7.080971718,9.936321259,144.7876434,0.146398485,0.00401143916,0.0950397253,1,0,-2.433599949,0.0659791008,1593005639.99366
2020/06/24/22:34:00.093944,27834,1593005640,93651056,,,0,1593005696,-401.7184143,6.697065353,10.01447773,145.3695374,0.151033327,0.0246497616,0.101905875,1,0,-2.534999847,0.0668165237,1593005640.09365
2020/06/24/22:34:00.193944,27835,1593005640,193652153,,,0,1593005696,-406.1932678,6.313144207,10.09674263,145.9624786,0.176571772,-0.0293462053,0.109639496,1,0,-2.534999847,0.0676788017,1593005640.19365
2020/06/24/22:34:00.293935,27836,1593005640,293643236,,,0,1593005696,-407.7701111,6.18087101,10.12540436,146.171402,0.16277726,-0.0194218289,0.106255502,1,0,-2.534999847,0.0679829642,1593005640.29364
2020/06/24/22:34:00.393947,27837,1593005640,393658876,,,0,1593005696,-413.7349854,5.695162296,10.22896767,146.9484863,0.146123111,-0.108556084,0.115517713,1,0,-3.346199989,0.0691335648,1593005640.39366
2020/06/24/22:34:00.493945,27838,1593005640,493654966,,,0,1593005696,-416.9138489,5.446127415,10.27683926,147.3724365,0.14385955,-0.107233934,0.127364427,1,0,-4.461599827,0.0697466135,1593005640.49366
2020/06/24/22:34:00.593936,27839,1593005640,593647003,,,0,1593005696,-421.8234558,5.076793194,10.338871,148.0155487,0.147814929,-0.0171937812,0.154534653,1,0,-5.069999695,0.0706931055,1593005640.59365
2020/06/24/22:34:00.693948,27840,1593005640,693656206,,,0,1593005696,-425.026947,4.847463131,10.37687588,148.4228668,0.152202278,0.035160508,0.170406908,1,0,-5.069999695,0.0713112652,1593005640.69366
2020/06/24/22:34:00.793946,27841,1593005640,793658733,,,0,1593005696,-429.6021118,4.537920952,10.43220425,149.0053558,0.160604566,-0.0410512313,0.188748479,1,0,-5.577000141,0.0721929148,1593005640.79366
2020/06/24/22:34:00.893935,27842,1593005640,893645048,,,0,1593005696,-434.5701294,4.228168964,10.48901558,149.6285553,0.145777389,0.0124097141,0.218108729,1,0,-5.475599766,0.0731504634,1593005640.89365
2020/06/24/22:34:00.993938,27843,1593005640,993647575,,,0,1593005696,-438.6856079,3.99470377,10.5365696,150.1323242,0.144470498,0.00430190098,0.218244702,1,0,-4.360199451,0.0739434361,1593005640.99365
2020/06/24/22:34:01.093948,27844,1593005641,93653917,,,0,1593005696,-440.811554,3.882348061,10.56126308,150.3904724,0.127070844,-0.0547695011,0.209991336,1,0,-4.157400131,0.0743526444,1593005641.09365
2020/06/24/22:34:01.194100,27845,1593005641,193750619,,,0,1593005696,-447.0876465,3.581868649,10.62447262,151.1720581,0.15422307,-0.0792379081,0.199360624,1,0,-4.25880003,0.0755609274,1593005641.19375
2020/06/24/22:34:01.293976,27846,1593005641,293652772,,,0,1593005696,-450.4911194,3.437653065,10.65119553,151.5934906,0.136692643,-0.125848651,0.191170454,1,0,-4.25880003,0.0762153342,1593005641.29365
2020/06/24/22:34:01.393913,27847,1593005641,393648862,,,0,1593005696,-455.0449524,3.26426363,10.67691231,152.1664429,0.146699756,-0.000762031123,0.202393189,1,0,-3.85319972,0.0770910755,1593005641.39365
2020/06/24/22:34:01.493951,27848,1593005641,493657350,,,0,1593005696,-459.2348633,3.124831915,10.69886303,152.6792145,0.142250791,-0.0216738582,0.182809398,1,0,-2.636399984,0.0778966844,1593005641.49366
2020/06/24/22:34:01.593942,27849,1593005641,593651771,,,0,1593005696,-462.6739502,3.023613453,10.71502781,153.1110382,0.143389568,-0.0717210025,0.176178932,1,0,-3.244799852,0.0785575882,1593005641.59365
2020/06/24/22:34:01.693946,27850,1593005641,693650484,,,0,1593005696,-467.4030151,2.902635336,10.72975731,153.69841,0.152950257,-0.0385781527,0.159963965,1,0,-2.839199781,0.0794665739,1593005641.69365
2020/06/24/22:34:01.793936,27851,1593005641,793643951,,,0,1593005696,-472.4078674,2.795333862,10.73875332,154.3189697,0.142895281,-0.060893178,0.147234216,1,0,-3.447599888,0.0804281235,1593005641.79364
2020/06/24/22:34:01.893945,27852,1593005641,893652439,,,0,1593005696,-476.7879028,2.717504501,10.74055099,154.8617706,0.141804546,-0.035233248,0.145971,1,0,-3.447599888,0.0812698528,1593005641.89365
2020/06/24/22:34:01.993941,27853,1593005641,993647098,,,0,1593005696,-480.6655884,2.661105633,10.73918152,155.3388519,0.138305441,-0.00586540252,0.156253561,1,0,-3.85319972,0.0820151791,1593005641.99365
2020/06/24/22:34:02.093937,27854,1593005642,93641519,,,0,1593005696,-484.5553284,2.616980791,10.73710918,155.8122711,0.145851448,0.00974420644,0.165638626,1,0,-3.954599857,0.0827628896,1593005642.09364
2020/06/24/22:34:02.193953,27855,1593005642,193658113,,,0,1593005696,-488.9780884,2.582952261,10.7364378,156.3434448,0.138625354,0.076460965,0.179190844,1,0,-3.954599857,0.0836134255,1593005642.19366
2020/06/24/22:34:02.293942,27856,1593005642,293648481,,,0,1593005696,-494.5928955,2.566225052,10.74688148,156.9943542,0.134961545,0.106088951,0.185110033,1,0,-3.650399923,0.0846934766,1593005642.29365
2020/06/24/22:34:02.393945,27857,1593005642,393651247,,,0,1593005696,-497.2123413,2.568767786,10.75718975,157.2912903,0.124414474,0.0680196285,0.183803484,1,0,-3.954599857,0.0851973295,1593005642.39365
2020/06/24/22:34:02.493947,27858,1593005642,493651866,,,0,1593005696,-502.5976868,2.594117641,10.78155041,157.9098206,0.147021487,-0.0640194863,0.177085534,1,0,-4.360199451,0.0862326846,1593005642.49365
2020/06/24/22:34:02.593929,27859,1593005642,593640089,,,0,1593005696,-507.3435364,2.638648033,10.79817677,158.4487915,0.130125269,0.0547264367,0.196314514,1,0,-4.055999756,0.0871455446,1593005642.59364
2020/06/24/22:34:02.693944,27860,1593005642,693650484,,,0,1593005696,-510.9131775,2.686719418,10.8132143,158.8424225,0.149426445,0.0773806572,0.192883328,1,0,-3.447599888,0.0878333598,1593005642.69365
2020/06/24/22:34:02.793952,27861,1593005642,793658018,,,0,1593005696,-515.4206543,2.765044451,10.83707237,159.335144,0.0961728618,-0.0421137027,0.181349978,1,0,-3.954599857,0.0886989608,1593005642.79366
2020/06/24/22:34:02.893951,27862,1593005642,893656015,,,0,1593005696,-519.4092407,2.849930286,10.85539818,159.7769775,0.127114743,-0.0419021994,0.181427136,1,0,-3.75180006,0.0894658715,1593005642.89366
2020/06/24/22:34:02.993949,27863,1593005642,993656873,,,0,1593005696,-523.9425049,2.963877201,10.87240791,160.2738495,0.147966206,-0.0100315539,0.179711372,1,0,-3.650399923,0.0903379172,1593005642.99366
2020/06/24/22:34:03.093951,27864,1593005643,93656778,,,0,1593005696,-528.3553467,3.092687845,10.88820457,160.7498627,0.0975490212,0.0315183178,0.182218656,1,0,-3.548999786,0.0911861882,1593005643.09366
2020/06/24/22:34:03.194076,27865,1593005643,193738460,,,0,1593005696,-534.2585449,3.292683601,10.90793896,161.3837585,0.127028853,0.00531039061,0.186901048,1,0,-3.447599888,0.0923216566,1593005643.19374
2020/06/24/22:34:03.293923,27866,1593005643,293652772,,,0,1593005696,-537.487793,3.415676594,10.91782856,161.7264862,0.182178944,0.0277691893,0.183661357,1,0,-3.042000055,0.0929426476,1593005643.29365
2020/06/24/22:34:03.393950,27867,1593005643,393658161,,,0,1593005696,-543.4246826,3.665801525,10.94085693,162.3424377,0.124434233,0.0471017547,0.157942176,1,0,-2.027999878,0.0940850154,1593005643.39366
2020/06/24/22:34:03.493949,27868,1593005643,493655443,,,0,1593005696,-548.0267944,3.878696203,10.96351814,162.8187561,0.114538558,-0.0289666038,0.14213112,1,0,-2.433599949,0.0949706063,1593005643.49366
2020/06/24/22:34:03.593935,27869,1593005643,593646049,,,0,1593005696,-552.6417236,4.106818199,10.98394585,163.2978821,0.16946651,-0.0140713686,0.13243705,1,0,-2.534999847,0.0958601013,1593005643.59365
2020/06/24/22:34:03.693938,27870,1593005643,693643808,,,0,1593005696,-555.9069824,4.276596546,10.99699402,163.6284485,0.111823164,-0.0264124796,0.132716551,1,0,-2.534999847,0.0964873359,1593005643.69364
2020/06/24/22:34:03.793948,27871,1593005643,793655872,,,0,1593005696,-559.7244263,4.483657837,11.01189709,164.016983,0.0893094242,0.0724830627,0.121719569,1,0,-0.202799991,0.0972228125,1593005643.79366
2020/06/24/22:34:03.893947,27872,1593005643,893653154,,,0,1593005696,-565.3294067,4.800555229,11.04113388,164.5721436,0.122025996,0.0154676419,0.0456470251,1,0,2.534999847,0.0983022973,1593005643.89365
2020/06/24/22:34:03.993935,27873,1593005643,993643760,,,0,1593005696,-569.0306396,5.014211178,11.06273937,164.9323425,0.133381754,0.016717786,0.0364626385,1,0,0.253499985,0.099015519,1593005643.99364
2020/06/24/22:34:04.093955,27874,1593005644,93660116,,,0,1593005696,-573.7028198,5.286458492,11.09012032,165.3914185,0.159372151,-0.0321095102,-0.00555219222,1,0,0.45629999,0.0999155641,1593005644.09366
2020/06/24/22:34:04.193936,27875,1593005644,193643093,,,0,1593005696,-579.354126,5.615493298,11.11923599,165.9226074,0.114290364,-0.0189502258,0.00041900808,1,0,-1.013999939,0.10100577,1593005644.19364
2020/06/24/22:34:04.293933,27876,1593005644,293641328,,,0,1593005696,-584.1866455,5.896336555,11.14131451,165.8845215,-0.085640505,-0.0122632338,-0.00778345158,1,0,-0.709799945,0.101935774,1593005644.29364
2020/06/24/22:34:04.393934,27877,1593005644,393644332,,,0,1593005696,-586.5313721,6.032392025,11.15164948,165.7407532,-0.0433345176,-0.0416287482,0.00114413188,1,0,-0.608399987,0.102387622,1593005644.39364
2020/06/24/22:34:04.493945,27878,1593005644,493651390,,,0,1593005696,-592.1781616,6.360325336,11.16994381,165.401123,-0.0585215613,-0.0945699289,0.011149969,1,0,0.152099997,0.103476129,1593005644.49365
2020/06/24/22:34:04.593932,27879,1593005644,593641519,,,0,1593005696,-597.8310547,6.689917088,11.17838669,166.0752716,0.131687373,0.0738160759,0.000902047381,1,0,1.064700007,0.104565352,1593005644.59364
2020/06/24/22:34:04.693940,27880,1593005644,693647384,,,0,1593005696,-601.7033081,6.916025162,11.18881798,166.3729095,0.0847695246,0.117402494,-0.0109344674,1,0,1.368899941,0.105311729,1593005644.69365
2020/06/24/22:34:04.793929,27881,1593005644,793639659,,,0,1593005696,-607.5258179,7.254827023,11.2151947,166.8794861,0.141858861,-0.0423056595,-0.00805401336,1,0,0,0.106433839,1593005644.79364
2020/06/24/22:34:04.893929,27882,1593005644,893637895,,,0,1593005696,-611.4177856,7.480709553,11.23105812,167.2446136,0.136730596,-0.0138658956,-0.00521296449,1,0,-0.304199994,0.107184947,1593005644.89364
2020/06/24/22:34:04.993931,27883,1593005644,993640661,,,0,1593005696,-615.178772,7.698791027,11.24539089,167.5914459,0.125075459,0.0187558029,0.00217832765,1,0,-0.506999969,0.107908614,1593005644.99364
2020/06/24/22:34:05.093938,27884,1593005645,93646526,,,0,1593005696,-619.9259033,7.973771572,11.26515675,168.0256805,0.122010633,0.056977395,-0.00363077084,1,0,-0.101399995,0.108823314,1593005645.09365
2020/06/24/22:34:05.194066,27885,1593005645,193721294,,,0,1593005696,-625.2458496,8.281744957,11.29240608,168.5016479,0.0812596679,-0.0507164672,0.00832420401,1,0,-0.202799991,0.109848402,1593005645.19372
2020/06/24/22:34:05.293950,27886,1593005645,293663501,,,0,1593005696,-629.1755981,8.509662628,11.31070709,168.8624725,0.114880867,-0.0141195394,0.00540098827,1,0,-0.405599982,0.110605866,1593005645.29366
2020/06/24/22:34:05.393947,27887,1593005645,393654823,,,0,1593005696,-634.9447021,8.846074104,11.33557796,169.382019,0.136817351,-0.00184126955,0.0533654764,1,0,-4.968600273,0.111717507,1593005645.39365
2020/06/24/22:34:05.493941,27888,1593005645,493647813,,,0,1593005696,-636.9185791,8.962735176,11.34392166,169.5475311,0.0966953859,0.0162391886,0.0787928104,1,0,-5.678399563,0.112096921,1593005645.49365
2020/06/24/22:34:05.593952,27889,1593005645,593662023,,,0,1593005696,-643.8422241,9.383992195,11.37153053,170.1594086,0.0900832862,-0.0142216831,0.126992568,1,0,-2.737799883,0.113432288,1593005645.59366
2020/06/24/22:34:05.693949,27890,1593005645,693655490,,,0,1593005696,-649.6520996,9.756718636,11.39433384,170.5468597,0.0344829001,0.0488048829,0.119148746,0.538399994,0,1.166100025,0.114552498,1593005645.69366
2020/06/24/22:34:05.793942,27891,1593005645,793648481,,,0,1593005696,-651.6372681,9.888205528,11.40375996,170.529129,-0.028979931,0.066413559,0.101776555,0.0427000225,0,2.484300137,0.114934996,1593005645.79365
2020/06/24/22:34:05.893950,27892,1593005645,893658161,,,0,1593005696,-658.5706177,10.35845184,11.44602299,169.7061462,-0.533449471,0.0421949476,0.021000227,0,0.935034931,3.244799852,0.116272308,1593005645.89366
2020/06/24/22:34:05.993938,27893,1593005645,993647336,,,0,1593005696,-661.5126953,10.5601778,11.46775818,167.4962311,-1.158096433,0.0645533949,-0.0303471014,0,1,5.069999695,0.116840579,1593005645.99365
2020/06/24/22:34:06.093961,27894,1593005646,93666076,,,0,1593005696,-668.3450317,11.02216434,11.5242815,161.5905762,-1.056482077,-0.080267027,-0.106597327,0,1,7.807799816,0.118159048,1593005646.09367
2020/06/24/22:34:06.193923,27895,1593005646,193632841,,,0,1593005696,-671.1421509,11.20612144,11.5461092,159.1533356,-1.047840118,-0.100065738,-0.12791273,0,1,9.835799217,0.118699007,1593005646.19363
2020/06/24/22:34:06.293935,27896,1593005646,293639898,,,0,1593005696,-674.8068237,11.43993282,11.57194233,155.9334412,-1.075782537,-0.104603797,-0.124591127,0,1,8.923199654,0.119406566,1593005646.29364
2020/06/24/22:34:06.393938,27897,1593005646,393646240,,,0,1593005696,-679.2822266,11.71215153,11.59958172,151.8598633,-1.075336576,-0.0810643062,-0.191859931,0,1,4.157400131,0.120270841,1593005646.39365
2020/06/24/22:34:06.493947,27898,1593005646,493654966,,,0,1593005696,-685.463501,12.06018066,11.63913918,145.7266693,-1.029566765,-0.0509615578,-0.211511925,0,1,-0.304199994,0.121463925,1593005646.49366
2020/06/24/22:34:06.593941,27899,1593005646,593651294,,,0,1593005696,-689.1714478,12.25114822,11.66489887,142.0977325,-1.083030462,-0.0857878625,-0.199541733,0.143050015,1,1.166100025,0.122179233,1593005646.59365
2020/06/24/22:34:06.693930,27900,1593005646,693636417,,,0,1593005696,-692.0940552,12.39076042,11.68417168,139.1262207,-1.116698861,-0.0277976058,-0.218952328,0.302749991,1,6.388199806,0.122742161,1593005646.69364
2020/06/24/22:34:06.793947,27901,1593005646,793656826,,,0,1593005696,-697.310791,12.60874176,11.72217178,133.6206665,-1.236213803,0.0413308479,-0.266866505,0,1,9.835799217,0.123746075,1593005646.79366
2020/06/24/22:34:06.893928,27902,1593005646,893634557,,,0,1593005696,-699.2942505,12.67944241,11.73970795,131.4023438,-1.207424164,-0.00111461501,-0.260232836,0,1,9.075299263,0.124127008,1593005646.89363
2020/06/24/22:34:06.993940,27903,1593005646,993649959,,,0,1593005696,-703.7908325,12.81274033,11.79134655,125.991539,-1.291664124,0.164463297,-0.252877831,0,1,5.019299984,0.124987498,1593005646.99365
2020/06/24/22:34:07.093937,27904,1593005647,93641996,,,0,1593005696,-706.6828613,12.87819195,11.83874512,122.3606262,-1.246596694,0.122004852,-0.272258341,0,1,9.075299263,0.125538051,1593005647.09364
2020/06/24/22:34:07.194225,27905,1593005647,193787574,,,0,1593005696,-711.3554077,12.94298458,11.93501949,116.7817688,-1.109485269,-0.0125418305,-0.313588113,0.257800013,1,10.90049934,0.126421317,1593005647.19379
2020/06/24/22:34:07.294050,27906,1593005647,293725013,,,0,1593005696,-712.9931641,12.9522953,11.97115421,114.8531723,-1.044684172,-0.0938332528,-0.281069547,0,1,14.55089951,0.126728818,1593005647.29373
2020/06/24/22:34:07.393932,27907,1593005647,393656253,,,0,1593005696,-717.019043,12.94258022,12.05287075,110.2925644,-0.983766794,-0.136747018,-0.40039289,0,1,32.90429688,0.127477199,1593005647.39366
2020/06/24/22:34:07.493966,27908,1593005647,493656158,,,0,1593005696,-719.2843628,12.91024494,12.09319878,107.5407791,-1.115455866,0.0397666544,-0.487699389,0,1,34.32389832,0.127895728,1593005647.49366
2020/06/24/22:34:07.593957,27909,1593005647,593651294,,,0,1593005696,-722.7854004,12.81060219,12.16139984,103.0207062,-1.058009982,0.0282336697,-0.431602329,0,1,24.79229927,0.128535837,1593005647.59365
2020/06/24/22:34:07.693953,27910,1593005647,693645000,,,0,1593005696,-723.9754639,12.7629776,12.18620682,101.5271225,-0.98578912,-0.0970793366,-0.381246388,0,1,17.99849892,0.128752828,1593005647.69365
2020/06/24/22:34:07.793963,27911,1593005647,793657064,,,0,1593005696,-728.0708008,12.55044746,12.2728529,95.73841095,-1.076517582,-0.0279685501,-0.4011572,0,1,16.8830986,0.129485086,1593005647.79366
2020/06/24/22:34:07.893960,27912,1593005647,893652200,,,0,1593005696,-730.8700562,12.3551693,12.33410168,91.70088959,-1.12207675,0.0336528718,-0.486761659,0,1,34.52669907,0.129980564,1593005647.89365
2020/06/24/22:34:07.993951,27913,1593005647,993645668,,,0,1593005696,-731.9243774,12.26721859,12.35894871,90.06455231,-1.079811931,0.0882883295,-0.553901732,0,1,40.50929642,0.130164117,1593005647.99365
2020/06/24/22:34:08.093979,27914,1593005648,93669652,,,0,1593005696,-735.7365112,11.8641119,12.47050667,84.07176209,-0.949988782,0.113255106,-0.635708928,0,0.746680558,48.51989746,0.130828127,1593005648.09367
2020/06/24/22:34:08.193962,27915,1593005648,193656206,,,0,1593005696,-736.9729004,11.6998167,12.51298237,82.68481445,-0.558067083,-0.0870470926,-0.667549014,0,0.282670677,48.82410049,0.131041527,1593005648.19366
2020/06/24/22:34:08.293980,27916,1593005648,293671607,,,0,1593005696,-740.24823,11.15994358,12.62702942,80.37955475,-0.290394485,0.0250961129,-0.842897534,0,0.103980102,45.88349915,0.131606638,1593005648.29367
2020/06/24/22:34:08.393957,27917,1593005648,393651008,,,0,1593005696,-741.8791504,10.82596779,12.68660831,79.66122437,-0.254944652,0.0206500925,-0.857144356,0,0.071556367,47.60729599,0.131886348,1593005648.39365
2020/06/24/22:34:08.493972,27918,1593005648,493664026,,,0,1593005696,-744.8184204,10.10179424,12.79893684,78.50728607,-0.224983424,0.0291961897,-0.790456355,0,0.0373436026,52.6772995,0.132388726,1593005648.49366
2020/06/24/22:34:08.593935,27919,1593005648,593629360,,,0,1593005696,-745.8852539,9.801721573,12.83971405,78.14431763,-0.15576902,-0.0932394937,-0.599808633,0,0.0104757249,58.35569763,0.132573351,1593005648.59363
2020/06/24/22:34:08.693946,27920,1593005648,693637847,,,0,1593005696,-747.6833496,9.25557518,12.90579319,77.54636383,-0.176523149,-0.0613327138,-0.626183033,0,0.00459937518,68.69850159,0.132887289,1593005648.69364
2020/06/24/22:34:08.793950,27921,1593005648,793644905,,,0,1593005696,-750.2953491,8.368589401,12.99902058,76.57968903,-0.204485491,-0.0102284383,-0.612236798,0,0.00107035541,69.00270081,0.13333869,1593005648.79364
2020/06/24/22:34:08.893952,27922,1593005648,893645286,,,0,1593005696,-752.7814331,7.416377544,13.08765507,75.71586609,-0.118920967,-0.16009213,-0.551359951,0,0.00032931217,75.49230194,0.133768797,1593005648.89365
2020/06/24/22:34:08.993964,27923,1593005648,993651390,,,0,1593005696,-754.0009766,6.911166668,13.12514305,75.26971436,-0.147159889,-0.185742766,-0.393911511,0,9.14E-05,78.53430176,0.133980498,1593005648.99365
2020/06/24/22:34:09.093969,27924,1593005649,93661069,,,0,1593005696,-756.5684204,5.77865839,13.17380238,74.39366913,-0.253510118,-0.0342415534,-0.640232086,0,0,94.6568985,0.134428293,1593005649.09366
2020/06/24/22:34:09.194089,27925,1593005649,193727254,,,0,1593005696,-757.7949219,5.198095322,13.19355106,73.73057556,-0.246273473,0.240814656,-0.685938001,0,0,96.38069916,0.134641618,1593005649.19373
2020/06/24/22:34:09.293948,27926,1593005649,293653011,,,0,1593005696,-759.480957,4.3451581,13.24292278,72.73822021,-0.238810495,0.244479492,-0.71287632,0,0,92.42610168,0.134932905,1593005649.29365
2020/06/24/22:34:09.393938,27927,1593005649,393653869,,,0,1593005696,-761.536438,3.21724391,13.3338089,71.77574158,-0.15924035,-0.126842931,-0.535472929,0,0,94.85969543,0.135305405,1593005649.39365
2020/06/24/22:34:09.493961,27928,1593005649,493653059,,,0,1593005696,-763.2817383,2.19609046,13.40042877,71.10799408,-0.13063477,-0.326911569,-0.467226565,0,0,97.90169525,0.13561371,1593005649.49365
2020/06/24/22:34:09.593952,27929,1593005649,593643665,,,0,1593005696,-765.2337646,0.988705993,13.44187546,70.1709137,-0.240641028,0.085082978,-0.639332056,0,0,95.56950378,0.135962501,1593005649.59364
2020/06/24/22:34:09.693946,27930,1593005649,693638563,,,0,1593005696,-766.8764648,-0.100932777,13.48099232,69.09003448,-0.2707555,0.27130577,-0.754803181,0,0,94.45409393,0.136258587,1593005649.69364
2020/06/24/22:34:09.793950,27931,1593005649,793647527,,,0,1593005696,-768.0910645,-0.959409595,13.52608299,68.37609863,-0.177643627,0.0470939316,-0.583210289,0,0,96.78630066,0.136480764,1593005649.79365
2020/06/24/22:34:09.893952,27932,1593005649,893645048,,,0,1593005696,-770.0175781,-2.415262222,13.60010624,66.36230469,-0.421023011,-0.11732439,-0.672428191,0,0,99.72689819,0.136840075,1593005649.89365
2020/06/24/22:34:09.993956,27933,1593005649,993651628,,,0,1593005696,-771.2833862,-3.450212002,13.64155293,64.62322235,-0.519017696,0.0990493819,-0.877286673,0,0,100.5380936,0.137072399,1593005649.99365
2020/06/24/22:34:10.093954,27934,1593005650,93647718,,,0,1593005696,-772.7021484,-4.716145515,13.70281792,62.40940857,-0.493807435,0.265461773,-0.947793305,0,0,99.52410126,0.137353718,1593005650.09365
2020/06/24/22:34:10.193943,27935,1593005650,193637609,,,0,1593005696,-773.0387573,-5.03702116,13.72259521,61.87617874,-0.482601464,0.230185866,-0.901664376,0,0,99.11849976,0.137423545,1593005650.19364
2020/06/24/22:34:10.293986,27936,1593005650,293679714,,,0,1593005696,-774.7521362,-6.810542583,13.84597015,59.2574501,-0.486625791,-0.116975665,-0.726447225,0,0,101.2479019,0.137776718,1593005650.29368
2020/06/24/22:34:10.393964,27937,1593005650,393658638,,,0,1593005696,-775.9536743,-8.198093414,13.9241457,56.91285706,-0.563172698,-0.296207875,-0.575336814,0,0,105.9122925,0.138040751,1593005650.39366
2020/06/24/22:34:10.493957,27938,1593005650,493652820,,,0,1593005696,-776.8013306,-9.249895096,13.95545673,55.10136414,-0.588222504,-0.205239832,-0.615257084,0,0,109.2584991,0.138227433,1593005650.49365
2020/06/24/22:34:10.593951,27939,1593005650,593648672,,,0,1593005696,-777.6635132,-10.40150452,13.97335052,53.00095367,-0.591974199,0.0815515593,-0.697281182,0,0,106.8248978,0.138436958,1593005650.59365
2020/06/24/22:34:10.693958,27940,1593005650,693651437,,,0,1593005696,-778.5088501,-11.65279865,14.00107765,50.81082916,-0.548977494,0.221886694,-0.740032613,0,0,96.17789459,0.138655081,1593005650.69365
2020/06/24/22:34:10.793953,27941,1593005650,793650388,,,0,1593005696,-779.2146606,-12.82572556,14.04630661,49.06412125,-0.447737455,0.268692404,-0.670920968,0,0,91.61489105,0.138844058,1593005650.79365
2020/06/24/22:34:10.893960,27942,1593005650,893653154,,,0,1593005696,-779.9997559,-14.30932617,14.12430763,47.03745651,-0.493227482,-0.0225798041,-0.62788254,0,0,98.71289063,0.139093265,1593005650.89365
2020/06/24/22:34:10.993959,27943,1593005650,993643522,,,0,1593005696,-780.3788452,-15.11349869,14.16417694,46.01446533,-0.388009429,-0.0751881003,-0.550622344,0,0,100.7408981,0.13922134,1593005650.99364
2020/06/24/22:34:11.093948,27944,1593005651,93643426,,,0,1593005696,-780.9890747,-16.56719208,14.21957016,44.16747284,-0.463332057,-0.165688425,-0.601073384,0,0,99.32129669,0.139449149,1593005651.09364
2020/06/24/22:34:11.194109,27945,1593005651,193762779,,,0,1593005696,-781.2403564,-17.24885368,14.23696423,43.21342468,-0.432320297,-0.0250784457,-0.622447908,0.151600003,0,96.27929688,0.13955529,1593005651.19376
2020/06/24/22:34:11.293982,27946,1593005651,293669462,,,0,1593005696,-781.7543945,-18.89870644,14.28677273,41.69813919,-0.224997148,0.0551363565,-0.579053223,0.765399992,0,88.67430115,0.139808655,1593005651.29367
2020/06/24/22:34:11.393954,27947,1593005651,393646001,,,0,1593005696,-781.8934937,-19.43403053,14.30550575,41.38897324,-0.168436706,0.0461852401,-0.602503896,0.947449982,0,85.73370361,0.139891505,1593005651.39365
2020/06/24/22:34:11.493967,27948,1593005651,493659734,,,0,1593005696,-782.2476807,-21.11676788,14.38119793,41.34236145,0.0297883824,0.0669353157,-0.528386414,1,0,80.35949707,0.140130207,1593005651.49366
2020/06/24/22:34:11.593964,27949,1593005651,593658685,,,0,1593005696,-782.4078979,-22.13842201,14.43301296,41.50176239,0.0747425929,-0.0180812236,-0.439137965,1,0,76.50629425,0.140289947,1593005651.59366
2020/06/24/22:34:11.693956,27950,1593005651,693647861,,,0,1593005696,-782.53479,-23.17040825,14.48349476,41.76462173,0.0718559623,-0.0582258217,-0.374258429,1,0,75.9992981,0.140437663,1593005651.69365
2020/06/24/22:34:11.793952,27951,1593005651,793645143,,,0,1593005696,-782.6312866,-24.21324348,14.52950287,42.08008957,0.0911141038,-0.115035757,-0.34951359,1,0,77.92589569,0.140583783,1593005651.79365
2020/06/24/22:34:11.893963,27952,1593005651,893656253,,,0,1593005696,-782.7130737,-25.51838303,14.57582855,42.79757309,0.217134789,-0.0933959782,-0.33689034,1,0,81.06929779,0.14077802,1593005651.89366
2020/06/24/22:34:11.993951,27953,1593005651,993652820,,,0,1593005696,-782.7532959,-26.66922379,14.60612965,43.54377365,0.211766526,-0.0631388202,-0.323606908,1,0,82.28609467,0.140945807,1593005651.99365
2020/06/24/22:34:12.093957,27954,1593005652,93651533,,,0,1593005696,-782.760437,-28.25572968,14.63850975,44.95855713,0.354654551,-0.0295040216,-0.311769277,1,0,76.4048996,0.141177684,1593005652.09365
2020/06/24/22:34:12.193953,27955,1593005652,193646430,,,0,1593005696,-782.7338257,-29.31621552,14.65813065,45.87665176,0.307356447,0.0543320924,-0.385243982,1,0,69.10409546,0.141317546,1593005652.19365
2020/06/24/22:34:12.293951,27956,1593005652,293645381,,,0,1593005696,-782.6848145,-30.3188343,14.67863846,46.71431351,0.291743696,0.0658351108,-0.347173661,1,0,58.05149841,0.141470954,1593005652.29365
2020/06/24/22:34:12.393969,27957,1593005652,393661737,,,0,1593005696,-782.5529785,-32.01437759,14.72261238,48.15030289,0.338570893,0.127122551,-0.340746045,1,0,37.36589813,0.141713306,1593005652.39366
2020/06/24/22:34:12.493941,27958,1593005652,493635892,,,0,1593005696,-782.4763184,-32.77843475,14.74834538,48.79603958,0.314879537,0.138442397,-0.30451405,1,0,34.17179871,0.141828373,1593005652.49364
2020/06/24/22:34:12.593941,27959,1593005652,593637704,,,0,1593005696,-782.3392334,-33.9617424,14.7963171,49.76314545,0.314329207,0.117211714,-0.311920106,1,0,37.36589813,0.142000899,1593005652.59364
2020/06/24/22:34:12.693955,27960,1593005652,693649291,,,0,1593005696,-782.1538086,-35.33277512,14.85956287,50.92965317,0.283262402,0.121242583,-0.322482377,1,0,44.76809692,0.142209113,1593005652.69365
2020/06/24/22:34:12.793961,27961,1593005652,793659210,,,0,1593005696,-781.8277588,-37.3718071,14.94858265,52.41052246,0.314481676,-0.226549447,-0.306415617,1,0,51.46049881,0.142515287,1593005652.79366
2020/06/24/22:34:12.893946,27962,1593005652,893640279,,,0,1593005696,-781.7193604,-37.97720337,14.96937943,52.94148636,0.322714955,-0.0980200768,-0.307586312,1,0,50.85210037,0.142613441,1593005652.89364
2020/06/24/22:34:12.993973,27963,1593005652,993666887,,,0,1593005696,-781.2626953,-40.26567459,15.02744102,54.69125366,0.315748274,-0.0406194963,-0.251880467,1,0,41.21909714,0.142956436,1593005652.99367
2020/06/24/22:34:13.093950,27964,1593005653,93647003,,,0,1593005696,-781.0524902,-41.20653915,15.04989719,55.34301376,0.26417318,0.2935386,-0.458709449,1,0,43.7541008,0.143106535,1593005653.09365
2020/06/24/22:34:13.194104,27965,1593005653,193744182,,,0,1593005696,-780.6026001,-43.0187645,15.10246658,56.71801758,0.325392753,0.118906833,-0.515233338,1,0,40.76279831,0.143394187,1593005653.19374
2020/06/24/22:34:13.293931,27966,1593005653,293656110,,,0,1593005696,-780.100708,-44.81463242,15.15367985,58.01511002,0.31160748,-0.0932174399,-0.376231641,1,0,39.49530029,0.14367488,1593005653.29366
2020/06/24/22:34:13.393937,27967,1593005653,393644094,,,0,1593005696,-779.7477417,-45.98088074,15.17921829,58.87799835,0.318626642,0.0265649743,-0.402996749,1,0,41.11769867,0.143865183,1593005653.39364
2020/06/24/22:34:13.493931,27968,1593005653,493659734,,,0,1593005696,-779.1442871,-47.81972885,15.21850395,60.14928055,0.29867512,0.0891202837,-0.438106567,1,0,42.13169861,0.144171834,1593005653.49366
2020/06/24/22:34:13.593940,27969,1593005653,593650102,,,0,1593005696,-778.4164429,-49.82145691,15.27043724,61.51825333,0.308255792,0.0680923164,-0.457393408,1,0,41.52330017,0.144500777,1593005653.59365
2020/06/24/22:34:13.693934,27970,1593005653,693641901,,,0,1593005696,-777.9431152,-51.02248383,15.30753422,62.35075378,0.290899545,0.085683994,-0.480279535,1,0,41.32049942,0.14470692,1593005653.69364
2020/06/24/22:34:13.793941,27971,1593005653,793647527,,,0,1593005696,-777.0814209,-53.05437851,15.3761301,63.75085068,0.322104096,0.0787199959,-0.47945407,1,0,40.76279831,0.145061463,1593005653.79365
2020/06/24/22:34:13.893935,27972,1593005653,893643379,,,0,1593005696,-776.6196289,-54.07683945,15.410779,64.45378876,0.339203566,-0.0228146855,-0.469172508,1,0,41.72610092,0.145245612,1593005653.89364
2020/06/24/22:34:13.993961,27973,1593005653,993656158,,,0,1593005696,-775.5591431,-56.2807045,15.48021507,65.94870758,0.354878843,0.0592630245,-0.537496209,1,0,41.21909714,0.145648807,1593005653.99366
2020/06/24/22:34:14.093936,27974,1593005654,93633651,,,0,1593005696,-775.0292358,-57.31285095,15.51410103,66.60913849,0.259516507,0.0360588431,-0.477647156,1,0,39.69810104,0.145839572,1593005654.09363
2020/06/24/22:34:14.193949,27975,1593005654,193644285,,,0,1593005696,-774.1781616,-58.88850021,15.56951237,67.66723633,0.319619507,0.0908804536,-0.526593745,1,0,40.91489792,0.146144748,1593005654.19364
2020/06/24/22:34:14.293951,27976,1593005654,293648958,,,0,1593005696,-773.097229,-60.76196671,15.64310932,68.9120636,0.288644761,0.070010379,-0.529415965,1,0,40.6106987,0.146515802,1593005654.29365
2020/06/24/22:34:14.393957,27977,1593005654,393651247,,,0,1593005696,-772.0348511,-62.48766327,15.71489906,70.0530777,0.331449151,0.0476039536,-0.504889071,1,0,40.40790176,0.146860316,1593005654.39365
2020/06/24/22:34:14.493953,27978,1593005654,493651151,,,0,1593005696,-770.9080811,-64.21159363,15.7887907,71.16856384,0.323646069,0.0242832601,-0.517101228,1,0,40.10369873,0.14722003,1593005654.49365
2020/06/24/22:34:14.593948,27979,1593005654,593648195,,,0,1593005696,-769.9599609,-65.58740234,15.84879398,72.05192566,0.289747119,0.144172817,-0.556037307,1,0,39.08969879,0.147512287,1593005654.59365
2020/06/24/22:34:14.693948,27980,1593005654,693643808,,,0,1593005696,-768.7158813,-67.29982758,15.92848682,73.1309433,0.315874338,0.0741667747,-0.576513946,1,0,38.78549957,0.147884667,1593005654.69364
2020/06/24/22:34:14.793947,27981,1593005654,793645858,,,0,1593005696,-767.444397,-68.95399475,16.00943756,74.17008972,0.34859997,0.0241311397,-0.594815314,1,0,38.37989807,0.148259133,1593005654.79365
2020/06/24/22:34:14.893948,27982,1593005654,893644332,,,0,1593005696,-766.0709839,-70.64459991,16.09579086,75.22247314,0.261376441,0.0878405422,-0.563829243,1,0,37.26449966,0.148652807,1593005654.89364
2020/06/24/22:34:14.993932,27983,1593005654,993641614,,,0,1593005696,-764.6740723,-72.27217865,16.1864357,76.22667694,0.275066078,0.117493302,-0.534639835,1,0,36.14910126,0.149044126,1593005654.99364
2020/06/24/22:34:15.093952,27984,1593005655,93657493,,,0,1593005696,-763.4777222,-73.59979248,16.26766777,77.04170227,0.2722269,0.125578582,-0.575210273,1,0,36.04769897,0.149368241,1593005655.09366
2020/06/24/22:34:15.194102,27985,1593005655,193727493,,,0,1593005696,-761.605835,-75.56667328,16.40173531,78.22837067,0.234079361,0.103934817,-0.558181703,1,0,35.94630051,0.149872124,1593005655.19373
2020/06/24/22:34:15.293952,27986,1593005655,293667078,,,0,1593005696,-760.307312,-76.8601532,16.49858856,79.01274872,0.254298151,0.103711583,-0.546176791,1,0,35.43930054,0.15021494,1593005655.29367
2020/06/24/22:34:15.393934,27987,1593005655,393645048,,,0,1593005696,-758.6277466,-78.45510864,16.62773323,79.9859848,0.249542415,0.0957360566,-0.55741334,1,0,34.12110138,0.15064992,1593005655.39365
2020/06/24/22:34:15.493929,27988,1593005655,493640184,,,0,1593005696,-756.9877319,-79.93556976,16.75771904,80.89263153,0.312585592,0.0397119299,-0.559820652,1,0,32.80289841,0.151069328,1593005655.49364
2020/06/24/22:34:15.593939,27989,1593005655,593650579,,,0,1593005696,-755.5542603,-81.17378998,16.87225723,81.67807007,0.243976131,0.0547245666,-0.528155804,1,0,32.60010147,0.151431963,1593005655.59365
2020/06/24/22:34:15.693934,27990,1593005655,693645000,,,0,1593005696,-753.815979,-82.61082459,17.01191902,82.5843811,0.256354332,0.108449318,-0.586030424,1,0,31.6875,0.151867434,1593005655.69365
2020/06/24/22:34:15.793934,27991,1593005655,793647766,,,0,1593005696,-751.9703369,-84.06382751,17.16365433,83.51151276,0.250232369,0.115293398,-0.563702404,1,0,30.77490044,0.15232259,1593005655.79365
2020/06/24/22:34:15.893944,27992,1593005655,893652677,,,0,1593005696,-749.5007935,-85.90059662,17.374506,84.67494202,0.251407862,0.0949941427,-0.525357962,1,0,29.45669937,0.152931958,1593005655.89365
2020/06/24/22:34:15.993936,27993,1593005655,993642807,,,0,1593005696,-748.3491211,-86.71879578,17.47605705,85.20913696,0.222235486,0.101698942,-0.516384006,1,0,29.15249825,0.153208882,1593005655.99364
2020/06/24/22:34:16.093952,27994,1593005656,93652963,,,0,1593005696,-745.9926758,-88.32434082,17.68617249,86.26699829,0.255308688,-0.0198794156,-0.496657372,1,0,30.16649818,0.15377821,1593005656.09365
2020/06/24/22:34:16.193918,27995,1593005656,193646669,,,0,1593005696,-743.7510376,-89.77391815,17.87934875,87.25518799,0.240473941,-0.0233378951,-0.497651398,1,0,28.9496994,0.154316589,1593005656.19365
2020/06/24/22:34:16.293914,27996,1593005656,293643474,,,0,1593005696,-742.1407471,-90.77100372,18.0140152,87.94306183,0.264982611,0.0597106069,-0.534443855,1,0,27.93569946,0.154704288,1593005656.29364
2020/06/24/22:34:16.393930,27997,1593005656,393654823,,,0,1593005696,-739.7996216,-92.15589142,18.21124077,88.88243103,0.222864911,0.0400774255,-0.521334887,1,0,26.41469955,0.155251533,1593005656.39365
2020/06/24/22:34:16.493928,27998,1593005656,493656158,,,0,1593005696,-737.8599243,-93.24932861,18.37507057,89.65908813,0.256557286,-0.0145595912,-0.494124651,1,0,26.6174984,0.155707046,1593005656.49366
2020/06/24/22:34:16.593924,27999,1593005656,593647956,,,0,1593005696,-735.883606,-94.31664276,18.53934479,90.43042755,0.226830184,0.0570587292,-0.523075879,1,0,25.0965004,0.156166479,1593005656.59365
2020/06/24/22:34:16.693927,28000,1593005656,693653821,,,0,1593005696,-733.2612305,-95.66230774,18.75968361,91.39257813,0.252190053,0.081783019,-0.499093354,1,0,21.64890099,0.156764805,1593005656.69365
2020/06/24/22:34:16.793920,28001,1593005656,793648958,,,0,1593005696,-730.9975586,-96.76522827,18.95273399,92.21073151,0.257640451,-0.0378608741,-0.45906651,1,0,23.01779938,0.157274589,1593005656.79365
2020/06/24/22:34:16.893900,28002,1593005656,893629074,,,0,1593005696,-728.9050293,-97.74190521,19.12594223,92.97032928,0.258532941,-0.0596838519,-0.457391202,1,0,22.66290092,0.157744333,1593005656.89363
2020/06/24/22:34:16.993927,28003,1593005656,993655204,,,0,1593005696,-726.565979,-98.7870636,19.31422615,93.77689362,0.242643312,0.0408087261,-0.45307529,1,0,19.11389923,0.158261508,1593005656.99366
2020/06/24/22:34:17.093935,28004,1593005657,93661785,,,0,1593005696,-723.9716187,-99.89167023,19.52495384,94.64906311,0.246635824,0.0154294427,-0.419539362,1,0,17.99849892,0.158826575,1593005657.09366
2020/06/24/22:34:17.194121,28005,1593005657,193763256,,,0,1593005696,-721.260498,-100.9902954,19.74486542,95.55757904,0.234086722,-0.0353788435,-0.403527856,1,0,18.20129967,0.159410998,1593005657.19376
2020/06/24/22:34:17.294040,28006,1593005657,293720722,,,0,1593005696,-718.805481,-101.9403915,19.94059944,96.3508606,0.241577908,0.010654306,-0.3940382,1,0,15.97049999,0.15993619,1593005657.29372
