,time,.header.seq,.header.stamp.secs,.header.stamp.nsecs,.header.frame_id,.identifier.data,.size.data,.TimeStamp.data,PosLocalX,PosLocalY,Height,GPS_Speed,AccelX,AccelY,AccelZ,PedalPosAcc,PedalPosBrk,AngleSteer,carPositionNormalized,TimeStamp,lateralOffset
0,2020/06/24/22:33:48.093468,27713,1593005628,92993259,,,0,1593005568,-61.51563263,22.21562386,0.9028806090000001,31.63794327,0.700442433,-0.007819689809999999,0.0203795545,1.0,0.0,-9.227399826000001,0.0012450919000000001,1593005628.09299,-3.361596505454297
1,2020/06/24/22:33:48.102404,27714,1593005628,102080106,,,0,1593005568,-61.62178802,22.22139549,0.904267013,31.93193054,0.691551328,-0.00699951267,0.0195923969,1.0,0.0,-9.227399826000001,0.0012650854199999998,1593005628.10208,-3.356162946090847
2,2020/06/24/22:33:48.193974,27715,1593005628,193672180,,,0,1593005568,-62.05613327,22.24526405,0.909941673,33.10060883,0.6818038820000001,-0.0172883049,0.0222012699,1.0,0.0,-9.125999451,0.00134888152,1593005628.19367,-3.3334064142112316
3,2020/06/24/22:33:48.293920,27716,1593005628,293642997,,,0,1593005568,-62.70745087,22.28199196,0.9181988240000001,34.75574493,0.672861397,-0.0163929984,0.0327557735,1.0,0.0,-9.125999451,0.0014738405599999998,1593005628.2936401,-3.298346040423015
4,2020/06/24/22:33:48.394225,27717,1593005628,393692731,,,0,1593005568,-63.97837067,22.35763931,0.933984935,37.78617859,0.669201374,0.0011503658,0.0389126614,1.0,0.0,-8.821800232000001,0.0017175898,1593005628.39369,-3.225951600916765
5,2020/06/24/22:33:48.494122,27718,1593005628,493673324,,,0,1593005568,-65.01712799,22.42335701,0.947553813,40.05928802,0.665133715,-0.0136165954,0.0408746116,1.0,0.0,-8.314800262,0.0019167073800000001,1593005628.49367,-3.1629032671278785
6,2020/06/24/22:33:48.594010,27719,1593005628,593666076,,,0,1593005568,-66.46959686,22.52087021,0.966513634,42.90390396,0.621260285,-0.00837686192,0.0393161811,1.0,0.0,-6.692399979,0.00219527376,1593005628.59367,-3.068948216250145
7,2020/06/24/22:33:48.693961,27720,1593005628,693657636,,,0,1593005568,-67.19528198,22.57173729,0.97606796,44.20040512,0.60387665,-0.00894563552,0.029723275499999997,1.0,0.0,-4.7657999989999995,0.00233493769,1593005628.69366,-3.0195871717113487
8,2020/06/24/22:33:48.794263,27721,1593005628,793673276,,,0,1593005568,-68.90444946,22.69441605,0.998357713,46.98336411,0.565396786,-0.0127024753,0.00126611069,1.0,0.0,-0.304199994,0.00266305986,1593005628.79367,-2.9000325531971662
9,2020/06/24/22:33:48.894220,27722,1593005628,893644094,,,0,1593005568,-69.41722107,22.73143578,1.00485909,47.75483322,0.55770421,-0.0142370965,0.00222518295,1.0,0.0,-0.304199994,0.0027608280100000003,1593005628.89364,-2.863923261380367
10,2020/06/24/22:33:48.994221,27723,1593005628,993670225,,,0,1593005568,-71.50782013,22.8818512,1.030566216,50.69235229,0.519949675,-0.0071048676,-0.0166710317,1.0,0.0,1.977299929,0.00316283386,1593005628.99367,-2.717125159648444
11,2020/06/24/22:33:49.093949,27724,1593005629,93667984,,,0,1593005568,-72.79462433,22.97306061,1.0458880659999998,52.34482574,0.50310111,-0.0104950499,-0.013720100700000001,1.0,0.0,1.4195998909999998,0.0034096208399999996,1593005629.09367,-2.6280609473630436
12,2020/06/24/22:33:49.194072,27725,1593005629,193725347,,,0,1593005568,-74.21192169,23.07225609,1.062102079,54.05146027,0.48579424600000004,0.0032205395399999997,-0.012000331699999998,1.0,0.0,1.4195998909999998,0.00368138961,1593005629.19373,-2.5310778632030764
13,2020/06/24/22:33:49.294014,27726,1593005629,293708324,,,0,1593005568,-75.67249298,23.17338371,1.078820109,55.47893524,0.24847503,-0.0177356694,-0.0186450463,1.0,0.0,1.571699977,0.003962385,1593005629.29371,-2.4321883690122026
14,2020/06/24/22:33:49.393942,27727,1593005629,393655776,,,0,1593005568,-77.15886688,23.27508354,1.095227957,55.97775269,-0.0252137333,0.0416217335,-0.00825117901,1.0,0.0,1.216799974,0.00424756017,1593005629.39366,-2.332386988982885
15,2020/06/24/22:33:49.493966,27728,1593005629,493668317,,,0,1593005568,-79.29640198,23.41942024,1.119109273,55.82330704,0.04529578980000001,0.006572175770000001,-0.016913943,1.0,0.0,1.977299929,0.00465883501,1593005629.49367,-2.1906369188682437
16,2020/06/24/22:33:49.593980,27729,1593005629,593651533,,,0,1593005568,-80.80514526,23.5197525,1.135797143,57.79460144,0.84168154,0.00448423252,-0.014390297199999999,1.0,0.0,1.622399926,0.00494839251,1593005629.59365,-2.0918775783482073
17,2020/06/24/22:33:49.693939,27730,1593005629,693643569,,,0,1593005568,-82.07945251,23.60341454,1.150834799,59.54605484,0.41077137,0.0310627315,-0.020329983899999998,1.0,0.0,1.7744998930000002,0.0051934788899999995,1593005629.69364,-2.00895001205086
18,2020/06/24/22:33:49.793967,27731,1593005629,793677091,,,0,1593005568,-84.34936523,23.74970245,1.1804432870000001,61.66129303,0.45664966100000004,-0.0301810671,-0.0174621455,1.0,0.0,1.571699977,0.00562900957,1593005629.7936802,-1.863507587751538
19,2020/06/24/22:33:49.893945,27732,1593005629,893662691,,,0,1593005568,-86.01294708,23.85491943,1.200843215,63.21807098,0.45562785899999997,-0.027288395899999998,-0.0156265944,1.0,0.0,1.166100025,0.00594871445,1593005629.89366,-1.7583500793757667
20,2020/06/24/22:33:49.993966,27733,1593005629,993676662,,,0,1593005568,-87.1805954,23.92802048,1.214028358,64.27233124,0.446177334,-0.015817292,-0.011953257,1.0,0.0,0.912599981,0.006173012779999999,1593005629.99368,-1.684790905508731
21,2020/06/24/22:33:50.094002,27734,1593005630,93701601,,,0,1593005568,-89.57299805,24.07604408,1.239548087,66.32949829,0.428604275,0.00402706442,-0.009501416240000001,1.0,0.0,0.304199994,0.00663268846,1593005630.0937,-1.5352277478998935
22,2020/06/24/22:33:50.194020,27735,1593005630,193706512,,,0,1593005568,-91.19045258,24.17490196,1.25658381,67.65224457,0.43054050200000005,-0.00536434818,-0.00910292566,1.0,0.0,0.506999969,0.0069449069,1593005630.1937099,-1.4342097658905768
23,2020/06/24/22:33:50.294012,27736,1593005630,293706655,,,0,1593005568,-92.03956604,24.22646332,1.265535593,68.32668304,0.420338929,0.0139225889,-0.00868116878,1.0,0.0,0.45629999,0.00714744115,1593005630.29371,-1.3815387626653133
24,2020/06/24/22:33:50.394024,27737,1593005630,393709421,,,0,1593005568,-94.75415802,24.38895988,1.29487896,70.40479279,0.40604764200000004,0.00012344520699999998,-0.0393213853,1.0,0.0,4.309499741000001,0.007636646740000001,1593005630.39371,-1.2131038072172555
25,2020/06/24/22:33:50.494017,27738,1593005630,493706941,,,0,1593005568,-96.76817322,24.50520515,1.3170357940000001,71.87039185,0.407276869,-0.007192280140000001,-0.043666511799999995,1.0,0.0,3.447599888,0.008147041309999999,1593005630.49371,-1.0926276387885263
26,2020/06/24/22:33:50.594101,27739,1593005630,593764305,,,0,1593005568,-98.33621979,24.59262657,1.334266305,72.97220612,0.39694535700000005,-0.0010637326600000001,-0.0496899746,1.0,0.0,2.991299868,0.008271764959999999,1593005630.59376,-1.0008281210191063
27,2020/06/24/22:33:50.694120,27740,1593005630,693778276,,,0,1593005568,-100.670517,24.71750259,1.3590058090000001,74.54660797,0.38769602799999997,-0.0043699611,-0.0629424229,1.0,0.0,4.81649971,0.00876403321,1593005630.6937802,-0.8689005209647953
28,2020/06/24/22:33:50.793994,27741,1593005630,793699264,,,0,1593005568,-103.2446594,24.8460083,1.3846515419999998,76.1999054,0.36973410799999995,-0.00648205355,-0.098898612,1.0,0.0,8.923199654,0.00925821066,1593005630.7937,-0.7310786499471639
29,2020/06/24/22:33:50.894010,27742,1593005630,893696069,,,0,1593005568,-104.6491852,24.91037369,1.39815855,77.06868744,0.369855851,-0.005360252220000001,-0.11271213,1.0,0.0,9.379500389,0.00952803902,1593005630.8937,-0.6610176718591081
30,2020/06/24/22:33:50.994207,27743,1593005630,993842601,,,0,1593005568,-107.1129227,25.01153183,1.421344161,78.55403137,0.368909985,-0.005804763639999999,-0.12494972300000001,1.0,0.0,8.365499496,0.010001176,1593005630.99384,-0.5487607056822059
31,2020/06/24/22:33:51.094040,27744,1593005631,93722105,,,0,1593005568,-110.0245972,25.11086464,1.4484986069999999,80.24036407,0.36005187,0.001619566,-0.125713125,1.0,0.0,7.250100136,0.0105602853,1593005631.09372,-0.43488157568533564
32,2020/06/24/22:33:51.194137,27745,1593005631,193753957,,,0,1593005568,-111.23361969999999,25.14581299,1.4600629809999999,80.92462158,0.357596785,0.0184310302,-0.127793401,1.0,0.0,7.097999572999999,0.0107926801,1593005631.19375,-0.3930919012141905
33,2020/06/24/22:33:51.294105,27746,1593005631,293762207,,,0,1593005568,-113.8197021,25.20852089,1.485909104,82.347229,0.351070076,0.0191075802,-0.130063251,1.0,0.0,7.047299862000001,0.0112900576,1593005631.29376,-0.31591873739000775
34,2020/06/24/22:33:51.393996,27747,1593005631,393695831,,,0,1593005568,-116.66028600000001,25.25902176,1.515606284,83.85732269,0.341955274,0.0160760656,-0.128691465,1.0,0.0,6.540299892,0.0118353404,1593005631.3937,-0.25045097395258104
35,2020/06/24/22:33:51.493979,27748,1593005631,493681669,,,0,1593005568,-117.9941483,25.27646065,1.5294722319999998,84.55082703,0.349272639,0.0047147302,-0.11888092800000001,1.0,0.0,6.134699821,0.0120915938,1593005631.49368,-0.22573273765140967
36,2020/06/24/22:33:51.594048,27749,1593005631,593720912,,,0,1593005568,-121.3398285,25.30399132,1.5661269430000002,86.20011902,0.323340714,0.0325103402,-0.107312188,1.0,0.0,4.81649971,0.0127344346,1593005631.59372,-0.17839932537619874
37,2020/06/24/22:33:51.693938,27750,1593005631,693661212,,,0,1593005568,-122.20437620000001,25.30761528,1.576301336,86.61873627,0.32520538600000004,0.00582416076,-0.10489410199999999,1.0,0.0,4.715099812,0.0129007054,1593005631.69366,-0.16916454331265982
38,2020/06/24/22:33:51.793956,27751,1593005631,793674707,,,0,1593005568,-125.85047150000001,25.30869675,1.620572448,88.26456451,0.31006673,0.000398426957,-0.0937836692,1.0,0.0,3.447599888,0.0136005385,1593005631.79367,-0.14019587586972113
39,2020/06/24/22:33:51.893934,27752,1593005631,893653869,,,0,1593005568,-127.9182281,25.30033684,1.64625299,88.72014618,-0.0386723503,-0.00592883164,-0.08618634189999999,1.0,0.0,2.991299868,0.0139982067,1593005631.89365,-0.12781433003392906
40,2020/06/24/22:33:51.993944,27753,1593005631,993662357,,,0,1593005568,-131.3885803,25.27462006,1.685637236,88.50806427,-0.0542788096,-0.00854706671,-0.057795878499999995,1.0,0.0,1.7744998930000002,0.0146649526,1593005631.99366,-0.1106113186253552
41,2020/06/24/22:33:52.094167,27754,1593005632,93797683,,,0,1593005696,-132.78910829999998,25.26096535,1.700217724,88.45778656,0.0693830177,-0.0206347741,-0.055843267599999996,1.0,0.0,1.977299929,0.0149345491,1593005632.0938,-0.10338834074621675
42,2020/06/24/22:33:52.194069,27755,1593005632,193737268,,,0,1593005696,-135.9917755,25.22362137,1.73183012,90.48827362,0.471683621,-0.0201378167,-0.0507777259,1.0,0.0,2.991299868,0.015549686699999999,1593005632.1937401,-0.08286258478458289
43,2020/06/24/22:33:52.294059,27756,1593005632,293729305,,,0,1593005696,-137.2030029,25.20736504,1.744062424,91.0676651,0.28698283399999996,0.049225643300000003,-0.058684691799999994,1.0,0.0,3.244799852,0.0157826431,1593005632.29373,-0.07329298881851337
44,2020/06/24/22:33:52.393968,27757,1593005632,393679857,,,0,1593005696,-140.7990265,25.15147972,1.785311937,92.51338959,0.31469669899999997,-0.013675118799999999,-0.054244346900000004,1.0,0.0,2.8898997310000003,0.0164735802,1593005632.39368,-0.046341334081342694
45,2020/06/24/22:33:52.494028,27758,1593005632,493703365,,,0,1593005696,-142.96894840000002,25.11231422,1.811615705,93.42798615,0.30446136,0.00369531731,-0.06744296849999999,1.0,0.0,2.737799883,0.0168910362,1593005632.4937,-0.03066565766361205
46,2020/06/24/22:33:52.593961,27759,1593005632,593677282,,,0,1593005696,-146.6579132,25.03645325,1.857461095,94.90437317,0.28979715699999997,0.0171352234,-0.0479869023,1.0,0.0,1.166100025,0.0175993685,1593005632.5936801,-0.006513713410054617
47,2020/06/24/22:33:52.694000,27760,1593005632,693677902,,,0,1593005696,-148.16545109999998,25.00266838,1.8770455119999998,95.49399567,0.296538383,0.0088043008,-0.025462055600000002,1.0,0.0,-1.5210000280000002,0.0178895555,1593005632.69368,0.0016506139308042032
48,2020/06/24/22:33:52.793934,27761,1593005632,793653488,,,0,1593005696,-150.64503480000002,24.94585609,1.909545541,96.45604706,0.297976941,0.025443298700000002,0.012281226000000001,1.0,0.0,-4.055999756,0.018366271599999998,1593005632.79365,0.014167813599024963
49,2020/06/24/22:33:52.893962,27762,1593005632,893654823,,,0,1593005696,-153.1491699,24.88892555,1.942447424,97.38786316,0.282964379,-0.0044980598600000005,0.0035199108500000003,1.0,0.0,0.0,0.0188479368,1593005632.89365,0.026638754783281607
50,2020/06/24/22:33:52.994012,27763,1593005632,993721008,,,0,1593005696,-156.90974430000003,24.80415153,1.9890091419999998,98.78598785,0.27753356100000004,-0.0228958167,0.0128007382,1.0,0.0,-0.405599982,0.0195705108,1593005632.9937198,0.04427347324939238
51,2020/06/24/22:33:53.094049,27764,1593005633,93715906,,,0,1593005696,-159.7234344,24.74208641,2.021807671,99.80003357,0.279975653,0.028714062599999996,-0.0033861249700000004,1.0,0.0,1.216799974,0.0201112293,1593005633.09372,0.05983845031387639
52,2020/06/24/22:33:53.194111,27765,1593005633,193710327,,,0,1593005696,-161.05737299999998,24.71266747,2.038081408,100.26329799999999,0.274103045,0.00274712709,-0.00563981431,1.0,0.0,0.912599981,0.0203679949,1593005633.1937099,0.06728958009503581
53,2020/06/24/22:33:53.294128,27766,1593005633,293784618,,,0,1593005696,-164.9272461,24.62657928,2.086633921,101.6195679,0.287801176,-0.00259947078,-0.012167559,1.0,0.0,1.0647000070000001,0.021111909300000002,1593005633.29378,0.09030315076599434
54,2020/06/24/22:33:53.394088,27767,1593005633,393754482,,,0,1593005696,-167.8206482,24.56039238,2.124443531,102.60171509999999,0.266897887,0.0496976115,-0.0265552774,1.0,0.0,1.368899941,0.0216674004,1593005633.39375,0.10687702162803087
55,2020/06/24/22:33:53.494006,27768,1593005633,493678808,,,0,1593005696,-171.0868835,24.48242569,2.1711237430000003,103.67776490000001,0.262557417,0.0476784855,-0.0345120654,1.0,0.0,1.368899941,0.0222948622,1593005633.49368,0.12487985332234494
56,2020/06/24/22:33:53.593983,27769,1593005633,593669891,,,0,1593005696,-173.5150299,24.42173767,2.2097244259999997,104.4560699,0.259943992,0.05435660480000001,-0.0352602303,1.0,0.0,1.216799974,0.022762227799999996,1593005633.59367,0.13660737451295388
57,2020/06/24/22:33:53.694157,27770,1593005633,693794965,,,0,1593005696,-176.2242737,24.35110092,2.256884098,105.3089218,0.24884586,0.08134237679999999,-0.0318017006,1.0,0.0,1.0647000070000001,0.0232827291,1593005633.6938,0.14775786994815554
58,2020/06/24/22:33:53.794021,27771,1593005633,793716907,,,0,1593005696,-179.2203979,24.26966095,2.31435895,106.22430420000002,0.258863837,0.061619900199999994,-0.035268385,1.0,0.0,1.368899941,0.0238567144,1593005633.79372,0.15394423650698275
59,2020/06/24/22:33:53.893928,27772,1593005633,893638849,,,0,1593005696,-183.04611210000002,24.15985107,2.392821789,107.35755159999998,0.252873868,0.0200794023,-0.0540324226,1.0,0.0,3.092700005,0.0245940015,1593005633.89364,0.15460798475502557
60,2020/06/24/22:33:53.993923,27773,1593005633,993639230,,,0,1593005696,-185.9191132,24.071558,2.4545454980000003,108.1832123,0.229085743,0.010751500700000001,-0.0665563866,1.0,0.0,3.396899939,0.025146383799999998,1593005633.99364,0.1517565492957797
61,2020/06/24/22:33:54.094023,27774,1593005634,93704462,,,0,1593005696,-187.5447235,24.01890564,2.49025631,108.6523361,0.243422925,0.050642758600000004,-0.0815234035,1.0,0.0,3.650399923,0.025459867,1593005634.0937,0.14928470918702788
62,2020/06/24/22:33:54.193995,27775,1593005634,193677663,,,0,1593005696,-191.2726135,23.88909912,2.578339338,109.6714706,0.231679335,0.0811707899,-0.0846208781,1.0,0.0,2.991299868,0.0261766985,1593005634.19368,0.1484932072986992
63,2020/06/24/22:33:54.294058,27776,1593005634,293722629,,,0,1593005696,-194.389801,23.77054405,2.658930302,110.50614170000001,0.19831188,-0.11655131,-0.0841638073,1.0,0.0,4.309499741000001,0.0267756656,1593005634.29372,0.154438093570569
64,2020/06/24/22:33:54.394000,27777,1593005634,393675327,,,0,1593005696,-197.53074650000002,23.64116669,2.7355949880000003,111.363266,0.246971324,-0.0479445159,-0.0996382907,1.0,0.0,4.005299568,0.0273803826,1593005634.39368,0.16943939782302592
65,2020/06/24/22:33:54.494010,27778,1593005634,493694543,,,0,1593005696,-201.53616330000003,23.46089172,2.836763382,112.4115601,0.226255447,0.0666363239,-0.10042356699999999,1.0,0.0,2.991299868,0.028150983199999997,1593005634.49369,0.20332619808863228
66,2020/06/24/22:33:54.594005,27779,1593005634,593684673,,,0,1593005696,-204.5401306,23.314058300000003,2.920059919,113.17930600000001,0.244516522,-0.0165217556,-0.124320537,1.0,0.0,5.424899578,0.028729200400000002,1593005634.5936801,0.23523930977454152
67,2020/06/24/22:33:54.693971,27780,1593005634,693657636,,,0,1593005696,-205.9551849,23.24102402,2.959260941,113.5411301,0.21871525,-0.0349032953,-0.125524193,1.0,0.0,4.917899609,0.0290016513,1593005634.69366,0.24922490574834397
68,2020/06/24/22:33:54.794062,27781,1593005634,793724775,,,0,1593005696,-210.0352936,23.01711845,3.0740723610000003,114.536171,0.215996265,0.0588246137,-0.106242083,1.0,0.0,2.078700066,0.0297868345,1593005634.79372,0.28807597255955375
69,2020/06/24/22:33:54.894065,27782,1593005634,893716573,,,0,1593005696,-213.2858582,22.82590675,3.171697617,115.34059140000001,0.210043505,0.0612811521,-0.104070604,1.0,0.0,1.977299929,0.030412122599999997,1593005634.89372,0.30955065088333583
70,2020/06/24/22:33:54.993995,27783,1593005634,993679285,,,0,1593005696,-216.55767819999997,22.62275314,3.275924683,116.1013565,0.203779027,0.0928982198,-0.08959005029999999,1.0,0.0,1.977299929,0.0310425404,1593005634.99368,0.3187091279126701
71,2020/06/24/22:33:55.094018,27784,1593005635,93693256,,,0,1593005696,-219.2676849,22.44760513,3.3682286739999996,116.737587,0.189964131,0.0633961484,-0.08407139029999999,1.0,0.0,1.571699977,0.0315643698,1593005635.0936902,0.31863745629192053
72,2020/06/24/22:33:55.194147,27785,1593005635,193755149,,,0,1593005696,-223.5548401,22.16042709,3.520030737,117.7046433,0.206959262,0.0678901225,-0.06356111910000001,1.0,0.0,1.571699977,0.0323912911,1593005635.19376,0.31141560555259346
73,2020/06/24/22:33:55.294089,27786,1593005635,293746471,,,0,1593005696,-226.8912048,21.92971611,3.642984152,118.4596939,0.19495838899999998,0.030454836800000003,-0.0474315509,1.0,0.0,-0.202799991,0.0330335312,1593005635.29375,0.3008862790192631
74,2020/06/24/22:33:55.394067,27787,1593005635,393744945,,,0,1593005696,-228.36964419999998,21.82604218,3.697530985,118.77203370000001,0.21806781,-0.0304296296,-0.0343645588,1.0,0.0,0.709799945,0.033318948,1593005635.39374,0.2964169614246149
75,2020/06/24/22:33:55.493972,27788,1593005635,493669748,,,0,1593005696,-232.6296539,21.52323341,3.8589010239999997,119.68604280000001,0.196313664,0.08430250730000001,-0.0243668333,1.0,0.0,0.0,0.0341407247,1593005635.49367,0.2852237347469538
76,2020/06/24/22:33:55.593967,27789,1593005635,593652248,,,0,1593005696,-236.4205017,21.24962997,4.009456635,120.4807663,0.19437629,0.0188081805,-0.0224586762,1.0,0.0,0.506999969,0.034872409,1593005635.59365,0.27578964438280196
77,2020/06/24/22:33:55.693983,27790,1593005635,693672657,,,0,1593005696,-239.1287231,21.05248642,4.119695663,121.03445430000001,0.205280855,0.0969261602,0.00428375881,1.0,0.0,-0.811199963,0.0353947878,1593005635.69367,0.2714876726692954
78,2020/06/24/22:33:55.793956,27791,1593005635,793658256,,,0,1593005696,-242.6569977,20.79460144,4.271389961000001,121.72119140000001,0.172195897,0.109837793,-0.010959151200000001,1.0,0.0,0.152099997,0.0360763744,1593005635.79366,0.26854238096297833
79,2020/06/24/22:33:55.893959,27792,1593005635,893662929,,,0,1593005696,-247.01770019999998,20.47465897,4.464288712,122.4098053,0.017975647,-0.0671052113,-0.00340902922,0.928650022,0.0,-0.202799991,0.0369186029,1593005635.89366,0.2682643908091383
80,2020/06/24/22:33:55.993958,27793,1593005635,993658781,,,0,1593005696,-250.16549680000003,20.24349594,4.601520538,122.163269,-0.08633441480000001,-0.0838769674,-0.011324818200000001,0.70994997,0.0,0.304199994,0.0375250652,1593005635.99366,0.2729015088858271
81,2020/06/24/22:33:56.093953,27794,1593005636,93652725,,,0,1593005696,-252.091156,20.10160065,4.684735775,122.0008392,-0.08974329380000001,-0.0195486229,-0.0140629699,0.97360003,0.0,0.304199994,0.0378974192,1593005636.09365,0.27883285798925456
82,2020/06/24/22:33:56.193950,27795,1593005636,193657636,,,0,1593005696,-256.8747253,19.747871399999998,4.889924526000001,123.17854309999998,0.14654775,0.098658748,0.0166886952,1.0,0.0,-1.216799974,0.0388209,1593005636.19366,0.3040600335681704
83,2020/06/24/22:33:56.293968,27796,1593005636,293673038,,,0,1593005696,-260.3603821,19.49044037,5.046637058,123.753418,0.169641182,0.142230213,-0.00638648681,1.0,0.0,0.0,0.0394932218,1593005636.29367,0.335377498740958
84,2020/06/24/22:33:56.393940,27797,1593005636,393649816,,,0,1593005696,-262.2124023,19.35342598,5.134420395,124.08753970000001,0.186547235,0.0179250892,-0.00108579732,1.0,0.0,0.304199994,0.0398503579,1593005636.39365,0.3590721093068091
85,2020/06/24/22:33:56.493961,27798,1593005636,493667364,,,0,1593005696,-267.0718384,18.99300766,5.3665905,124.95290370000001,0.193364829,-0.0466534831,-0.00554613955,1.0,0.0,0.45629999,0.0407889448,1593005636.49367,0.4367446001518343
86,2020/06/24/22:33:56.593946,27799,1593005636,593655586,,,0,1593005696,-269.982666,18.77627373,5.506884098,125.45948030000001,0.148454413,-0.023751050200000002,-0.022132156400000002,1.0,0.0,0.45629999,0.0413519107,1593005636.5936599,0.4882758847315427
87,2020/06/24/22:33:56.693946,27800,1593005636,693654060,,,0,1593005696,-273.3236389,18.52634811,5.666732787999999,126.03486629999999,0.16556358300000001,-0.15363434,-0.008337888869999999,1.0,0.0,0.152099997,0.0419968218,1593005636.69365,0.548828596860593
88,2020/06/24/22:33:56.793938,27801,1593005636,793650388,,,0,1593005696,-277.94232180000006,18.1784687,5.8850970270000005,126.8226547,0.175141543,0.0417267941,-0.00854168274,1.0,0.0,0.0,0.0428891592,1593005636.79365,0.6253123458799089
89,2020/06/24/22:33:56.893942,27802,1593005636,893651485,,,0,1593005696,-280.2621155,18.002569199999996,5.997324944,127.20496370000001,0.162972182,-0.076365605,-0.026341792200000002,1.0,0.0,0.152099997,0.043336901799999994,1593005636.89365,0.6560091094432792
90,2020/06/24/22:33:56.993947,27803,1593005636,993656635,,,0,1593005696,-285.24157710000003,17.62254143,6.238240718999999,128.02529909999998,0.16850264399999998,-0.0233021472,-0.0189467557,1.0,0.0,0.506999969,0.044298965499999995,1593005636.99366,0.7036995169846021
91,2020/06/24/22:33:57.093933,27804,1593005637,93643426,,,0,1593005696,-286.94396969999997,17.49194908,6.320983887000001,128.3158264,0.161451265,0.00553164817,-0.0155801503,1.0,0.0,0.45629999,0.044626783600000004,1593005637.09364,0.7167389554234916
92,2020/06/24/22:33:57.194046,27805,1593005637,193719625,,,0,1593005696,-291.96588130000004,17.10427094,6.562287331,129.126709,0.17809906600000003,-0.00966172665,-0.0161325708,1.0,0.0,0.506999969,0.0455994569,1593005637.1937199,0.7486928388506208
93,2020/06/24/22:33:57.294065,27806,1593005637,293743133,,,0,1593005696,-293.57525630000004,16.9792881,6.63925314,129.3888855,0.165122882,-0.00711041177,-0.0251890719,1.0,0.0,1.216799974,0.0459085144,1593005637.29374,0.7583348269944236
94,2020/06/24/22:33:57.394068,27807,1593005637,393760919,,,0,1593005696,-298.7463684,16.57333946,6.88480854,130.2199402,0.186123669,-0.0716859698,-0.0561206788,1.0,0.0,2.991299868,0.0469069518,1593005637.39376,0.786942037626615
95,2020/06/24/22:33:57.493935,27808,1593005637,493666648,,,0,1593005696,-302.1034851,16.30424881,7.037855625,130.741806,0.164905772,0.0259047393,-0.07646682860000001,1.0,0.0,3.903899908,0.04755623639999999,1593005637.49367,0.80943062926018
96,2020/06/24/22:33:57.593920,27809,1593005637,593645811,,,0,1593005696,-305.9093323,15.99137592,7.2111940379999995,131.3367157,0.169184893,0.000706330524,-0.0815772265,1.0,0.0,1.7744998930000002,0.048291880599999996,1593005637.59365,0.8271747443029529
97,2020/06/24/22:33:57.693954,27810,1593005637,693654775,,,0,1593005696,-309.07547,15.72467804,7.353086948,131.82769779999998,0.153321743,-0.006520037070000001,-0.0770216957,1.0,0.0,1.216799974,0.0489031933,1593005637.69365,0.8347201551750504
98,2020/06/24/22:33:57.794081,27811,1593005637,793730974,,,0,1593005696,-312.4725342,15.43208313,7.502578735,132.3532867,0.137350842,-0.024253921600000002,-0.0740211383,1.0,0.0,1.166100025,0.049560371799999996,1593005637.79373,0.8374913510861361
99,2020/06/24/22:33:57.893951,27812,1593005637,893657445,,,0,1593005696,-317.4274597,14.99434853,7.709719657999999,133.1278534,0.160272479,0.027720738199999997,-0.08827738460000001,1.0,0.0,1.622399926,0.050517831,1593005637.89366,0.8572775821389981
100,2020/06/24/22:33:57.993952,27813,1593005637,993653774,,,0,1593005696,-320.1920776,14.74460125,7.821102142000001,133.5439148,0.157121271,0.08904221650000001,-0.073593244,1.0,0.0,1.825199962,0.051052641100000004,1593005637.99365,0.8805022701569782
101,2020/06/24/22:33:58.093940,27814,1593005638,93645811,,,0,1593005696,-324.8554688,14.31450653,8.01129055,134.2411957,0.163820937,0.00125201466,-0.0709013268,1.0,0.0,1.825199962,0.051954980899999996,1593005638.09365,0.9542200146416818
102,2020/06/24/22:33:58.193928,27815,1593005638,193636894,,,0,1593005696,-328.4241943,13.97782516,8.156823158,134.7725677,0.16738236,-0.0661781356,-0.0704326034,1.0,0.0,1.571699977,0.0526462235,1593005638.19364,1.042191925008598
103,2020/06/24/22:33:58.293941,27816,1593005638,293650388,,,0,1593005696,-330.8857727,13.742135999999999,8.254030228,135.1512299,0.151004001,-0.0594525672,-0.0569801889,1.0,0.0,1.166100025,0.053122509299999995,1593005638.29365,1.11355697294223
104,2020/06/24/22:33:58.393956,27817,1593005638,393656969,,,0,1593005696,-334.81564330000003,13.36105347,8.401154518,135.7352905,0.176674694,-0.13686084699999998,-0.0427510105,1.0,0.0,1.4195998909999998,0.053882833600000006,1593005638.39366,1.235514567316082
105,2020/06/24/22:33:58.493963,27818,1593005638,493660926,,,0,1593005696,-339.5540161,12.89365196,8.56403923,136.4447174,0.180040449,-0.046926148200000004,-0.0600437447,1.0,0.0,1.571699977,0.0547993034,1593005638.49366,1.3877297953354506
106,2020/06/24/22:33:58.593949,27819,1593005638,593656063,,,0,1593005696,-343.2937622,12.51804829,8.689443588,136.99902340000003,0.131769419,0.0828094259,-0.060452044,1.0,0.0,1.368899941,0.0555219278,1593005638.5936599,1.4952150961404822
107,2020/06/24/22:33:58.693943,27820,1593005638,693644523,,,0,1593005696,-346.5919189,12.18226433,8.80314827,137.4710236,0.15823108,-0.0434525199,-0.0335958414,1.0,0.0,1.216799974,0.0561591461,1593005638.69364,1.5759019663615275
108,2020/06/24/22:33:58.793942,27821,1593005638,793646812,,,0,1593005696,-351.0452576,11.72329235,8.949625015,138.1235809,0.158926159,-0.24365226899999998,-0.0399626605,1.0,0.0,0.0,0.0570220165,1593005638.79365,1.6860713166603023
109,2020/06/24/22:33:58.893943,27822,1593005638,893650293,,,0,1593005696,-354.37075810000005,11.37712669,9.043221474,138.6291351,0.16406135300000002,-0.0847587809,-0.0310558174,1.0,0.0,-0.912599981,0.0576629341,1593005638.89365,1.7656076625211412
110,2020/06/24/22:33:58.993947,27823,1593005638,993653297,,,0,1593005696,-358.5154419,10.94309521,9.150881767000001,139.24224850000002,0.14487949,-0.101521023,-0.0123271402,1.0,0.0,-0.608399987,0.0584644563,1593005638.99365,1.8573094879746994
111,2020/06/24/22:33:59.093957,27824,1593005639,93656539,,,0,1593005696,-361.8678284,10.59107304,9.228746414,139.7476044,0.154563606,-0.020007891599999997,0.0168944187,1.0,0.0,-1.723799944,0.059113018200000006,1593005639.0936599,1.9243637100620001
112,2020/06/24/22:33:59.194069,27825,1593005639,193738698,,,0,1593005696,-365.6972351,10.19021893,9.314551352999999,140.2983246,0.156779453,-0.018873633799999998,0.0247705784,1.0,0.0,-1.115399957,0.0598544963,1593005639.1937401,1.989035542723238
113,2020/06/24/22:33:59.293931,27826,1593005639,293657064,,,0,1593005696,-369.07547,9.838888167999999,9.387948036000001,140.79785159999997,0.15861693,-0.039495904,0.042903639400000006,1.0,0.0,-1.318199992,0.0605080463,1593005639.29366,2.0379470102516475
114,2020/06/24/22:33:59.393946,27827,1593005639,393654823,,,0,1593005696,-373.2862244,9.405475616,9.474143982000001,141.4175873,0.16195912699999998,0.008370732890000001,0.054737113399999995,1.0,0.0,-1.92659986,0.0613228008,1593005639.39365,2.092526824282352
115,2020/06/24/22:33:59.493954,27828,1593005639,493658304,,,0,1593005696,-377.1627502,9.012238502999999,9.550844192000001,141.9702148,0.169059977,0.014931011899999999,0.0675852746,1.0,0.0,-2.129400015,0.062072560199999995,1593005639.49366,2.137151749252776
116,2020/06/24/22:33:59.593940,27829,1593005639,593649864,,,0,1593005696,-382.5927734,8.472768784,9.658221245,142.7403412,0.152897626,0.007952217009999998,0.0788918436,1.0,0.0,-2.129400015,0.0631217882,1593005639.59365,2.1916608468981216
117,2020/06/24/22:33:59.693939,27830,1593005639,693642377,,,0,1593005696,-384.488678,8.28780365,9.695944786,143.00112919999998,0.160203859,-0.0222054701,0.0800280869,1.0,0.0,-2.129400015,0.063488327,1593005639.69364,2.208251717359794
118,2020/06/24/22:33:59.793942,27831,1593005639,793651103,,,0,1593005696,-390.31793210000006,7.730807304,9.808860779,143.8192139,0.156614855,-0.054024823,0.0855064839,1.0,0.0,-2.33220005,0.0646147728,1593005639.79365,2.2517413012606315
119,2020/06/24/22:33:59.893933,27832,1593005639,893639326,,,0,1593005696,-393.54492189999996,7.430379391000001,9.867395401,144.2622375,0.148077831,0.00177341467,0.0925879925,1.0,0.0,-2.433599949,0.06523799150000001,1593005639.89364,2.270666951550801
120,2020/06/24/22:33:59.993957,27833,1593005639,993659734,,,0,1593005696,-397.38305660000003,7.080971718,9.936321259,144.7876434,0.146398485,0.0040114391600000006,0.09503972529999999,1.0,0.0,-2.433599949,0.0659791008,1593005639.99366,2.290423492430828
121,2020/06/24/22:34:00.093944,27834,1593005640,93651056,,,0,1593005696,-401.7184143,6.697065352999999,10.01447773,145.3695374,0.151033327,0.0246497616,0.101905875,1.0,0.0,-2.534999847,0.0668165237,1593005640.09365,2.30820230731813
122,2020/06/24/22:34:00.193944,27835,1593005640,193652153,,,0,1593005696,-406.19326780000006,6.313144207000001,10.09674263,145.9624786,0.176571772,-0.029346205299999997,0.109639496,1.0,0.0,-2.534999847,0.0676788017,1593005640.19365,2.322821400124341
123,2020/06/24/22:34:00.293935,27836,1593005640,293643236,,,0,1593005696,-407.7701111,6.18087101,10.12540436,146.171402,0.16277726,-0.0194218289,0.10625550199999999,1.0,0.0,-2.534999847,0.0679829642,1593005640.2936401,2.3269043644449976
124,2020/06/24/22:34:00.393947,27837,1593005640,393658876,,,0,1593005696,-413.73498539999997,5.695162296,10.22896767,146.9484863,0.146123111,-0.108556084,0.11551771300000001,1.0,0.0,-3.3461999889999996,0.0691335648,1593005640.39366,2.343015529612948
125,2020/06/24/22:34:00.493945,27838,1593005640,493654966,,,0,1593005696,-416.91384889999995,5.446127415,10.27683926,147.3724365,0.14385955,-0.107233934,0.127364427,1.0,0.0,-4.461599827,0.0697466135,1593005640.49366,2.3514613197060847
126,2020/06/24/22:34:00.593936,27839,1593005640,593647003,,,0,1593005696,-421.82345580000003,5.0767931939999995,10.338871000000001,148.01554869999998,0.147814929,-0.0171937812,0.154534653,1.0,0.0,-5.069999695,0.07069310549999999,1593005640.59365,2.362412212793962
127,2020/06/24/22:34:00.693948,27840,1593005640,693656206,,,0,1593005696,-425.02694699999995,4.8474631310000005,10.37687588,148.4228668,0.152202278,0.035160508,0.170406908,1.0,0.0,-5.069999695,0.0713112652,1593005640.69366,2.370251827473572
128,2020/06/24/22:34:00.793946,27841,1593005640,793658733,,,0,1593005696,-429.6021118,4.5379209519999995,10.43220425,149.00535580000002,0.160604566,-0.0410512313,0.188748479,1.0,0.0,-5.577000141,0.07219291480000001,1593005640.79366,2.3801474325336427
129,2020/06/24/22:34:00.893935,27842,1593005640,893645048,,,0,1593005696,-434.5701294,4.228168964,10.48901558,149.62855530000002,0.145777389,0.012409714099999998,0.21810872899999997,1.0,0.0,-5.475599766,0.0731504634,1593005640.89365,2.395711091728118
130,2020/06/24/22:34:00.993938,27843,1593005640,993647575,,,0,1593005696,-438.6856079,3.99470377,10.5365696,150.1323242,0.144470498,0.0043019009799999995,0.21824470199999998,1.0,0.0,-4.360199451000001,0.07394343610000001,1593005640.99365,2.4150095168675816
131,2020/06/24/22:34:01.093948,27844,1593005641,93653917,,,0,1593005696,-440.811554,3.882348061,10.56126308,150.39047240000002,0.12707084400000002,-0.054769501100000006,0.20999133600000003,1.0,0.0,-4.157400131,0.0743526444,1593005641.09365,2.425041939064511
132,2020/06/24/22:34:01.194100,27845,1593005641,193750619,,,0,1593005696,-447.0876465,3.5818686489999996,10.62447262,151.1720581,0.15422307,-0.07923790809999999,0.199360624,1.0,0.0,-4.25880003,0.0755609274,1593005641.19375,2.462860561530967
133,2020/06/24/22:34:01.293976,27846,1593005641,293652772,,,0,1593005696,-450.4911194,3.437653065,10.65119553,151.5934906,0.136692643,-0.125848651,0.191170454,1.0,0.0,-4.25880003,0.0762153342,1593005641.29365,2.4834432346882953
134,2020/06/24/22:34:01.393913,27847,1593005641,393648862,,,0,1593005696,-455.0449524,3.26426363,10.67691231,152.1664429,0.146699756,-0.000762031123,0.20239318899999997,1.0,0.0,-3.85319972,0.0770910755,1593005641.39365,2.5093072595838017
135,2020/06/24/22:34:01.493951,27848,1593005641,493657350,,,0,1593005696,-459.23486330000003,3.124831915,10.69886303,152.6792145,0.142250791,-0.0216738582,0.182809398,1.0,0.0,-2.636399984,0.0778966844,1593005641.49366,2.5315182267529024
136,2020/06/24/22:34:01.593942,27849,1593005641,593651771,,,0,1593005696,-462.67395020000004,3.0236134530000003,10.71502781,153.1110382,0.143389568,-0.0717210025,0.17617893199999998,1.0,0.0,-3.244799852,0.0785575882,1593005641.59365,2.551835815895084
137,2020/06/24/22:34:01.693946,27850,1593005641,693650484,,,0,1593005696,-467.40301510000006,2.9026353360000003,10.72975731,153.69841,0.152950257,-0.0385781527,0.159963965,1.0,0.0,-2.839199781,0.07946657389999999,1593005641.69365,2.5771853378713274
138,2020/06/24/22:34:01.793936,27851,1593005641,793643951,,,0,1593005696,-472.4078674,2.7953338619999997,10.73875332,154.3189697,0.14289528099999999,-0.060893178,0.147234216,1.0,0.0,-3.447599888,0.08042812349999999,1593005641.7936401,2.607046861631314
139,2020/06/24/22:34:01.893945,27852,1593005641,893652439,,,0,1593005696,-476.7879028,2.717504501,10.74055099,154.8617706,0.141804546,-0.035233247999999995,0.14597100000000002,1.0,0.0,-3.447599888,0.0812698528,1593005641.89365,2.6286411222039936
140,2020/06/24/22:34:01.993941,27853,1593005641,993647098,,,0,1593005696,-480.66558839999993,2.661105633,10.73918152,155.3388519,0.138305441,-0.00586540252,0.15625356099999999,1.0,0.0,-3.85319972,0.0820151791,1593005641.99365,2.647241953719641
141,2020/06/24/22:34:02.093937,27854,1593005642,93641519,,,0,1593005696,-484.5553284,2.616980791,10.73710918,155.81227109999998,0.145851448,0.00974420644,0.16563862599999998,1.0,0.0,-3.954599857,0.0827628896,1593005642.09364,2.6675897468340497
142,2020/06/24/22:34:02.193953,27855,1593005642,193658113,,,0,1593005696,-488.97808839999993,2.582952261,10.736437800000001,156.34344480000001,0.138625354,0.076460965,0.179190844,1.0,0.0,-3.954599857,0.0836134255,1593005642.19366,2.6969631927010926
143,2020/06/24/22:34:02.293942,27856,1593005642,293648481,,,0,1593005696,-494.5928955,2.566225052,10.74688148,156.9943542,0.134961545,0.106088951,0.185110033,1.0,0.0,-3.650399923,0.0846934766,1593005642.29365,2.7500530121509237
144,2020/06/24/22:34:02.393945,27857,1593005642,393651247,,,0,1593005696,-497.2123413,2.568767786,10.75718975,157.29129030000001,0.124414474,0.0680196285,0.183803484,1.0,0.0,-3.954599857,0.08519732949999999,1593005642.39365,2.78242724169039
145,2020/06/24/22:34:02.493947,27858,1593005642,493651866,,,0,1593005696,-502.59768679999996,2.594117641,10.78155041,157.9098206,0.147021487,-0.0640194863,0.177085534,1.0,0.0,-4.360199451000001,0.08623268460000001,1593005642.49365,2.85968121959563
146,2020/06/24/22:34:02.593929,27859,1593005642,593640089,,,0,1593005696,-507.3435364,2.638648033,10.79817677,158.4487915,0.13012526900000002,0.0547264367,0.196314514,1.0,0.0,-4.055999756,0.08714554460000001,1593005642.59364,2.9276125255253924
147,2020/06/24/22:34:02.693944,27860,1593005642,693650484,,,0,1593005696,-510.9131775,2.686719418,10.8132143,158.8424225,0.149426445,0.0773806572,0.19288332800000002,1.0,0.0,-3.447599888,0.08783335980000001,1593005642.69365,2.9758428209103553
148,2020/06/24/22:34:02.793952,27861,1593005642,793658018,,,0,1593005696,-515.4206543,2.765044451,10.83707237,159.33514399999999,0.0961728618,-0.0421137027,0.181349978,1.0,0.0,-3.954599857,0.0886989608,1593005642.79366,3.0221939687497295
149,2020/06/24/22:34:02.893951,27862,1593005642,893656015,,,0,1593005696,-519.4092406999999,2.849930286,10.85539818,159.7769775,0.127114743,-0.0419021994,0.18142713600000002,1.0,0.0,-3.75180006,0.0894658715,1593005642.89366,3.0563453037233868
150,2020/06/24/22:34:02.993949,27863,1593005642,993656873,,,0,1593005696,-523.9425049,2.9638772010000003,10.87240791,160.2738495,0.147966206,-0.0100315539,0.17971137199999998,1.0,0.0,-3.650399923,0.0903379172,1593005642.99366,3.085692487872437
151,2020/06/24/22:34:03.093951,27864,1593005643,93656778,,,0,1593005696,-528.3553467,3.092687845,10.88820457,160.7498627,0.09754902119999999,0.0315183178,0.182218656,1.0,0.0,-3.5489997860000004,0.0911861882,1593005643.0936599,3.114869880032232
152,2020/06/24/22:34:03.194076,27865,1593005643,193738460,,,0,1593005696,-534.2585449,3.2926836010000002,10.90793896,161.3837585,0.127028853,0.00531039061,0.18690104800000001,1.0,0.0,-3.447599888,0.0923216566,1593005643.1937401,3.1620119328889817
153,2020/06/24/22:34:03.293923,27866,1593005643,293652772,,,0,1593005696,-537.487793,3.415676594,10.91782856,161.72648619999998,0.18217894399999998,0.0277691893,0.183661357,1.0,0.0,-3.042000055,0.0929426476,1593005643.29365,3.1931736847804886
154,2020/06/24/22:34:03.393950,27867,1593005643,393658161,,,0,1593005696,-543.4246826,3.665801525,10.94085693,162.34243769999998,0.124434233,0.0471017547,0.157942176,1.0,0.0,-2.027999878,0.09408501539999999,1593005643.39366,3.2532317641488717
155,2020/06/24/22:34:03.493949,27868,1593005643,493655443,,,0,1593005696,-548.0267944,3.878696203,10.96351814,162.8187561,0.11453855800000001,-0.028966603799999997,0.14213112,1.0,0.0,-2.433599949,0.09497060630000001,1593005643.49366,3.2998968563302973
156,2020/06/24/22:34:03.593935,27869,1593005643,593646049,,,0,1593005696,-552.6417236000001,4.106818199,10.98394585,163.2978821,0.16946651,-0.014071368600000002,0.13243705,1.0,0.0,-2.534999847,0.09586010130000001,1593005643.59365,3.3486727267769187
157,2020/06/24/22:34:03.693938,27870,1593005643,693643808,,,0,1593005696,-555.9069824,4.276596546,10.99699402,163.62844850000002,0.111823164,-0.0264124796,0.132716551,1.0,0.0,-2.534999847,0.0964873359,1593005643.69364,3.3807242497103123
158,2020/06/24/22:34:03.793948,27871,1593005643,793655872,,,0,1593005696,-559.7244262999999,4.483657837,11.01189709,164.016983,0.0893094242,0.07248306269999999,0.121719569,1.0,0.0,-0.202799991,0.0972228125,1593005643.79366,3.413920529101302
159,2020/06/24/22:34:03.893947,27872,1593005643,893653154,,,0,1593005696,-565.3294067,4.8005552289999995,11.04113388,164.5721436,0.122025996,0.015467641899999999,0.045647025099999995,1.0,0.0,2.534999847,0.09830229730000001,1593005643.89365,3.456929075905917
160,2020/06/24/22:34:03.993935,27873,1593005643,993643760,,,0,1593005696,-569.0306396000001,5.014211178,11.06273937,164.9323425,0.133381754,0.016717786000000002,0.0364626385,1.0,0.0,0.253499985,0.09901551900000001,1593005643.99364,3.4788009795560235
161,2020/06/24/22:34:04.093955,27874,1593005644,93660116,,,0,1593005696,-573.7028197999999,5.2864584919999995,11.09012032,165.39141850000001,0.159372151,-0.032109510200000003,-0.005552192220000001,1.0,0.0,0.45629999,0.0999155641,1593005644.0936599,3.5005914946160663
162,2020/06/24/22:34:04.193936,27875,1593005644,193643093,,,0,1593005696,-579.354126,5.615493298,11.11923599,165.9226074,0.114290364,-0.0189502258,0.00041900807999999996,1.0,0.0,-1.013999939,0.10100577,1593005644.19364,3.5130273153869114
163,2020/06/24/22:34:04.293933,27876,1593005644,293641328,,,0,1593005696,-584.1866455,5.896336555,11.14131451,165.8845215,-0.085640505,-0.012263233799999999,-0.00778345158,1.0,0.0,-0.709799945,0.101935774,1593005644.2936401,3.508989697818109
164,2020/06/24/22:34:04.393934,27877,1593005644,393644332,,,0,1593005696,-586.5313721,6.032392025,11.15164948,165.7407532,-0.0433345176,-0.041628748199999996,0.00114413188,1.0,0.0,-0.608399987,0.102387622,1593005644.39364,3.5038379584948283
165,2020/06/24/22:34:04.493945,27878,1593005644,493651390,,,0,1593005696,-592.1781616000001,6.360325336,11.16994381,165.40112299999998,-0.0585215613,-0.0945699289,0.011149969,1.0,0.0,0.152099997,0.103476129,1593005644.49365,3.4873873893263263
166,2020/06/24/22:34:04.593932,27879,1593005644,593641519,,,0,1593005696,-597.8310547,6.689917088,11.17838669,166.0752716,0.131687373,0.0738160759,0.000902047381,1.0,0.0,1.0647000070000001,0.10456535199999999,1593005644.59364,3.467717046914429
167,2020/06/24/22:34:04.693940,27880,1593005644,693647384,,,0,1593005696,-601.7033081000001,6.916025162,11.18881798,166.3729095,0.0847695246,0.11740249400000001,-0.0109344674,1.0,0.0,1.368899941,0.105311729,1593005644.69365,3.4496900195014244
168,2020/06/24/22:34:04.793929,27881,1593005644,793639659,,,0,1593005696,-607.5258179,7.254827023,11.215194699999998,166.8794861,0.141858861,-0.0423056595,-0.008054013359999999,1.0,0.0,0.0,0.106433839,1593005644.7936401,3.415753696117463
169,2020/06/24/22:34:04.893929,27882,1593005644,893637895,,,0,1593005696,-611.4177856000001,7.480709553,11.23105812,167.2446136,0.136730596,-0.0138658956,-0.005212964489999999,1.0,0.0,-0.304199994,0.10718494699999999,1593005644.89364,3.3916655528011663
170,2020/06/24/22:34:04.993931,27883,1593005644,993640661,,,0,1593005696,-615.178772,7.698791027,11.24539089,167.5914459,0.125075459,0.0187558029,0.0021783276500000003,1.0,0.0,-0.506999969,0.107908614,1593005644.99364,3.368976577841439
171,2020/06/24/22:34:05.093938,27884,1593005645,93646526,,,0,1593005696,-619.9259033,7.973771572,11.26515675,168.0256805,0.12201063300000001,0.056977395,-0.00363077084,1.0,0.0,-0.101399995,0.108823314,1593005645.09365,3.3398461773213715
172,2020/06/24/22:34:05.194066,27885,1593005645,193721294,,,0,1593005696,-625.2458496,8.281744957,11.29240608,168.5016479,0.0812596679,-0.0507164672,0.008324204009999999,1.0,0.0,-0.202799991,0.109848402,1593005645.1937199,3.3057933286416583
173,2020/06/24/22:34:05.293950,27886,1593005645,293663501,,,0,1593005696,-629.1755981000001,8.509662628,11.31070709,168.8624725,0.114880867,-0.014119539399999999,0.0054009882700000005,1.0,0.0,-0.405599982,0.110605866,1593005645.29366,3.2820843152391275
174,2020/06/24/22:34:05.393947,27887,1593005645,393654823,,,0,1593005696,-634.9447021000001,8.846074104,11.33557796,169.38201899999999,0.136817351,-0.00184126955,0.05336547639999999,1.0,0.0,-4.968600273,0.111717507,1593005645.39365,3.2561360869104323
175,2020/06/24/22:34:05.493941,27888,1593005645,493647813,,,0,1593005696,-636.9185791,8.962735176,11.34392166,169.5475311,0.0966953859,0.016239188600000003,0.0787928104,1.0,0.0,-5.678399562999999,0.112096921,1593005645.49365,3.251344248588677
176,2020/06/24/22:34:05.593952,27889,1593005645,593662023,,,0,1593005696,-643.8422241000001,9.383992195,11.37153053,170.15940859999998,0.09008328619999999,-0.0142216831,0.126992568,1.0,0.0,-2.737799883,0.113432288,1593005645.5936599,3.2574790634352917
177,2020/06/24/22:34:05.693949,27890,1593005645,693655490,,,0,1593005696,-649.6520996,9.756718636,11.39433384,170.54685969999997,0.0344829001,0.0488048829,0.119148746,0.5383999939999999,0.0,1.166100025,0.114552498,1593005645.69366,3.2928107976887535
178,2020/06/24/22:34:05.793942,27891,1593005645,793648481,,,0,1593005696,-651.6372681,9.888205528,11.40375996,170.529129,-0.028979931,0.066413559,0.101776555,0.0427000225,0.0,2.484300137,0.114934996,1593005645.79365,3.311183627189291
179,2020/06/24/22:34:05.893950,27892,1593005645,893658161,,,0,1593005696,-658.5706177000001,10.35845184,11.44602299,169.70614619999998,-0.5334494710000001,0.0421949476,0.021000227000000003,0.0,0.9350349309999999,3.244799852,0.116272308,1593005645.89366,3.3942745600917306
180,2020/06/24/22:34:05.993938,27893,1593005645,993647336,,,0,1593005696,-661.5126953,10.5601778,11.46775818,167.4962311,-1.1580964329999999,0.0645533949,-0.0303471014,0.0,1.0,5.069999695,0.116840579,1593005645.99365,3.4363194701805475
181,2020/06/24/22:34:06.093961,27894,1593005646,93666076,,,0,1593005696,-668.3450317,11.02216434,11.5242815,161.5905762,-1.056482077,-0.080267027,-0.10659732699999999,0.0,1.0,7.807799816,0.118159048,1593005646.09367,3.5367530267002465
182,2020/06/24/22:34:06.193923,27895,1593005646,193632841,,,0,1593005696,-671.1421508999999,11.20612144,11.546109199999998,159.1533356,-1.0478401179999999,-0.100065738,-0.12791273,0.0,1.0,9.835799217,0.118699007,1593005646.19363,3.575667792947771
183,2020/06/24/22:34:06.293935,27896,1593005646,293639898,,,0,1593005696,-674.8068237000001,11.43993282,11.57194233,155.93344119999998,-1.075782537,-0.104603797,-0.124591127,0.0,1.0,8.923199654,0.11940656599999999,1593005646.2936401,3.6206077444743894
184,2020/06/24/22:34:06.393938,27897,1593005646,393646240,,,0,1593005696,-679.2822266,11.71215153,11.59958172,151.8598633,-1.075336576,-0.0810643062,-0.191859931,0.0,1.0,4.157400131,0.12027084099999999,1593005646.39365,3.6586595236242436
185,2020/06/24/22:34:06.493947,27898,1593005646,493654966,,,0,1593005696,-685.463501,12.06018066,11.63913918,145.72666930000003,-1.029566765,-0.0509615578,-0.211511925,0.0,1.0,-0.304199994,0.121463925,1593005646.49366,3.665415862687453
186,2020/06/24/22:34:06.593941,27899,1593005646,593651294,,,0,1593005696,-689.1714477999999,12.25114822,11.66489887,142.0977325,-1.083030462,-0.0857878625,-0.199541733,0.143050015,1.0,1.166100025,0.12217923300000001,1593005646.59365,3.640731820842227
187,2020/06/24/22:34:06.693930,27900,1593005646,693636417,,,0,1593005696,-692.0940552000001,12.39076042,11.68417168,139.1262207,-1.116698861,-0.0277976058,-0.218952328,0.302749991,1.0,6.388199806,0.122742161,1593005646.69364,3.617748139806468
188,2020/06/24/22:34:06.793947,27901,1593005646,793656826,,,0,1593005696,-697.310791,12.60874176,11.72217178,133.6206665,-1.236213803,0.0413308479,-0.266866505,0.0,1.0,9.835799217,0.123746075,1593005646.79366,3.584513438174482
189,2020/06/24/22:34:06.893928,27902,1593005646,893634557,,,0,1593005696,-699.2942505,12.67944241,11.73970795,131.4023438,-1.207424164,-0.00111461501,-0.260232836,0.0,1.0,9.075299263,0.12412700800000001,1593005646.89363,3.5702385744206055
190,2020/06/24/22:34:06.993940,27903,1593005646,993649959,,,0,1593005696,-703.7908325,12.81274033,11.79134655,125.99153899999999,-1.291664124,0.16446329699999998,-0.252877831,0.0,1.0,5.019299984,0.124987498,1593005646.99365,3.519823066118964
191,2020/06/24/22:34:07.093937,27904,1593005647,93641996,,,0,1593005696,-706.6828613,12.87819195,11.83874512,122.36062620000001,-1.246596694,0.122004852,-0.272258341,0.0,1.0,9.075299263,0.12553805099999998,1593005647.09364,3.4714254349600195
192,2020/06/24/22:34:07.194225,27905,1593005647,193787574,,,0,1593005696,-711.3554077,12.94298458,11.93501949,116.78176880000001,-1.109485269,-0.0125418305,-0.313588113,0.257800013,1.0,10.90049934,0.126421317,1593005647.19379,3.4104547521369803
193,2020/06/24/22:34:07.294050,27906,1593005647,293725013,,,0,1593005696,-712.9931641,12.952295300000001,11.97115421,114.8531723,-1.044684172,-0.09383325279999999,-0.281069547,0.0,1.0,14.55089951,0.12672881800000002,1593005647.29373,3.4190667590803825
194,2020/06/24/22:34:07.393932,27907,1593005647,393656253,,,0,1593005696,-717.019043,12.94258022,12.05287075,110.2925644,-0.9837667940000001,-0.136747018,-0.40039289,0.0,1.0,32.90429688,0.127477199,1593005647.39366,3.5126662393094876
195,2020/06/24/22:34:07.493966,27908,1593005647,493656158,,,0,1593005696,-719.2843627999999,12.91024494,12.09319878,107.5407791,-1.115455866,0.0397666544,-0.487699389,0.0,1.0,34.32389832,0.12789572800000001,1593005647.49366,3.625822080539
196,2020/06/24/22:34:07.593957,27909,1593005647,593651294,,,0,1593005696,-722.7854004,12.81060219,12.16139984,103.0207062,-1.058009982,0.028233669700000002,-0.431602329,0.0,1.0,24.79229927,0.128535837,1593005647.59365,3.886570763352024
197,2020/06/24/22:34:07.693953,27910,1593005647,693645000,,,0,1593005696,-723.9754638999999,12.7629776,12.18620682,101.5271225,-0.98578912,-0.0970793366,-0.381246388,0.0,1.0,17.99849892,0.128752828,1593005647.69365,3.982901505034859
198,2020/06/24/22:34:07.793963,27911,1593005647,793657064,,,0,1593005696,-728.0708007999999,12.55044746,12.2728529,95.73841095,-1.0765175820000001,-0.027968550099999996,-0.4011572,0.0,1.0,16.8830986,0.129485086,1593005647.79366,4.3822916732027
199,2020/06/24/22:34:07.893960,27912,1593005647,893652200,,,0,1593005696,-730.8700562000001,12.355169300000002,12.33410168,91.70088959,-1.12207675,0.033652871800000005,-0.48676165899999996,0.0,1.0,34.52669907,0.129980564,1593005647.89365,4.686881792823495
200,2020/06/24/22:34:07.993951,27913,1593005647,993645668,,,0,1593005696,-731.9243774,12.26721859,12.35894871,90.06455231,-1.0798119309999998,0.0882883295,-0.553901732,0.0,1.0,40.50929642,0.130164117,1593005647.99365,4.810909749344581
201,2020/06/24/22:34:08.093979,27914,1593005648,93669652,,,0,1593005696,-735.7365112000001,11.864111900000001,12.47050667,84.07176209,-0.949988782,0.113255106,-0.635708928,0.0,0.746680558,48.51989746,0.130828127,1593005648.09367,5.277314357022172
202,2020/06/24/22:34:08.193962,27915,1593005648,193656206,,,0,1593005696,-736.9729004,11.6998167,12.51298237,82.68481445,-0.558067083,-0.0870470926,-0.667549014,0.0,0.282670677,48.82410049,0.131041527,1593005648.19366,5.440957728080583
203,2020/06/24/22:34:08.293980,27916,1593005648,293671607,,,0,1593005696,-740.24823,11.15994358,12.62702942,80.37955475,-0.290394485,0.025096112900000002,-0.8428975340000001,0.0,0.10398010199999999,45.88349915,0.131606638,1593005648.29367,5.8674997009692715
204,2020/06/24/22:34:08.393957,27917,1593005648,393651008,,,0,1593005696,-741.8791504,10.82596779,12.68660831,79.66122437,-0.254944652,0.0206500925,-0.8571443559999999,0.0,0.071556367,47.60729599,0.13188634800000001,1593005648.39365,6.063025949541615
205,2020/06/24/22:34:08.493972,27918,1593005648,493664026,,,0,1593005696,-744.8184204,10.10179424,12.79893684,78.50728607,-0.224983424,0.029196189700000003,-0.790456355,0.0,0.0373436026,52.6772995,0.13238872599999998,1593005648.49366,6.4695155438537375
206,2020/06/24/22:34:08.593935,27919,1593005648,593629360,,,0,1593005696,-745.8852539,9.801721573,12.83971405,78.14431763,-0.15576902,-0.0932394937,-0.599808633,0.0,0.0104757249,58.35569763,0.132573351,1593005648.59363,6.6120936690500205
207,2020/06/24/22:34:08.693946,27920,1593005648,693637847,,,0,1593005696,-747.6833496,9.25557518,12.90579319,77.54636383,-0.176523149,-0.0613327138,-0.626183033,0.0,0.0045993751799999994,68.69850159,0.132887289,1593005648.69364,6.8411806542058
208,2020/06/24/22:34:08.793950,27921,1593005648,793644905,,,0,1593005696,-750.2953491000001,8.368589401,12.99902058,76.57968903,-0.20448549100000002,-0.0102284383,-0.612236798,0.0,0.00107035541,69.00270081,0.13333869,1593005648.7936401,7.200236145621204
209,2020/06/24/22:34:08.893952,27922,1593005648,893645286,,,0,1593005696,-752.7814331000001,7.4163775439999995,13.08765507,75.71586609,-0.11892096699999999,-0.16009213,-0.551359951,0.0,0.00032931217000000003,75.49230194,0.133768797,1593005648.89365,7.541027988036703
210,2020/06/24/22:34:08.993964,27923,1593005648,993651390,,,0,1593005696,-754.0009766,6.911166668,13.12514305,75.26971436,-0.14715988900000002,-0.185742766,-0.393911511,0.0,9.14e-05,78.53430176,0.133980498,1593005648.99365,7.7258756895797
211,2020/06/24/22:34:09.093969,27924,1593005649,93661069,,,0,1593005696,-756.5684204,5.77865839,13.17380238,74.39366913,-0.253510118,-0.0342415534,-0.640232086,0.0,0.0,94.6568985,0.134428293,1593005649.0936599,8.11741516741759
212,2020/06/24/22:34:09.194089,27925,1593005649,193727254,,,0,1593005696,-757.7949219,5.1980953219999995,13.19355106,73.73057556,-0.24627347300000002,0.24081465600000002,-0.6859380009999999,0.0,0.0,96.38069916,0.13464161800000002,1593005649.19373,8.30204980583715
213,2020/06/24/22:34:09.293948,27926,1593005649,293653011,,,0,1593005696,-759.480957,4.3451581,13.24292278,72.73822021,-0.238810495,0.244479492,-0.71287632,0.0,0.0,92.42610168,0.134932905,1593005649.29365,8.592428865744322
214,2020/06/24/22:34:09.393938,27927,1593005649,393653869,,,0,1593005696,-761.536438,3.21724391,13.333808900000001,71.77574158,-0.15924035,-0.126842931,-0.535472929,0.0,0.0,94.85969543,0.135305405,1593005649.39365,8.93240181593639
215,2020/06/24/22:34:09.493961,27928,1593005649,493653059,,,0,1593005696,-763.2817382999999,2.19609046,13.40042877,71.10799408,-0.13063477,-0.32691156899999996,-0.467226565,0.0,0.0,97.90169525,0.13561371,1593005649.49365,9.231254091719492
216,2020/06/24/22:34:09.593952,27929,1593005649,593643665,,,0,1593005696,-765.2337646000001,0.988705993,13.44187546,70.1709137,-0.240641028,0.085082978,-0.639332056,0.0,0.0,95.56950378,0.13596250099999999,1593005649.59364,9.642824244408112
217,2020/06/24/22:34:09.693946,27930,1593005649,693638563,,,0,1593005696,-766.8764647999999,-0.10093277699999999,13.48099232,69.09003448,-0.2707555,0.27130577,-0.754803181,0.0,0.0,94.45409393,0.136258587,1593005649.69364,9.980482785335873
218,2020/06/24/22:34:09.793950,27931,1593005649,793647527,,,0,1593005696,-768.0910644999999,-0.959409595,13.52608299,68.37609863,-0.177643627,0.0470939316,-0.5832102889999999,0.0,0.0,96.78630066,0.136480764,1593005649.79365,10.220276797880622
219,2020/06/24/22:34:09.893952,27932,1593005649,893645048,,,0,1593005696,-770.0175781,-2.415262222,13.60010624,66.36230469,-0.421023011,-0.11732439,-0.672428191,0.0,0.0,99.72689819,0.136840075,1593005649.89365,10.654130765632651
220,2020/06/24/22:34:09.993956,27933,1593005649,993651628,,,0,1593005696,-771.2833862000001,-3.450212002,13.64155293,64.62322235,-0.519017696,0.0990493819,-0.877286673,0.0,0.0,100.5380936,0.137072399,1593005649.99365,10.91455052338241
221,2020/06/24/22:34:10.093954,27934,1593005650,93647718,,,0,1593005696,-772.7021484,-4.716145515,13.70281792,62.40940857,-0.493807435,0.265461773,-0.947793305,0.0,0.0,99.52410126,0.137353718,1593005650.09365,11.187568944796489
222,2020/06/24/22:34:10.193943,27935,1593005650,193637609,,,0,1593005696,-773.0387572999999,-5.03702116,13.72259521,61.87617874,-0.482601464,0.23018586600000002,-0.9016643759999999,0.0,0.0,99.11849976,0.137423545,1593005650.19364,11.261794082746071
223,2020/06/24/22:34:10.293986,27936,1593005650,293679714,,,0,1593005696,-774.7521362000001,-6.810542582999999,13.84597015,59.25745010000001,-0.48662579100000003,-0.116975665,-0.726447225,0.0,0.0,101.2479019,0.13777671800000002,1593005650.2936802,11.54533894283561
224,2020/06/24/22:34:10.393964,27937,1593005650,393658638,,,0,1593005696,-775.9536743,-8.198093414,13.924145699999999,56.91285706,-0.5631726979999999,-0.296207875,-0.575336814,0.0,0.0,105.9122925,0.138040751,1593005650.39366,11.74477021469066
225,2020/06/24/22:34:10.493957,27938,1593005650,493652820,,,0,1593005696,-776.8013306,-9.249895096,13.95545673,55.10136414,-0.588222504,-0.20523983199999998,-0.615257084,0.0,0.0,109.2584991,0.138227433,1593005650.49365,11.831404414459639
226,2020/06/24/22:34:10.593951,27939,1593005650,593648672,,,0,1593005696,-777.6635132,-10.40150452,13.97335052,53.00095367,-0.591974199,0.08155155929999999,-0.697281182,0.0,0.0,106.82489779999999,0.138436958,1593005650.59365,11.966841741526096
227,2020/06/24/22:34:10.693958,27940,1593005650,693651437,,,0,1593005696,-778.5088501,-11.65279865,14.00107765,50.81082916,-0.548977494,0.221886694,-0.740032613,0.0,0.0,96.17789459,0.13865508099999999,1593005650.69365,12.022780535524848
228,2020/06/24/22:34:10.793953,27941,1593005650,793650388,,,0,1593005696,-779.2146606000001,-12.82572556,14.04630661,49.06412125,-0.447737455,0.268692404,-0.670920968,0.0,0.0,91.61489105,0.13884405800000002,1593005650.79365,12.061346248969805
229,2020/06/24/22:34:10.893960,27942,1593005650,893653154,,,0,1593005696,-779.9997559,-14.30932617,14.12430763,47.03745651,-0.49322748200000005,-0.0225798041,-0.62788254,0.0,0.0,98.71289063,0.139093265,1593005650.89365,12.077679106053814
230,2020/06/24/22:34:10.993959,27943,1593005650,993643522,,,0,1593005696,-780.3788452,-15.11349869,14.16417694,46.01446533,-0.38800942899999996,-0.0751881003,-0.550622344,0.0,0.0,100.7408981,0.13922134,1593005650.99364,12.038218155373334
231,2020/06/24/22:34:11.093948,27944,1593005651,93643426,,,0,1593005696,-780.9890747000001,-16.56719208,14.21957016,44.16747284,-0.463332057,-0.165688425,-0.601073384,0.0,0.0,99.32129669,0.139449149,1593005651.09364,11.969791617231303
232,2020/06/24/22:34:11.194109,27945,1593005651,193762779,,,0,1593005696,-781.2403563999999,-17.24885368,14.23696423,43.21342468,-0.432320297,-0.025078445699999997,-0.6224479079999999,0.151600003,0.0,96.27929688,0.13955529,1593005651.19376,11.889211511161262
233,2020/06/24/22:34:11.293982,27946,1593005651,293669462,,,0,1593005696,-781.7543945,-18.89870644,14.28677273,41.69813919,-0.224997148,0.055136356500000004,-0.579053223,0.7653999920000001,0.0,88.67430115,0.139808655,1593005651.29367,11.725330151035141
234,2020/06/24/22:34:11.393954,27947,1593005651,393646001,,,0,1593005696,-781.8934937000001,-19.43403053,14.30550575,41.38897324,-0.16843670600000002,0.0461852401,-0.602503896,0.9474499820000001,0.0,85.73370361,0.139891505,1593005651.39365,11.659962336413706
235,2020/06/24/22:34:11.493967,27948,1593005651,493659734,,,0,1593005696,-782.2476807,-21.11676788,14.38119793,41.34236145,0.0297883824,0.0669353157,-0.528386414,1.0,0.0,80.35949707,0.14013020699999998,1593005651.49366,11.372692321850222
236,2020/06/24/22:34:11.593964,27949,1593005651,593658685,,,0,1593005696,-782.4078979,-22.13842201,14.43301296,41.50176239,0.0747425929,-0.0180812236,-0.439137965,1.0,0.0,76.50629425,0.140289947,1593005651.5936599,11.182521903067384
237,2020/06/24/22:34:11.693956,27950,1593005651,693647861,,,0,1593005696,-782.53479,-23.17040825,14.48349476,41.76462173,0.0718559623,-0.0582258217,-0.374258429,1.0,0.0,75.99929809999999,0.14043766300000002,1593005651.69365,10.931944233485886
238,2020/06/24/22:34:11.793952,27951,1593005651,793645143,,,0,1593005696,-782.6312866000001,-24.21324348,14.52950287,42.08008957,0.09111410380000001,-0.11503575699999999,-0.34951359,1.0,0.0,77.92589569,0.14058378300000002,1593005651.79365,10.72243026212581
239,2020/06/24/22:34:11.893963,27952,1593005651,893656253,,,0,1593005696,-782.7130737000001,-25.51838303,14.57582855,42.79757309,0.217134789,-0.09339597820000001,-0.33689034,1.0,0.0,81.06929779,0.14077802,1593005651.89366,10.432719298581807
240,2020/06/24/22:34:11.993951,27953,1593005651,993652820,,,0,1593005696,-782.7532959,-26.66922379,14.60612965,43.54377365,0.211766526,-0.0631388202,-0.323606908,1.0,0.0,82.28609467,0.140945807,1593005651.99365,10.169236273035189
241,2020/06/24/22:34:12.093957,27954,1593005652,93651533,,,0,1593005696,-782.760437,-28.25572968,14.63850975,44.95855713,0.35465455100000004,-0.029504021600000003,-0.311769277,1.0,0.0,76.4048996,0.141177684,1593005652.09365,9.783890479624752
242,2020/06/24/22:34:12.193953,27955,1593005652,193646430,,,0,1593005696,-782.7338257,-29.31621552,14.65813065,45.87665176,0.307356447,0.054332092400000004,-0.38524398200000004,1.0,0.0,69.10409546,0.141317546,1593005652.19365,9.49311186263242
243,2020/06/24/22:34:12.293951,27956,1593005652,293645381,,,0,1593005696,-782.6848144999999,-30.3188343,14.67863846,46.71431351,0.291743696,0.0658351108,-0.347173661,1.0,0.0,58.05149841,0.141470954,1593005652.29365,9.251936941837455
244,2020/06/24/22:34:12.393969,27957,1593005652,393661737,,,0,1593005696,-782.5529785,-32.01437759,14.72261238,48.15030289,0.338570893,0.127122551,-0.340746045,1.0,0.0,37.36589813,0.14171330599999998,1593005652.39366,8.813875245561725
